[
  {
    "mu_place": "ถ้ำนาคา",
    "name": "น้ำตกเจ็ดสี",
    "address": "5X63+26V ตำบล บ้านต้อง อำเภอ บุ่งคล้า",
    "lat": 18.1601169,
    "lng": 103.9530437
  },
  {
    "mu_place": "ถ้ำนาคา",
    "name": "นาดี ฟาร์ม",
    "address": "V6FP+P6Q Unnamed Road ตำบล โพนทอง อำเภอ บ้านแพง",
    "lat": 17.8743497,
    "lng": 104.235602
  },
  {
    "mu_place": "ถ้ำนาคา",
    "name": "ถ้ำนาคี นครพนม(Nakee Cave)",
    "address": "X4MG+XW5 ตำบล ไผ่ล้อม อำเภอ บ้านแพง",
    "lat": 17.984897,
    "lng": 104.127357
  },
  {
    "mu_place": "ถ้ำนาคา",
    "name": "ร้อย. ทพที่2107",
    "address": "บ้านโพธิ์ชัย ตำบล ไผ่ล้อม อำเภอ บ้านแพง",
    "lat": 18.013956,
    "lng": 104.189737
  },
  {
    "mu_place": "ถ้ำนาคา",
    "name": "เจดีย์พระธาตุน้อยฐานหินลายเกล็ด",
    "address": "X4F7+F6C ตำบล โพธิ์หมากแข้ง อำเภอ บึงโขงหลง",
    "lat": 17.9736938,
    "lng": 104.1130017
  },
  {
    "mu_place": "ถ้ำนาคา",
    "name": "รอยเหมือนพระพุทธบาทจำลองวัดอ่างมโนราห์",
    "address": "W48M+85X ตำบล หนองซน อำเภอ นาทม",
    "lat": 17.9158522,
    "lng": 104.1329797
  },
  {
    "mu_place": "ถ้ำนาคา",
    "name": "ทางขึ้นสักการะหลวงพ่อพระขาว",
    "address": "W3WV+9V5 ตำบล โพธิ์หมากแข้ง อำเภอ บึงโขงหลง",
    "lat": 17.9458898,
    "lng": 104.0947274
  },
  {
    "mu_place": "ถ้ำนาคา",
    "name": "Maher Mekong Sanctuary",
    "address": "255V+V56 ตำบล บ้านแพง อำเภอ บ้านแพง",
    "lat": 18.0096875,
    "lng": 104.1929375
  },
  {
    "mu_place": "ถ้ำนาคา",
    "name": "Maher Mekong Sanctuary",
    "address": "254v+jjx ต, ตำบล บ้านแพง อำเภอ บ้านแพง",
    "lat": 18.0065625,
    "lng": 104.1940625
  },
  {
    "mu_place": "ถ้ำนาคา",
    "name": "รอยหินคล้ายคันไถนา",
    "address": "W48R+JC3 ตำบล หนองซน อำเภอ นาทม",
    "lat": 17.9165198,
    "lng": 104.1410327
  },
  {
    "mu_place": "ถ้ำนาคา",
    "name": "รอยหินคันไถนาบ้านาสาร",
    "address": "W48R+JC3 ตำบล หนองซน อำเภอ นาทม",
    "lat": 17.916523,
    "lng": 104.1410313
  },
  {
    "mu_place": "ถ้ำนาคา",
    "name": "เจดีย์กองข้าวศรีบุญเนาว์",
    "address": "X4C9+237 ตำบล ไผ่ล้อม อำเภอ บ้านแพง",
    "lat": 17.9700481,
    "lng": 104.1176606
  },
  {
    "mu_place": "ท้าวเวสสุวรรณ วัดพระศรีรัตนมหาธาตุวิหาร(วัดใหญ่)",
    "name": "เขาสมอแคลง",
    "address": "RCV3+38R ตำบลวังทอง อำเภอวังทอง",
    "lat": 16.8427419,
    "lng": 100.4032712
  },
  {
    "mu_place": "ท้าวเวสสุวรรณ วัดพระศรีรัตนมหาธาตุวิหาร(วัดใหญ่)",
    "name": "บ้านไร่ รั้วไทรงาม",
    "address": "P7P6+2W9 ตำบล บึงพระ อำเภอเมืองพิษณุโลก",
    "lat": 16.7350363,
    "lng": 100.262352
  },
  {
    "mu_place": "ท้าวเวสสุวรรณ วัดพระศรีรัตนมหาธาตุวิหาร(วัดใหญ่)",
    "name": "Street art Phitsanulok (tiger tunnel)",
    "address": "834 สถานีขนส่งผู้โดยสาร จังหวัดพิษณุโลก 44-45 Mittraphap Road อำเภอเมืองพิษณุโลก",
    "lat": 16.8180517,
    "lng": 100.2787912
  },
  {
    "mu_place": "ท้าวเวสสุวรรณ วัดพระศรีรัตนมหาธาตุวิหาร(วัดใหญ่)",
    "name": "Street art Phitsanulok (tiger&man)",
    "address": "187 ถ. บรมไตรโลกนารถ ตำบล ในเมือง อำเภอเมืองพิษณุโลก",
    "lat": 16.8127773,
    "lng": 100.2625022
  },
  {
    "mu_place": "ท้าวเวสสุวรรณ วัดพระศรีรัตนมหาธาตุวิหาร(วัดใหญ่)",
    "name": "ลานสมเด็จพระนเรศวรมหาราช",
    "address": "P5XR+VC7 ตำบล ท่าโพธิ์ อำเภอเมืองพิษณุโลก",
    "lat": 16.7496534,
    "lng": 100.1910485
  },
  {
    "mu_place": "ท้าวเวสสุวรรณ วัดพระศรีรัตนมหาธาตุวิหาร(วัดใหญ่)",
    "name": "พระราชวังจันทน์",
    "address": "R7H6+WGQ ตำบลบ้านคลอง อำเภอเมืองพิษณุโลก",
    "lat": 16.8298844,
    "lng": 100.2613844
  },
  {
    "mu_place": "ท้าวเวสสุวรรณ วัดพระศรีรัตนมหาธาตุวิหาร(วัดใหญ่)",
    "name": "ทุ่งโสกา",
    "address": "Q69P+FC7 Unnamed Road ตำบล ท่าโพธิ์ อำเภอเมืองพิษณุโลก",
    "lat": 16.768673,
    "lng": 100.236054
  },
  {
    "mu_place": "ท้าวเวสสุวรรณ วัดพระศรีรัตนมหาธาตุวิหาร(วัดใหญ่)",
    "name": "สวนบัวอมรรัตน์ บัวกระด้ง พิษณุโลก (Victoria Waterlilies)",
    "address": "R6CJ+2FW ตำบลบ้านคลอง อำเภอเมืองพิษณุโลก",
    "lat": 16.820105,
    "lng": 100.2312048
  },
  {
    "mu_place": "ท้าวเวสสุวรรณ วัดพระศรีรัตนมหาธาตุวิหาร(วัดใหญ่)",
    "name": "สวนภูวนาอินทผลัม",
    "address": "ซอยหนองหัวยาง 5 บ้านหนองหัวยาง ตำบล ท่าทอง อำเภอเมืองพิษณุโลก",
    "lat": 16.814509,
    "lng": 100.1645373
  },
  {
    "mu_place": "ท้าวเวสสุวรรณ วัดพระศรีรัตนมหาธาตุวิหาร(วัดใหญ่)",
    "name": "พิพิธภัณฑ์พื้นบ้านจ่าทวี",
    "address": "26/138 ถนนวิสุทธิ์กษัตริย์ ตำบล ในเมือง อำเภอเมืองพิษณุโลก",
    "lat": 16.8060025,
    "lng": 100.2674663
  },
  {
    "mu_place": "ท้าวเวสสุวรรณ วัดพระศรีรัตนมหาธาตุวิหาร(วัดใหญ่)",
    "name": "RAMA Street Art",
    "address": "268/141 ถ. บรมไตรโลกนารถ ตำบล ในเมือง อำเภอเมืองพิษณุโลก",
    "lat": 16.8068643,
    "lng": 100.2538475
  },
  {
    "mu_place": "ท้าวเวสสุวรรณ วัดพระศรีรัตนมหาธาตุวิหาร(วัดใหญ่)",
    "name": "Street art Phitsanulok (Golden Tiger)",
    "address": "27/8 ไสฤาไท ตำบล ในเมือง อำเภอเมืองพิษณุโลก",
    "lat": 16.8142798,
    "lng": 100.2644473
  },
  {
    "mu_place": "ท้าวเวสสุวรรณ วัดพระศรีรัตนมหาธาตุวิหาร(วัดใหญ่)",
    "name": "วังมัจฉา",
    "address": "R52X+PVX ตำบล ท่าทอง อำเภอเมืองพิษณุโลก",
    "lat": 16.801871,
    "lng": 100.1997408
  },
  {
    "mu_place": "ท้าวเวสสุวรรณ วัดพระศรีรัตนมหาธาตุวิหาร(วัดใหญ่)",
    "name": "วัดจุฬามณี เมืองพิษณุโลก",
    "address": "50/3 หมู่2 ริมแม่น้ำน่าน ตำบล ท่าทอง อำเภอเมืองพิษณุโลก",
    "lat": 16.7877119,
    "lng": 100.2166496
  },
  {
    "mu_place": "ท้าวเวสสุวรรณ วัดพระศรีรัตนมหาธาตุวิหาร(วัดใหญ่)",
    "name": "สวนโกโก้แม่เลียม",
    "address": "90 บ้านทุ่งน้อย 7 ตำบล ท่าตาล อำเภอ บางกระทุ่ม",
    "lat": 16.6604581,
    "lng": 100.3637048
  },
  {
    "mu_place": "ท้าวเวสสุวรรณ วัดพระศรีรัตนมหาธาตุวิหาร(วัดใหญ่)",
    "name": "Wepergee",
    "address": "87 ในเมือง เมือง",
    "lat": 16.8208131,
    "lng": 100.2640036
  },
  {
    "mu_place": "ท้าวเวสสุวรรณ วัดพระศรีรัตนมหาธาตุวิหาร(วัดใหญ่)",
    "name": "Naresuan University Gate 3",
    "address": "P5RR+6JF ตำบล ท่าโพธิ์ อำเภอเมืองพิษณุโลก",
    "lat": 16.7405641,
    "lng": 100.1915597
  },
  {
    "mu_place": "ท้าวเวสสุวรรณ วัดพระศรีรัตนมหาธาตุวิหาร(วัดใหญ่)",
    "name": "ศูนย์ประวัติศาสตร์พระราชวังจันทน์",
    "address": "2 ถนน วังจันทน์ ตำบล ในเมือง อำเภอเมืองพิษณุโลก",
    "lat": 16.8285408,
    "lng": 100.2620804
  },
  {
    "mu_place": "ท้าวเวสสุวรรณ วัดพระศรีรัตนมหาธาตุวิหาร(วัดใหญ่)",
    "name": "Sunflower 2022 @wangthong",
    "address": "ตำบลวังทอง อำเภอวังทอง",
    "lat": 16.8161694,
    "lng": 100.4325445
  },
  {
    "mu_place": "ท้าวเวสสุวรรณ วัดพระศรีรัตนมหาธาตุวิหาร(วัดใหญ่)",
    "name": "วัดนางพญา",
    "address": "R7F6+2QF, ถนน, จ่าการบุญ อำเภอเมืองพิษณุโลก",
    "lat": 16.8226756,
    "lng": 100.2619229
  },
  {
    "mu_place": "วัดมณีวงศ์",
    "name": "เขื่อนขุนด่านปราการชล",
    "address": "หมู่ที่ 2 บ้านท่าด่าน ตำบล หินตั้ง อำเภอเมืองนครนายก",
    "lat": 14.3140835,
    "lng": 101.3213219
  },
  {
    "mu_place": "วัดมณีวงศ์",
    "name": "วังมัจฉา",
    "address": "366 ปราจีนอนุสรณ์ ตำบล หน้าเมือง อำเภอเมืองปราจีนบุรี",
    "lat": 14.0518468,
    "lng": 101.3638754
  },
  {
    "mu_place": "วัดมณีวงศ์",
    "name": "ทุ่งบัวแดง บ้านนา นครนายก",
    "address": "63JC+947 ทางหลวงแผ่นดินหมายเลข. 3051 ตำบล ทองหลาง อำเภอบ้านนา",
    "lat": 14.2309123,
    "lng": 101.070288
  },
  {
    "mu_place": "วัดมณีวงศ์",
    "name": "เอเดนฟาร์ม นครนายก",
    "address": "655J+5RH ถนน รังสิต - นครนายก ตำบล คลองใหญ่ อำเภอองครักษ์",
    "lat": 14.2079474,
    "lng": 101.1821211
  },
  {
    "mu_place": "วัดมณีวงศ์",
    "name": "น้ำตกสาริกา",
    "address": "8754+G49 ตำบล สาริกา อำเภอเมืองนครนายก",
    "lat": 14.3087955,
    "lng": 101.2553557
  },
  {
    "mu_place": "วัดมณีวงศ์",
    "name": "ที่ทำการหมู่บ้านท่องเที่ยวชุมชนบ้านวังรี",
    "address": "ที่ทำการผู้ใหญ่บ้าน​ หมู่​ 12​ บ้านวังรี ซอย โยธาธิการ ตำบล เขาพระ อำเภอเมืองนครนายก",
    "lat": 14.3351603,
    "lng": 101.1927134
  },
  {
    "mu_place": "วัดมณีวงศ์",
    "name": "จุดถ่าย สปิลเวย์ เขื่อนขุนด่านปราการชล",
    "address": "8869+FWM Unnamed Road ตำบล หินตั้ง อำเภอเมืองนครนายก",
    "lat": 14.3112117,
    "lng": 101.3197981
  },
  {
    "mu_place": "วัดมณีวงศ์",
    "name": "โบสถ์เก่าวัดป่ากระทุ่ม 200 กว่าปี",
    "address": "64FM+J93 ตำบล พรหมณี อำเภอเมืองนครนายก",
    "lat": 14.2240163,
    "lng": 101.133432
  },
  {
    "mu_place": "วัดมณีวงศ์",
    "name": "เมืองโบราณดงละคร",
    "address": "2010 ซอย พาณิชย์เจริญ 3 ตำบล ดงละคร อำเภอเมืองนครนายก",
    "lat": 14.1591984,
    "lng": 101.1670868
  },
  {
    "mu_place": "วัดมณีวงศ์",
    "name": "ไร่ก้ามปู",
    "address": "ไร่ก้ามปู สาริกา-นางรอง ตำบล สาริกา อำเภอเมืองนครนายก",
    "lat": 14.2595703,
    "lng": 101.2808536
  },
  {
    "mu_place": "วัดมณีวงศ์",
    "name": "Rice Field Viewpoint",
    "address": "67PQ+XQQ Unnamed Road ตำบล ศรีนาวา อำเภอเมืองนครนายก",
    "lat": 14.2374573,
    "lng": 101.2894825
  },
  {
    "mu_place": "วัดมณีวงศ์",
    "name": "บึงบัวเเดง",
    "address": "90 หมู่ 10 ตำบล บ้านพร้าว อำเภอบ้านนา",
    "lat": 14.2148163,
    "lng": 101.1316348
  },
  {
    "mu_place": "วัดมณีวงศ์",
    "name": "น้ำตกวังตะไคร้",
    "address": "ตำบล สาริกา อำเภอเมืองนครนายก",
    "lat": 14.3356255,
    "lng": 101.3061883
  },
  {
    "mu_place": "วัดมณีวงศ์",
    "name": "Khlong Bod Reservoir",
    "address": "75PR+JQ6 ตำบล เขาพระ อำเภอเมืองนครนายก",
    "lat": 14.2865358,
    "lng": 101.1919006
  },
  {
    "mu_place": "วัดมณีวงศ์",
    "name": "สะพานทุ่งนาน้อยเขาหล่น",
    "address": "68 อำเถอ, 2 ตำบล สาริกา เมือง",
    "lat": 14.26751,
    "lng": 101.26104
  },
  {
    "mu_place": "วัดมณีวงศ์",
    "name": "ซุ้มต้นไผ่ วัดจุฬาภรณ์วนาราม นครนายก",
    "address": "72HJ+FRF ตำบล บ้านพริก อำเภอบ้านนา",
    "lat": 14.2786806,
    "lng": 101.0320625
  },
  {
    "mu_place": "วัดมณีวงศ์",
    "name": "สวนวสา",
    "address": "5274+QPP ตำบล บางปลากด อำเภอองครักษ์",
    "lat": 14.164451,
    "lng": 101.0068419
  },
  {
    "mu_place": "วัดมณีวงศ์",
    "name": "สวนเกษตรพอเพียง ครูก้อย",
    "address": "778P+5R7 ทางหลวงแผ่นดินหมายเลข. 3239 ตำบล หินตั้ง อำเภอเมืองนครนายก",
    "lat": 14.2654192,
    "lng": 101.2870713
  },
  {
    "mu_place": "วัดมณีวงศ์",
    "name": "อ่างเก็บน้ำห้วยปรือ นครนายก",
    "address": "8657+V7Q ตำบล เขาพระ อำเภอเมืองนครนายก",
    "lat": 14.3097157,
    "lng": 101.2132303
  },
  {
    "mu_place": "วัดมณีวงศ์",
    "name": "น้ำตกช่องลม",
    "address": "889Q+XCQ ตำบล นาหินลาด อำเภอเมืองนครนายก",
    "lat": 14.3199652,
    "lng": 101.3386168
  },
  {
    "mu_place": "วัดอินทรวิหาร พระอารามหลวง (บางขุนพรหม)",
    "name": "หอดูนก สวนศรีนครเขื่อนขันธ์",
    "address": "MHW9+F9V ตำบล บางกะเจ้า อำเภอพระประแดง",
    "lat": 13.6962495,
    "lng": 100.5684135
  },
  {
    "mu_place": "วัดอินทรวิหาร พระอารามหลวง (บางขุนพรหม)",
    "name": "มิวเซียมสยาม",
    "address": "4 ถนน สนามไชย แขวงพระบรมมหาราชวัง เขตพระนคร",
    "lat": 13.744147,
    "lng": 100.494137
  },
  {
    "mu_place": "วัดอินทรวิหาร พระอารามหลวง (บางขุนพรหม)",
    "name": "พระที่นั่งพิมานจักรี",
    "address": "315 ถ. ราชวิถี แขวงทุ่งพญาไท เขตราชเทวี",
    "lat": 13.7685069,
    "lng": 100.5328757
  },
  {
    "mu_place": "วัดอินทรวิหาร พระอารามหลวง (บางขุนพรหม)",
    "name": "ไร่เหมือนจันทร์",
    "address": "166/1 ถนน เลียบคลองทวีวัฒนา แขวงบางไผ่ เขตบางแค",
    "lat": 13.7385124,
    "lng": 100.3592722
  },
  {
    "mu_place": "วัดอินทรวิหาร พระอารามหลวง (บางขุนพรหม)",
    "name": "สวนเกร็ดพุทธ",
    "address": "WF4Q+254 ตำบล เกาะเกร็ด อำเภอปากเกร็ด",
    "lat": 13.9050229,
    "lng": 100.4879706
  },
  {
    "mu_place": "วัดอินทรวิหาร พระอารามหลวง (บางขุนพรหม)",
    "name": "พิพิธภัณฑ์ช้างเอราวัณ",
    "address": "99 ถ. กาญจนาภิเษก ตำบล บางเมืองใหม่ อำเภอเมืองสมุทรปราการ",
    "lat": 13.6285771,
    "lng": 100.5889193
  },
  {
    "mu_place": "วัดอินทรวิหาร พระอารามหลวง (บางขุนพรหม)",
    "name": "ตลาดน้ำคลองบางหลวง",
    "address": "13°43'48. 100°27'50. 99/5 ซอย เพชรเกษม 20 แขวงปากคลองภาษีเจริญ เขตภาษีเจริญ",
    "lat": 13.7316243,
    "lng": 100.46312
  },
  {
    "mu_place": "วัดอินทรวิหาร พระอารามหลวง (บางขุนพรหม)",
    "name": "คลองบางหลวง (คลองบางกอกใหญ่)",
    "address": "ซอย เพชรเกษม 20 แขวงปากคลองภาษีเจริญ เขตภาษีเจริญ",
    "lat": 13.7316031,
    "lng": 100.4632156
  },
  {
    "mu_place": "วัดอินทรวิหาร พระอารามหลวง (บางขุนพรหม)",
    "name": "ตลาดน้ำตลิ่งชัน",
    "address": "333 ถนน ชักพระ แขวงคลองชักพระ เขตตลิ่งชัน",
    "lat": 13.7762674,
    "lng": 100.4565979
  },
  {
    "mu_place": "วัดอินทรวิหาร พระอารามหลวง (บางขุนพรหม)",
    "name": "ซีไลฟ์ แบงคอก",
    "address": "ชั้น บี1-บี2 สยามพารากอน 991 ถ. พระรามที่ ๑ แขวงปทุมวัน เขตปทุมวัน",
    "lat": 13.7459351,
    "lng": 100.5352057
  },
  {
    "mu_place": "วัดอินทรวิหาร พระอารามหลวง (บางขุนพรหม)",
    "name": "บ้านศิลปินคลองบางหลวง : Artist House Bangkok",
    "address": "309 ซอย เพชรเกษม 28 แขวงคูหาสวรรค์ เขตภาษีเจริญ",
    "lat": 13.7312977,
    "lng": 100.4632778
  },
  {
    "mu_place": "วัดอินทรวิหาร พระอารามหลวง (บางขุนพรหม)",
    "name": "หาดเติมรัก บางบัวทอง",
    "address": "ตำบล บางคูรัด อำเภอบางบัวทอง",
    "lat": 13.8949929,
    "lng": 100.3518422
  },
  {
    "mu_place": "วัดอินทรวิหาร พระอารามหลวง (บางขุนพรหม)",
    "name": "Guide Thailandia & Tours",
    "address": "888TT Building, ซ. สุขุมวิท 81 แขวงบางจาก เขตพระโขนง",
    "lat": 13.7061533,
    "lng": 100.6050823
  },
  {
    "mu_place": "วัดอินทรวิหาร พระอารามหลวง (บางขุนพรหม)",
    "name": "เสาชิงช้า",
    "address": "239 ถนน ดินสอ แขวงบางขุนพรหม เขตพระนคร",
    "lat": 13.7517707,
    "lng": 100.5012761
  },
  {
    "mu_place": "วัดอินทรวิหาร พระอารามหลวง (บางขุนพรหม)",
    "name": "พระตำหนักแดง",
    "address": "4 ถ. หน้าพระธาตุ แขวงพระบรมมหาราชวัง เขตพระนคร",
    "lat": 13.7577024,
    "lng": 100.491825
  },
  {
    "mu_place": "วัดอินทรวิหาร พระอารามหลวง (บางขุนพรหม)",
    "name": "สูงวัยพาเที่ยว",
    "address": "JGFQ+F6J ถ. สุขสวัสดิ์ เขตจอมทอง",
    "lat": 13.6237038,
    "lng": 100.5380215
  },
  {
    "mu_place": "วัดอินทรวิหาร พระอารามหลวง (บางขุนพรหม)",
    "name": "อุทยานผีเสื้อและแมลง กรุงเทพฯ",
    "address": "สวนวิชรเบญจทิศ(สวนรถไฟ ถนน กำแพงเพชร 3 แขวงลาดยาว เขตจตุจักร",
    "lat": 13.8095512,
    "lng": 100.5549011
  },
  {
    "mu_place": "วัดอินทรวิหาร พระอารามหลวง (บางขุนพรหม)",
    "name": "สถานที่ถ่ายรูป พระธรรมกายเทพมงคล",
    "address": "766 ถนน เพชรเกษมสายเก่า แขวงวัดท่าพระ เขตบางกอกใหญ่",
    "lat": 13.7232028,
    "lng": 100.480732
  },
  {
    "mu_place": "วัดอินทรวิหาร พระอารามหลวง (บางขุนพรหม)",
    "name": "ริมน้ำโขง หอ14",
    "address": "50, Kasetsart University, Ngam Wong Wan Road, Lat Yao, Khet Chatuchak, Bangkok, 10900 แขวงลาดยาว เขตจตุจักร",
    "lat": 13.8487664,
    "lng": 100.5688721
  },
  {
    "mu_place": "วัดอินทรวิหาร พระอารามหลวง (บางขุนพรหม)",
    "name": "ลาน 60 ปี ธรรมศาสตร์",
    "address": "2 ถ. หน้าพระธาตุ แขวงพระบรมมหาราชวัง เขตพระนคร",
    "lat": 13.7575138,
    "lng": 100.4895887
  },
  {
    "mu_place": "ศาลเจ้าพ่อกรมหลวงชุมพร อุดมศักดิ์",
    "name": "หอดูนก สวนศรีนครเขื่อนขันธ์",
    "address": "MHW9+F9V ตำบล บางกะเจ้า อำเภอพระประแดง",
    "lat": 13.6962495,
    "lng": 100.5684135
  },
  {
    "mu_place": "ศาลเจ้าพ่อกรมหลวงชุมพร อุดมศักดิ์",
    "name": "มิวเซียมสยาม",
    "address": "4 ถนน สนามไชย แขวงพระบรมมหาราชวัง เขตพระนคร",
    "lat": 13.744147,
    "lng": 100.494137
  },
  {
    "mu_place": "ศาลเจ้าพ่อกรมหลวงชุมพร อุดมศักดิ์",
    "name": "พระที่นั่งพิมานจักรี",
    "address": "315 ถ. ราชวิถี แขวงทุ่งพญาไท เขตราชเทวี",
    "lat": 13.7685069,
    "lng": 100.5328757
  },
  {
    "mu_place": "ศาลเจ้าพ่อกรมหลวงชุมพร อุดมศักดิ์",
    "name": "ไร่เหมือนจันทร์",
    "address": "166/1 ถนน เลียบคลองทวีวัฒนา แขวงบางไผ่ เขตบางแค",
    "lat": 13.7385124,
    "lng": 100.3592722
  },
  {
    "mu_place": "ศาลเจ้าพ่อกรมหลวงชุมพร อุดมศักดิ์",
    "name": "สวนเกร็ดพุทธ",
    "address": "WF4Q+254 ตำบล เกาะเกร็ด อำเภอปากเกร็ด",
    "lat": 13.9050229,
    "lng": 100.4879706
  },
  {
    "mu_place": "ศาลเจ้าพ่อกรมหลวงชุมพร อุดมศักดิ์",
    "name": "พิพิธภัณฑ์ช้างเอราวัณ",
    "address": "99 ถ. กาญจนาภิเษก ตำบล บางเมืองใหม่ อำเภอเมืองสมุทรปราการ",
    "lat": 13.6285771,
    "lng": 100.5889193
  },
  {
    "mu_place": "ศาลเจ้าพ่อกรมหลวงชุมพร อุดมศักดิ์",
    "name": "ตลาดน้ำคลองบางหลวง",
    "address": "13°43'48. 100°27'50. 99/5 ซอย เพชรเกษม 20 แขวงปากคลองภาษีเจริญ เขตภาษีเจริญ",
    "lat": 13.7316243,
    "lng": 100.46312
  },
  {
    "mu_place": "ศาลเจ้าพ่อกรมหลวงชุมพร อุดมศักดิ์",
    "name": "คลองบางหลวง (คลองบางกอกใหญ่)",
    "address": "ซอย เพชรเกษม 20 แขวงปากคลองภาษีเจริญ เขตภาษีเจริญ",
    "lat": 13.7316031,
    "lng": 100.4632156
  },
  {
    "mu_place": "ศาลเจ้าพ่อกรมหลวงชุมพร อุดมศักดิ์",
    "name": "ตลาดน้ำตลิ่งชัน",
    "address": "333 ถนน ชักพระ แขวงคลองชักพระ เขตตลิ่งชัน",
    "lat": 13.7762674,
    "lng": 100.4565979
  },
  {
    "mu_place": "ศาลเจ้าพ่อกรมหลวงชุมพร อุดมศักดิ์",
    "name": "ซีไลฟ์ แบงคอก",
    "address": "ชั้น บี1-บี2 สยามพารากอน 991 ถ. พระรามที่ ๑ แขวงปทุมวัน เขตปทุมวัน",
    "lat": 13.7459351,
    "lng": 100.5352057
  },
  {
    "mu_place": "ศาลเจ้าพ่อกรมหลวงชุมพร อุดมศักดิ์",
    "name": "บ้านศิลปินคลองบางหลวง : Artist House Bangkok",
    "address": "309 ซอย เพชรเกษม 28 แขวงคูหาสวรรค์ เขตภาษีเจริญ",
    "lat": 13.7312977,
    "lng": 100.4632778
  },
  {
    "mu_place": "ศาลเจ้าพ่อกรมหลวงชุมพร อุดมศักดิ์",
    "name": "หาดเติมรัก บางบัวทอง",
    "address": "ตำบล บางคูรัด อำเภอบางบัวทอง",
    "lat": 13.8949929,
    "lng": 100.3518422
  },
  {
    "mu_place": "ศาลเจ้าพ่อกรมหลวงชุมพร อุดมศักดิ์",
    "name": "Guide Thailandia & Tours",
    "address": "888TT Building, ซ. สุขุมวิท 81 แขวงบางจาก เขตพระโขนง",
    "lat": 13.7061533,
    "lng": 100.6050823
  },
  {
    "mu_place": "ศาลเจ้าพ่อกรมหลวงชุมพร อุดมศักดิ์",
    "name": "เสาชิงช้า",
    "address": "239 ถนน ดินสอ แขวงบางขุนพรหม เขตพระนคร",
    "lat": 13.7517707,
    "lng": 100.5012761
  },
  {
    "mu_place": "ศาลเจ้าพ่อกรมหลวงชุมพร อุดมศักดิ์",
    "name": "พระตำหนักแดง",
    "address": "4 ถ. หน้าพระธาตุ แขวงพระบรมมหาราชวัง เขตพระนคร",
    "lat": 13.7577024,
    "lng": 100.491825
  },
  {
    "mu_place": "ศาลเจ้าพ่อกรมหลวงชุมพร อุดมศักดิ์",
    "name": "สูงวัยพาเที่ยว",
    "address": "JGFQ+F6J ถ. สุขสวัสดิ์ เขตจอมทอง",
    "lat": 13.6237038,
    "lng": 100.5380215
  },
  {
    "mu_place": "ศาลเจ้าพ่อกรมหลวงชุมพร อุดมศักดิ์",
    "name": "อุทยานผีเสื้อและแมลง กรุงเทพฯ",
    "address": "สวนวิชรเบญจทิศ(สวนรถไฟ ถนน กำแพงเพชร 3 แขวงลาดยาว เขตจตุจักร",
    "lat": 13.8095512,
    "lng": 100.5549011
  },
  {
    "mu_place": "ศาลเจ้าพ่อกรมหลวงชุมพร อุดมศักดิ์",
    "name": "สถานที่ถ่ายรูป พระธรรมกายเทพมงคล",
    "address": "766 ถนน เพชรเกษมสายเก่า แขวงวัดท่าพระ เขตบางกอกใหญ่",
    "lat": 13.7232028,
    "lng": 100.480732
  },
  {
    "mu_place": "ศาลเจ้าพ่อกรมหลวงชุมพร อุดมศักดิ์",
    "name": "ริมน้ำโขง หอ14",
    "address": "50, Kasetsart University, Ngam Wong Wan Road, Lat Yao, Khet Chatuchak, Bangkok, 10900 แขวงลาดยาว เขตจตุจักร",
    "lat": 13.8487664,
    "lng": 100.5688721
  },
  {
    "mu_place": "ศาลเจ้าพ่อกรมหลวงชุมพร อุดมศักดิ์",
    "name": "ลาน 60 ปี ธรรมศาสตร์",
    "address": "2 ถ. หน้าพระธาตุ แขวงพระบรมมหาราชวัง เขตพระนคร",
    "lat": 13.7575138,
    "lng": 100.4895887
  },
  {
    "mu_place": "วิหารพระพุทธชินราชมงคลปราการ",
    "name": "หอดูนก สวนศรีนครเขื่อนขันธ์",
    "address": "MHW9+F9V ตำบล บางกะเจ้า อำเภอพระประแดง",
    "lat": 13.6962495,
    "lng": 100.5684135
  },
  {
    "mu_place": "วิหารพระพุทธชินราชมงคลปราการ",
    "name": "มิวเซียมสยาม",
    "address": "4 ถนน สนามไชย แขวงพระบรมมหาราชวัง เขตพระนคร",
    "lat": 13.744147,
    "lng": 100.494137
  },
  {
    "mu_place": "วิหารพระพุทธชินราชมงคลปราการ",
    "name": "พระที่นั่งพิมานจักรี",
    "address": "315 ถ. ราชวิถี แขวงทุ่งพญาไท เขตราชเทวี",
    "lat": 13.7685069,
    "lng": 100.5328757
  },
  {
    "mu_place": "วิหารพระพุทธชินราชมงคลปราการ",
    "name": "เมืองโบราณ",
    "address": "296 1 ถ. สุขุมวิท ตำบล บางปูใหม่ อำเภอเมืองสมุทรปราการ",
    "lat": 13.5477108,
    "lng": 100.6300391
  },
  {
    "mu_place": "วิหารพระพุทธชินราชมงคลปราการ",
    "name": "พิพิธภัณฑ์ช้างเอราวัณ",
    "address": "99 ถ. กาญจนาภิเษก ตำบล บางเมืองใหม่ อำเภอเมืองสมุทรปราการ",
    "lat": 13.6285771,
    "lng": 100.5889193
  },
  {
    "mu_place": "วิหารพระพุทธชินราชมงคลปราการ",
    "name": "ตลาดน้ำคลองบางหลวง",
    "address": "13°43'48. 100°27'50. 99/5 ซอย เพชรเกษม 20 แขวงปากคลองภาษีเจริญ เขตภาษีเจริญ",
    "lat": 13.7316243,
    "lng": 100.46312
  },
  {
    "mu_place": "วิหารพระพุทธชินราชมงคลปราการ",
    "name": "สถานตากอากาศบางปู",
    "address": "164 ถ. สุขุมวิท ตำบล บางปูใหม่ อำเภอเมืองสมุทรปราการ",
    "lat": 13.5172594,
    "lng": 100.6549268
  },
  {
    "mu_place": "วิหารพระพุทธชินราชมงคลปราการ",
    "name": "คลองบางหลวง (คลองบางกอกใหญ่)",
    "address": "ซอย เพชรเกษม 20 แขวงปากคลองภาษีเจริญ เขตภาษีเจริญ",
    "lat": 13.7316031,
    "lng": 100.4632156
  },
  {
    "mu_place": "วิหารพระพุทธชินราชมงคลปราการ",
    "name": "ตลาดน้ำตลิ่งชัน",
    "address": "333 ถนน ชักพระ แขวงคลองชักพระ เขตตลิ่งชัน",
    "lat": 13.7762674,
    "lng": 100.4565979
  },
  {
    "mu_place": "วิหารพระพุทธชินราชมงคลปราการ",
    "name": "วิหารวัดพร้าว ตาก (จำลอง)",
    "address": "เมืองโบราณ ตำบล แพรกษา อำเภอเมืองสมุทรปราการ",
    "lat": 13.5494887,
    "lng": 100.6310212
  },
  {
    "mu_place": "วิหารพระพุทธชินราชมงคลปราการ",
    "name": "ซีไลฟ์ แบงคอก",
    "address": "ชั้น บี1-บี2 สยามพารากอน 991 ถ. พระรามที่ ๑ แขวงปทุมวัน เขตปทุมวัน",
    "lat": 13.7459351,
    "lng": 100.5352057
  },
  {
    "mu_place": "วิหารพระพุทธชินราชมงคลปราการ",
    "name": "บ้านศิลปินคลองบางหลวง : Artist House Bangkok",
    "address": "309 ซอย เพชรเกษม 28 แขวงคูหาสวรรค์ เขตภาษีเจริญ",
    "lat": 13.7312977,
    "lng": 100.4632778
  },
  {
    "mu_place": "วิหารพระพุทธชินราชมงคลปราการ",
    "name": "Guide Thailandia & Tours",
    "address": "888TT Building, ซ. สุขุมวิท 81 แขวงบางจาก เขตพระโขนง",
    "lat": 13.7061533,
    "lng": 100.6050823
  },
  {
    "mu_place": "วิหารพระพุทธชินราชมงคลปราการ",
    "name": "เสาชิงช้า",
    "address": "239 ถนน ดินสอ แขวงบางขุนพรหม เขตพระนคร",
    "lat": 13.7517707,
    "lng": 100.5012761
  },
  {
    "mu_place": "วิหารพระพุทธชินราชมงคลปราการ",
    "name": "เขาพระสุเมรุจำลอง เมืองโบราณ สมุทรปราการ (102)",
    "address": "GJXH+X8Q ตำบล แพรกษา อำเภอเมืองสมุทรปราการ",
    "lat": 13.5499587,
    "lng": 100.6283551
  },
  {
    "mu_place": "วิหารพระพุทธชินราชมงคลปราการ",
    "name": "พระตำหนักแดง",
    "address": "4 ถ. หน้าพระธาตุ แขวงพระบรมมหาราชวัง เขตพระนคร",
    "lat": 13.7577024,
    "lng": 100.491825
  },
  {
    "mu_place": "วิหารพระพุทธชินราชมงคลปราการ",
    "name": "สูงวัยพาเที่ยว",
    "address": "JGFQ+F6J ถ. สุขสวัสดิ์ เขตจอมทอง",
    "lat": 13.6237038,
    "lng": 100.5380215
  },
  {
    "mu_place": "วิหารพระพุทธชินราชมงคลปราการ",
    "name": "ป้อมพระจุลจอมเกล้า",
    "address": "GHQM+4FH ตำบล แหลมฟ้าผ่า อำเภอพระสมุทรเจดีย์",
    "lat": 13.5379172,
    "lng": 100.5836028
  },
  {
    "mu_place": "วิหารพระพุทธชินราชมงคลปราการ",
    "name": "สถานที่ถ่ายรูป พระธรรมกายเทพมงคล",
    "address": "766 ถนน เพชรเกษมสายเก่า แขวงวัดท่าพระ เขตบางกอกใหญ่",
    "lat": 13.7232028,
    "lng": 100.480732
  },
  {
    "mu_place": "วิหารพระพุทธชินราชมงคลปราการ",
    "name": "ลาน 60 ปี ธรรมศาสตร์",
    "address": "2 ถ. หน้าพระธาตุ แขวงพระบรมมหาราชวัง เขตพระนคร",
    "lat": 13.7575138,
    "lng": 100.4895887
  },
  {
    "mu_place": "ท้าวเวสสุวรรณ วัดจุฬามณี",
    "name": "สะพานไม้สายรุ้ง",
    "address": "C4WX+V7V ถนนลบทะเล ตำบล กาหลง อำเภอเมืองสมุทรสาคร",
    "lat": 13.4472482,
    "lng": 100.1481764
  },
  {
    "mu_place": "ท้าวเวสสุวรรณ วัดจุฬามณี",
    "name": "แหล่งท่องเที่ยวตำบลเหมืองใหม่",
    "address": "FW36+Q44 ตำบล เหมืองใหม่ อำเภออัมพวา",
    "lat": 13.4543971,
    "lng": 99.910337
  },
  {
    "mu_place": "ท้าวเวสสุวรรณ วัดจุฬามณี",
    "name": "เตาตาลดี",
    "address": "FX37+FRW ตำบล บางพรม อำเภอ บางคนที",
    "lat": 13.4537475,
    "lng": 99.96457869999999
  },
  {
    "mu_place": "ท้าวเวสสุวรรณ วัดจุฬามณี",
    "name": "ดอนหอยหลอด",
    "address": "926F+P46 2009 ตำบล บางจะเกร็ง อำเภอเมืองสมุทรสงคราม",
    "lat": 13.3617839,
    "lng": 100.0227791
  },
  {
    "mu_place": "ท้าวเวสสุวรรณ วัดจุฬามณี",
    "name": "ตลาดน้ำอัมพวา",
    "address": "CXG3+2X5 ตำบล อัมพวา อำเภออัมพวา",
    "lat": 13.4250084,
    "lng": 99.95497619999999
  },
  {
    "mu_place": "ท้าวเวสสุวรรณ วัดจุฬามณี",
    "name": "สวนเกษตรชัยไดม่อนการ์เด้น",
    "address": "หมู่ที่​ 9 35 ตำบล สวนหลวง อำเภออัมพวา",
    "lat": 13.4163233,
    "lng": 99.94187590000001
  },
  {
    "mu_place": "ท้าวเวสสุวรรณ วัดจุฬามณี",
    "name": "ช้างเผือกฟาร์ม จำกัด",
    "address": "เลขที่ 76/2 ตำบล ขุนพิทักษ์ อำเภอดำเนินสะดวก",
    "lat": 13.5114949,
    "lng": 99.9734331
  },
  {
    "mu_place": "ท้าวเวสสุวรรณ วัดจุฬามณี",
    "name": "ชมรมส่งเสริมการท่องเที่ยวตำบลดำเนินสะดวก",
    "address": "GX82+QVX ตำบล ดำเนินสะดวก อำเภอดำเนินสะดวก",
    "lat": 13.516996,
    "lng": 99.9522303
  },
  {
    "mu_place": "ท้าวเวสสุวรรณ วัดจุฬามณี",
    "name": "ไร่ม่อนตาองค์",
    "address": "201 ม.4, ต.ห้วยไผ่ อ.เมือง ตำบลดอนตะโก อำเภอเมืองราชบุรี",
    "lat": 13.510646,
    "lng": 99.780999
  },
  {
    "mu_place": "ท้าวเวสสุวรรณ วัดจุฬามณี",
    "name": "อุทยานพระบรมราชานุสรณ์ สมเด็จพระพุทธเลิศหล้านภาลัย",
    "address": "ตำบล อัมพวา อำเภออัมพวา",
    "lat": 13.4251715,
    "lng": 99.9524778
  },
  {
    "mu_place": "ท้าวเวสสุวรรณ วัดจุฬามณี",
    "name": "Bang Noi local community",
    "address": "FW8W+3XW ซอย เทศบาลตำบลกระดังงา 12 ตำบล กระดังงา อำเภอ บางคนที",
    "lat": 13.4652428,
    "lng": 99.947459
  },
  {
    "mu_place": "ท้าวเวสสุวรรณ วัดจุฬามณี",
    "name": "ธุรกิจตัวอย่าง",
    "address": "433 ถ ศรีสุริยวงศ์ ตำบล หน้าเมือง เมือง",
    "lat": 13.532745,
    "lng": 99.80804909999999
  },
  {
    "mu_place": "ท้าวเวสสุวรรณ วัดจุฬามณี",
    "name": "ซุ้มโคนมะขาม บ้านสวนฉายแก้ว",
    "address": "43 หมู่ 10 ตำบล เหมืองใหม่ อำเภออัมพวา",
    "lat": 13.4466442,
    "lng": 99.89437620000001
  },
  {
    "mu_place": "ท้าวเวสสุวรรณ วัดจุฬามณี",
    "name": "ตลาดร่มหุบ สมุทรสงคราม",
    "address": "545/3 ซอยข้างห้างทวีกิจแม่กลอง แม่กลอง อำเภอเมืองสมุทรสงคราม",
    "lat": 13.4073898,
    "lng": 99.9989205
  },
  {
    "mu_place": "ท้าวเวสสุวรรณ วัดจุฬามณี",
    "name": "วัดบางกุ้ง",
    "address": "บ้านค่าย หมู่ที่ 4 ตำบล บางกุ้ง อำเภอ บางคนที",
    "lat": 13.4461111,
    "lng": 99.9411111
  },
  {
    "mu_place": "ท้าวเวสสุวรรณ วัดจุฬามณี",
    "name": "Chiang Mai",
    "address": "เลขที่ 1 ถนนโชติธำรงค์ ตำบล อัมพวา อำเภออัมพวา",
    "lat": 13.425055,
    "lng": 99.9551717
  },
  {
    "mu_place": "ท้าวเวสสุวรรณ วัดจุฬามณี",
    "name": "พิพิธภัณฑ์วัดเขายี่สาร",
    "address": "8W23+H4R ตำบล ยี่สาร อำเภออัมพวา",
    "lat": 13.3014879,
    "lng": 99.9027583
  },
  {
    "mu_place": "ท้าวเวสสุวรรณ วัดจุฬามณี",
    "name": "บ้านสวนมะนาวโห่ลุงศิริ",
    "address": "29 ตำบล บางนกแขวก อำเภอ บางคนที",
    "lat": 13.5039003,
    "lng": 99.9184307
  },
  {
    "mu_place": "ท้าวเวสสุวรรณ วัดจุฬามณี",
    "name": "บ้านแฟง ดอนมะโนรา สมุทรสงคราม By sak",
    "address": "ตำบล ดอนมะโนรา อำเภอ บางคนที",
    "lat": 13.490005,
    "lng": 99.9917249
  },
  {
    "mu_place": "ท้าวเวสสุวรรณ วัดจุฬามณี",
    "name": "TRYNY LAND",
    "address": "CXVP+CP4 ตำบล คลองเขิน อำเภอเมืองสมุทรสงคราม",
    "lat": 13.4435106,
    "lng": 99.98682269999999
  },
  {
    "mu_place": "หลวงพ่อปลดหนี้ วัดห้วยน้ำทรัพย์ หรือ วัดพระธาตุวาโย",
    "name": "หอดูดาวเฉลิมพระเกียรติ 7 รอบ​ พระชนมพรรษา ฉะเชิงเทรา",
    "address": "หมู่ที่ 3 เลขที่ 999 ตำบล วังเย็น อำเภอแปลงยาว",
    "lat": 13.593513,
    "lng": 101.256158
  },
  {
    "mu_place": "หลวงพ่อปลดหนี้ วัดห้วยน้ำทรัพย์ หรือ วัดพระธาตุวาโย",
    "name": "โคกหนองนา โมเดล สวนป่าริมธาร พนัสนิคม",
    "address": "ซอย บ้านดอนกอก ตำบล นาเริก อำเภอพนัสนิคม",
    "lat": 13.4254146,
    "lng": 101.2486112
  },
  {
    "mu_place": "หลวงพ่อปลดหนี้ วัดห้วยน้ำทรัพย์ หรือ วัดพระธาตุวาโย",
    "name": "วัดหลวงพี่แซม",
    "address": "51 หมู่10 ทางหลวงหมายเลข 331 ตำบล หนองปรือ อำเภอพนัสนิคม",
    "lat": 13.5011686,
    "lng": 101.2701928
  },
  {
    "mu_place": "หลวงพ่อปลดหนี้ วัดห้วยน้ำทรัพย์ หรือ วัดพระธาตุวาโย",
    "name": "วัดโกรกแก้ววงพระจันทร์",
    "address": "27 ตำบล หนองไม้แก่น อำเภอแปลงยาว",
    "lat": 13.5006279,
    "lng": 101.3246506
  },
  {
    "mu_place": "วัดสายไหม",
    "name": "Spy War",
    "address": "World, Safari แขวงสามวาตะวันตก เขตคลองสามวา",
    "lat": 13.8640257,
    "lng": 100.7014903
  },
  {
    "mu_place": "วัดสายไหม",
    "name": "พระที่นั่งพิมานจักรี",
    "address": "315 ถ. ราชวิถี แขวงทุ่งพญาไท เขตราชเทวี",
    "lat": 13.7685069,
    "lng": 100.5328757
  },
  {
    "mu_place": "วัดสายไหม",
    "name": "สวนเกร็ดพุทธ",
    "address": "WF4Q+254 ตำบล เกาะเกร็ด อำเภอปากเกร็ด",
    "lat": 13.9050229,
    "lng": 100.4879706
  },
  {
    "mu_place": "วัดสายไหม",
    "name": "ซาฟารีเวิลด์",
    "address": "99 ถ. ปัญญาอินทรา แขวงสามวาตะวันตก เขตคลองสามวา",
    "lat": 13.8654914,
    "lng": 100.7030427
  },
  {
    "mu_place": "วัดสายไหม",
    "name": "พระตำหนักแดง",
    "address": "4 ถ. หน้าพระธาตุ แขวงพระบรมมหาราชวัง เขตพระนคร",
    "lat": 13.7577024,
    "lng": 100.491825
  },
  {
    "mu_place": "วัดสายไหม",
    "name": "เสาชิงช้า",
    "address": "239 ถนน ดินสอ แขวงบางขุนพรหม เขตพระนคร",
    "lat": 13.7517707,
    "lng": 100.5012761
  },
  {
    "mu_place": "วัดสายไหม",
    "name": "อุทยานผีเสื้อและแมลง กรุงเทพฯ",
    "address": "สวนวิชรเบญจทิศ(สวนรถไฟ ถนน กำแพงเพชร 3 แขวงลาดยาว เขตจตุจักร",
    "lat": 13.8095512,
    "lng": 100.5549011
  },
  {
    "mu_place": "วัดสายไหม",
    "name": "ริมน้ำโขง หอ14",
    "address": "50, Kasetsart University, Ngam Wong Wan Road, Lat Yao, Khet Chatuchak, Bangkok, 10900 แขวงลาดยาว เขตจตุจักร",
    "lat": 13.8487664,
    "lng": 100.5688721
  },
  {
    "mu_place": "วัดสายไหม",
    "name": "พิพิธภัณฑ์ของเล่น ตูนนี่ ประเทศไทย",
    "address": "ซอย ศรีสมาน 8 ตำบลบ้านใหม่ อำเภอปากเกร็ด",
    "lat": 13.9347737,
    "lng": 100.5617274
  },
  {
    "mu_place": "วัดสายไหม",
    "name": "พิพิธภัณฑ์บัว มหาวิทยาลัยเทคโนโลยีราชมงคลธัญบุรี",
    "address": "มหาวิทยาลัยเทคโนโลยีราชมงคล ธัญบุรี 39 ถนน รังสิต - นครนายก ตำบล คลองหก อำเภอคลองหลวง",
    "lat": 14.032087,
    "lng": 100.7302152
  },
  {
    "mu_place": "วัดสายไหม",
    "name": "ลาน 60 ปี ธรรมศาสตร์",
    "address": "2 ถ. หน้าพระธาตุ แขวงพระบรมมหาราชวัง เขตพระนคร",
    "lat": 13.7575138,
    "lng": 100.4895887
  },
  {
    "mu_place": "วัดสายไหม",
    "name": "ท่องเที่ยวลำพัง",
    "address": "QF7H+2R4 คลอง แขวงอรุณอมรินทร์ เขตบางกอกน้อย",
    "lat": 13.7625155,
    "lng": 100.4795931
  },
  {
    "mu_place": "วัดสายไหม",
    "name": "พุทธสถานเชิงท่า-หน้าโบสถ์",
    "address": "VFVR+HQW ท่าทราย อำเภอเมืองนนทบุรี",
    "lat": 13.893999,
    "lng": 100.4918495
  },
  {
    "mu_place": "วัดสายไหม",
    "name": "ป้อมพระสุเมรุ",
    "address": "QF7W+H7W ถนน พระอาทิตย์ แขวงชนะสงคราม เขตพระนคร",
    "lat": 13.7639776,
    "lng": 100.4956975
  },
  {
    "mu_place": "วัดสายไหม",
    "name": "พิพิธภัณฑ์ศิลปะไทยร่วมสมัย",
    "address": "VH27+Q2X 499 ถ. กำแพงเพชร 6 แขวงลาดยาว เขตจตุจักร",
    "lat": 13.8522993,
    "lng": 100.5630055
  },
  {
    "mu_place": "วัดสายไหม",
    "name": "วัดสุทัศนเทพวรารามราชวรมหาวิหาร",
    "address": "146 ถ. บำรุงเมือง แขวงวัดราชบพิตร เขตพระนคร",
    "lat": 13.751068,
    "lng": 100.5010391
  },
  {
    "mu_place": "วัดสายไหม",
    "name": "ทุ่งทอง@บางเขน",
    "address": "ซอย กาญจนาภิเษก 6 แขวงท่าแร้ง เขตบางเขน",
    "lat": 13.8788382,
    "lng": 100.6810585
  },
  {
    "mu_place": "วัดสายไหม",
    "name": "สวนเฉลิมหล้า",
    "address": "ซอย เพชรบุรี 18 - ซอย ซอย เพชรบุรี 18 แขวงถนนเพชรบุรี เขตราชเทวี",
    "lat": 13.7500569,
    "lng": 100.5316902
  },
  {
    "mu_place": "วัดสายไหม",
    "name": "บจก. สวนสัตว์พาต้า",
    "address": "QFCM+MPP ถนน สมเด็จพระปิ่นเกล้า แขวงบางยี่ขัน เขตบางพลัด",
    "lat": 13.7717036,
    "lng": 100.4843353
  },
  {
    "mu_place": "วัดสายไหม",
    "name": "สวนสันติชัยปราการ",
    "address": "QF7W+J29 ถนน พระอาทิตย์ แขวงชนะสงคราม เขตพระนคร",
    "lat": 13.7640367,
    "lng": 100.4951096
  },
  {
    "mu_place": "ศาลปู่อือลือนาคราช",
    "name": "น้ำตกตาดกินรี",
    "address": "หมู่ที่ 5 105 ตำบล โพธิ์หมากแข้ง อำเภอ บึงโขงหลง",
    "lat": 17.9456942,
    "lng": 104.1301892
  },
  {
    "mu_place": "ศาลปู่อือลือนาคราช",
    "name": "ถ้ำนาคี นครพนม(Nakee Cave)",
    "address": "X4MG+XW5 ตำบล ไผ่ล้อม อำเภอ บ้านแพง",
    "lat": 17.984897,
    "lng": 104.127357
  },
  {
    "mu_place": "ศาลปู่อือลือนาคราช",
    "name": "ถึงแล้วภูลังกา ชุมชนท่องเที่ยว OTOP นวัตวิถี บ้านดงสว่าง",
    "address": "X32R+GHP บก.4017 ตำบล โพธิ์หมากแข้ง อำเภอ บึงโขงหลง",
    "lat": 17.951337,
    "lng": 104.0914581
  },
  {
    "mu_place": "ศาลปู่อือลือนาคราช",
    "name": "วังนาคิน น้ำตกกินรี",
    "address": "W4VH+VXV ตำบล โพธิ์หมากแข้ง อำเภอ บึงโขงหลง",
    "lat": 17.9447228,
    "lng": 104.1299351
  },
  {
    "mu_place": "ศาลปู่อือลือนาคราช",
    "name": "จุดขึ้นชมถ้ำนาคา จุดที่ 2 บึงกาฬ",
    "address": "W4V4+WFF ตำบล โพธิ์หมากแข้ง อำเภอ บึงโขงหลง",
    "lat": 17.944823,
    "lng": 104.106171
  },
  {
    "mu_place": "ศาลปู่อือลือนาคราช",
    "name": "เจดีย์พระธาตุน้อยฐานหินลายเกล็ด",
    "address": "X4F7+F6C ตำบล โพธิ์หมากแข้ง อำเภอ บึงโขงหลง",
    "lat": 17.9736938,
    "lng": 104.1130017
  },
  {
    "mu_place": "ศาลปู่อือลือนาคราช",
    "name": "ทางขึ้นสักการะหลวงพ่อพระขาว",
    "address": "W3WV+9V5 ตำบล โพธิ์หมากแข้ง อำเภอ บึงโขงหลง",
    "lat": 17.9458898,
    "lng": 104.0947274
  },
  {
    "mu_place": "ศาลปู่อือลือนาคราช",
    "name": "ถ้ำกินรีนาคา",
    "address": "W4VH+VXV ตำบล โพธิ์หมากแข้ง อำเภอ บึงโขงหลง",
    "lat": 17.9447499,
    "lng": 104.1299169
  },
  {
    "mu_place": "ศาลปู่อือลือนาคราช",
    "name": "หินรถบัส ภูลังกา",
    "address": "X4J6+7WF ตำบล โพธิ์หมากแข้ง อำเภอ บึงโขงหลง",
    "lat": 17.9806912,
    "lng": 104.1122845
  },
  {
    "mu_place": "ศาลปู่อือลือนาคราช",
    "name": "Tham Phra Waterfall น้ำตกถ้ำพระ",
    "address": "4XRR+2Q ตำบล โสกก่าม อำเภอ เซกา",
    "lat": 18.1400615,
    "lng": 103.991967
  },
  {
    "mu_place": "ศาลปู่อือลือนาคราช",
    "name": "จุดขึ้นชมถ้ำนาคาและน้ำตกตาดวิมานทิพย์ บึงกาฬ",
    "address": "W3RW+P5R Unnamed Road ตำบล โพธิ์หมากแข้ง อำเภอ บึงโขงหลง",
    "lat": 17.9418611,
    "lng": 104.0953889
  },
  {
    "mu_place": "ศาลปู่อือลือนาคราช",
    "name": "Maher Mekong Sanctuary",
    "address": "255V+V56 ตำบล บ้านแพง อำเภอ บ้านแพง",
    "lat": 18.0096875,
    "lng": 104.1929375
  },
  {
    "mu_place": "ศาลปู่อือลือนาคราช",
    "name": "Maher Mekong Sanctuary",
    "address": "254v+jjx ต, ตำบล บ้านแพง อำเภอ บ้านแพง",
    "lat": 18.0065625,
    "lng": 104.1940625
  },
  {
    "mu_place": "ศาลปู่อือลือนาคราช",
    "name": "เนินสนามบิน",
    "address": "X427+PXC ตำบล โพธิ์หมากแข้ง อำเภอ บึงโขงหลง",
    "lat": 17.9518129,
    "lng": 104.114895
  },
  {
    "mu_place": "ศาลปู่อือลือนาคราช",
    "name": "หินนาคา(กินรี)จุดที่4",
    "address": "W4VG+M3H ที่ตัังหินนาคา(กินรี) Unnamed Road ตำบล โพธิ์หมากแข้ง อำเภอ บึงโขงหลง",
    "lat": 17.944188,
    "lng": 104.125221
  },
  {
    "mu_place": "ศาลปู่อือลือนาคราช",
    "name": "สวนสยามอินทผลัม",
    "address": "บ้านโนนสูง ตำบล เซกา อำเภอ เซกา",
    "lat": 17.9878504,
    "lng": 103.9625958
  },
  {
    "mu_place": "ศาลปู่อือลือนาคราช",
    "name": "กระถินทุ่ง@บึงโขงหลง",
    "address": "W2HP+FHV ตำบล โพธิ์หมากแข้ง อำเภอ บึงโขงหลง",
    "lat": 17.9287322,
    "lng": 104.036434
  },
  {
    "mu_place": "ศาลปู่อือลือนาคราช",
    "name": "38ภูลังกาฟาร์ม",
    "address": "X3XQ+PR6 2026 ตำบล บึงโขงหลง อำเภอ บึงโขงหลง",
    "lat": 17.9992895,
    "lng": 104.0895162
  },
  {
    "mu_place": "ศาลปู่อือลือนาคราช",
    "name": "ถนนต้นยาง",
    "address": "2482+693 บก.4015 ตำบล ดงบัง อำเภอ บึงโขงหลง",
    "lat": 18.0155012,
    "lng": 104.1009191
  },
  {
    "mu_place": "ลานพญาศรีสัตตนาคราช",
    "name": "Mekong Sunset Photo Viewpoint (จุดถ่ายรูปพระอาทิตย์ตกริมโขง)",
    "address": "วัดพระอินทร์แปลง, ตำบล ในเมือง อำเภอเมืองนครพนม",
    "lat": 17.389,
    "lng": 104.7933889
  },
  {
    "mu_place": "ลานพญาศรีสัตตนาคราช",
    "name": "ลานพญาศรีสัตตนาคราช นครพนม",
    "address": "9QXR+Q63 ตำบล ในเมือง อำเภอเมืองนครพนม",
    "lat": 17.3993855,
    "lng": 104.7905434
  },
  {
    "mu_place": "ลานพญาศรีสัตตนาคราช",
    "name": "พิพิธภัณฑ์สัตว์น้ำจืด หนองญาติ",
    "address": "9PFP+HMP ตำบล หนองญาติ อำเภอเมืองนครพนม",
    "lat": 17.3739557,
    "lng": 104.7367502
  },
  {
    "mu_place": "ลานพญาศรีสัตตนาคราช",
    "name": "อนุสรณ์สถานประธานโฮจิมินห์",
    "address": "9QG5+P45 ตำบล หนองญาติ อำเภอเมืองนครพนม",
    "lat": 17.3767046,
    "lng": 104.7578183
  },
  {
    "mu_place": "ลานพญาศรีสัตตนาคราช",
    "name": "พิพิธภัณฑ์จวนผู้ว่าราชการจังหวัดนครพนม (หลังเก่า)",
    "address": "พิพิธภัณฑ์จวนผู้ว่าราชการจังหวัดนครพนม, ถนนสุนทรวิจิตร, ตำบลในเมือง อำเภอเมือง จังหวัดนครพนม, 48000",
    "lat": 17.4159187,
    "lng": 104.7798118
  },
  {
    "mu_place": "ลานพญาศรีสัตตนาคราช",
    "name": "หาดทรายริมโขง",
    "address": "9QMV+3W8 ตำบล ในเมือง อำเภอเมืองนครพนม",
    "lat": 17.382166,
    "lng": 104.7953261
  },
  {
    "mu_place": "ลานพญาศรีสัตตนาคราช",
    "name": "สะพานมิตรภาพไทย-ลาว แห่งที่ 3",
    "address": "FPMH+WWG ทางหลวงจังหวัด นครพนม-มุกดาหาร ตำบล โนนตาล อำเภอ ท่าอุเทน",
    "lat": 17.4848229,
    "lng": 104.7298346
  },
  {
    "mu_place": "ลานพญาศรีสัตตนาคราช",
    "name": "บ้านลุงโฮจิมินห์",
    "address": "หมู่ที่ 5 48 ตำบล หนองญาติ อำเภอเมืองนครพนม",
    "lat": 17.3745096,
    "lng": 104.7613377
  },
  {
    "mu_place": "ลานพญาศรีสัตตนาคราช",
    "name": "สวนเกษตรอินทรีย์ อินชอนฟาร์ม",
    "address": "7PMV+6XF Unnamed Road ตำบล ขามเฒ่า อำเภอเมืองนครพนม",
    "lat": 17.2830583,
    "lng": 104.744935
  },
  {
    "mu_place": "ลานพญาศรีสัตตนาคราช",
    "name": "แลนด์มาร์คจักรยานเมืองนครพนม",
    "address": "CQ3Q+P76 ทางหลวงจังหวัด นครพนม-มุกดาหาร ตำบล ในเมือง อำเภอเมืองนครพนม",
    "lat": 17.4042845,
    "lng": 104.7881415
  },
  {
    "mu_place": "ลานพญาศรีสัตตนาคราช",
    "name": "Tham Pa Sueam (ถ้ำปลาเชือม)",
    "address": "FVC4+JHW, Thakhek",
    "lat": 17.471603,
    "lng": 104.856439
  },
  {
    "mu_place": "ลานพญาศรีสัตตนาคราช",
    "name": "Nakhon Phanom Walking Street",
    "address": "CQ3Q+M3R ถ. ชยางกูร ตำบล ในเมือง อำเภอเมืองนครพนม",
    "lat": 17.4042272,
    "lng": 104.7876319
  },
  {
    "mu_place": "ลานพญาศรีสัตตนาคราช",
    "name": "หนองคำไผ่",
    "address": "8MP3+3C ตำบล บ้านผึ้ง อำเภอเมืองนครพนม",
    "lat": 17.3351542,
    "lng": 104.6535898
  },
  {
    "mu_place": "ลานพญาศรีสัตตนาคราช",
    "name": "สวนเทิดพระเกียรติ",
    "address": "สำนักงานขายหมู่บ้านพิมพ์ศิริ ตำบล ในเมือง อำเภอเมืองนครพนม",
    "lat": 17.3853261,
    "lng": 104.7940251
  },
  {
    "mu_place": "ลานพญาศรีสัตตนาคราช",
    "name": "Sunset Viewpoint",
    "address": "9RV3+2FH, Unnamed Road, Thakhek",
    "lat": 17.3925674,
    "lng": 104.8037251
  },
  {
    "mu_place": "ลานพญาศรีสัตตนาคราช",
    "name": "Tham Nong Pa Fa (ถ้ำหนองปลาฝา)",
    "address": "FVG2+JMR, Thakhek",
    "lat": 17.4766036,
    "lng": 104.8516357
  },
  {
    "mu_place": "ลานพญาศรีสัตตนาคราช",
    "name": "Sunset River Cruise",
    "address": "9QXR+W3G ตำบล ในเมือง อำเภอเมืองนครพนม",
    "lat": 17.400688,
    "lng": 104.790059
  },
  {
    "mu_place": "ลานพญาศรีสัตตนาคราช",
    "name": "อาคารศาลจังหวัดนครพนม (ดังเดิม)",
    "address": "CQ4P+M96 ตำบล ในเมือง อำเภอเมืองนครพนม",
    "lat": 17.4067437,
    "lng": 104.7858373
  },
  {
    "mu_place": "ลานพญาศรีสัตตนาคราช",
    "name": "Tourism Office",
    "address": "CR27+W2V, Thakhek",
    "lat": 17.4023736,
    "lng": 104.8125397
  },
  {
    "mu_place": "ลานพญาศรีสัตตนาคราช",
    "name": "วัดศรีเทพประดิษฐาราม นครพนม",
    "address": "9QWQ+C88 ตำบล ในเมือง อำเภอเมืองนครพนม",
    "lat": 17.3960462,
    "lng": 104.7883214
  },
  {
    "mu_place": "วัดธารทหาร (ห้วยด้วน) หลวงพ่อพัฒน์ ปุญญกาโม",
    "name": "สวนไผ่นายวิน",
    "address": "WQX2+C4R ตำบล ทุ่งทอง อำเภอ หนองบัว",
    "lat": 15.9486116,
    "lng": 100.7502629
  },
  {
    "mu_place": "วัดธารทหาร (ห้วยด้วน) หลวงพ่อพัฒน์ ปุญญกาโม",
    "name": "เขาพระ",
    "address": "VJFW+8JQ ตำบล หนองบัว อำเภอ หนองบัว",
    "lat": 15.873349,
    "lng": 100.646623
  },
  {
    "mu_place": "วัดธารทหาร (ห้วยด้วน) หลวงพ่อพัฒน์ ปุญญกาโม",
    "name": "ไลน์หินหรรษา",
    "address": "VMJV+55J ตำบล หนองบัว อำเภอ หนองบัว",
    "lat": 15.8804564,
    "lng": 100.6929028
  },
  {
    "mu_place": "วัดธารทหาร (ห้วยด้วน) หลวงพ่อพัฒน์ ปุญญกาโม",
    "name": "ทุ่งเนินนาคแลนด์มาร์ค",
    "address": "294 ตำบล พนมรอก อำเภอ ท่าตะโก",
    "lat": 15.7453705,
    "lng": 100.4467196
  },
  {
    "mu_place": "วัดธารทหาร (ห้วยด้วน) หลวงพ่อพัฒน์ ปุญญกาโม",
    "name": "ทุ่งเนินนาคนวฤทธิ์",
    "address": "249 ตำบล พนมรอก อำเภอ ท่าตะโก",
    "lat": 15.7454013,
    "lng": 100.4466305
  },
  {
    "mu_place": "วัดธารทหาร (ห้วยด้วน) หลวงพ่อพัฒน์ ปุญญกาโม",
    "name": "ผาซ่อนดาว",
    "address": "Unnamed Road ตำบล หนองกลับ อำเภอ หนองบัว",
    "lat": 15.8736722,
    "lng": 100.6405183
  },
  {
    "mu_place": "วัดธารทหาร (ห้วยด้วน) หลวงพ่อพัฒน์ ปุญญกาโม",
    "name": "วัดป่าโนนฤาษี นครสวรรค์",
    "address": "RMHC+6JC ตำบล หนองบัว อำเภอ หนองบัว",
    "lat": 15.8279523,
    "lng": 100.6718221
  },
  {
    "mu_place": "หลวงพ่อฤาษีลิงดำ( พระราชพรหมยาน)",
    "name": "เขาสะแกกรัง อุทัยธานี",
    "address": "92J8+5F5 ตำบล อุทัยใหม่ อำเภอเมืองอุทัยธานี",
    "lat": 15.3803981,
    "lng": 100.0162499
  },
  {
    "mu_place": "หลวงพ่อฤาษีลิงดำ( พระราชพรหมยาน)",
    "name": "นวัตวิถี",
    "address": "555W+JHQ ตำบล บางหลวง อำเภอสรรพยา",
    "lat": 15.1590912,
    "lng": 100.1964871
  },
  {
    "mu_place": "หลวงพ่อฤาษีลิงดำ( พระราชพรหมยาน)",
    "name": "ทุ่งนา ป่าตาล",
    "address": "72R7+W5G ตำบล หนองบัว อำเภอ วัดสิงห์",
    "lat": 15.2923053,
    "lng": 100.0129384
  },
  {
    "mu_place": "หลวงพ่อฤาษีลิงดำ( พระราชพรหมยาน)",
    "name": "Starting Point River Boat Tours",
    "address": "83GF+M4Q ตำบล น้ำซึม อำเภอเมืองอุทัยธานี",
    "lat": 15.3267053,
    "lng": 100.0728646
  },
  {
    "mu_place": "หลวงพ่อฤาษีลิงดำ( พระราชพรหมยาน)",
    "name": "ฝายบ้านพันตุ่น",
    "address": "92G2+955 ตำบล น้ำซึม อำเภอเมืองอุทัยธานี",
    "lat": 15.3758758,
    "lng": 100.0004798
  },
  {
    "mu_place": "หลวงพ่อฤาษีลิงดำ( พระราชพรหมยาน)",
    "name": "นาบัวท่าซุง",
    "address": "8359+QGX ตำบล ท่าซุง อำเภอเมืองอุทัยธานี",
    "lat": 15.3094807,
    "lng": 100.0688618
  },
  {
    "mu_place": "หลวงพ่อฤาษีลิงดำ( พระราชพรหมยาน)",
    "name": "ชุมชนท่องเที่ยว OTOP นวัตวิถี หนองไผ่แบน",
    "address": "2 5 ตำบล หนองไผ่แบน อำเภอเมืองอุทัยธานี",
    "lat": 15.4252583,
    "lng": 100.0249175
  },
  {
    "mu_place": "หลวงพ่อฤาษีลิงดำ( พระราชพรหมยาน)",
    "name": "บ้านจงรัก",
    "address": "ศรีอุทัย ตำบล อุทัยใหม่ อำเภอเมืองอุทัยธานี",
    "lat": 15.3801654,
    "lng": 100.0313017
  },
  {
    "mu_place": "หลวงพ่อฤาษีลิงดำ( พระราชพรหมยาน)",
    "name": "มณฑปพระพุทธบาทจำลอง",
    "address": "92H8+9QW ตำบล อุทัยใหม่ อำเภอเมืองอุทัยธานี",
    "lat": 15.3784904,
    "lng": 100.0169407
  },
  {
    "mu_place": "หลวงพ่อฤาษีลิงดำ( พระราชพรหมยาน)",
    "name": "SUAN TA KI @สวนตากี้",
    "address": "F2Q2+M2V Unnamed Road ตำบล หาดสูง อำเภอโกรกพระ",
    "lat": 15.4892384,
    "lng": 100.0000319
  },
  {
    "mu_place": "หลวงพ่อฤาษีลิงดำ( พระราชพรหมยาน)",
    "name": "หมุดโลก (หมุดที่ 2 ของเอเชีย)",
    "address": "เขาสะแกกรัง อุทัยธานี ตำบล อุทัยใหม่ อำเภอเมืองอุทัยธานี",
    "lat": 15.3837869,
    "lng": 100.0132147
  },
  {
    "mu_place": "หลวงพ่อฤาษีลิงดำ( พระราชพรหมยาน)",
    "name": "เขื่อนเรียงหิน",
    "address": "297 ถนน ชัยณรงค์ ตำบล ในเมือง อำเภอเมืองชัยนาท",
    "lat": 15.1839063,
    "lng": 100.1231321
  },
  {
    "mu_place": "หลวงพ่อฤาษีลิงดำ( พระราชพรหมยาน)",
    "name": "สวนนกชัยนาท",
    "address": "6542+QQ6 ตำบล เขาท่าพระ อำเภอเมืองชัยนาท",
    "lat": 15.2069213,
    "lng": 100.1519043
  },
  {
    "mu_place": "หลวงพ่อฤาษีลิงดำ( พระราชพรหมยาน)",
    "name": "ลำน้ำสะแกกรัง at อำเภอเมืองอุทัยธานี",
    "address": "228 ซอย ตั้งใจงาม ตำบล น้ำซึม อำเภอเมืองอุทัยธานี",
    "lat": 15.3267712,
    "lng": 100.0731838
  },
  {
    "mu_place": "หลวงพ่อฤาษีลิงดำ( พระราชพรหมยาน)",
    "name": "ช้างปิง Chang Ping",
    "address": "132 15 มณีรัตน์ ตำบล อุทัยใหม่ อำเภอเมืองอุทัยธานี",
    "lat": 15.3864962,
    "lng": 100.0217887
  },
  {
    "mu_place": "หลวงพ่อฤาษีลิงดำ( พระราชพรหมยาน)",
    "name": "สำเภาทอง",
    "address": "835J+7R9 ตำบล คุ้งสำเภา อำเภอมโนรมย์",
    "lat": 15.3081677,
    "lng": 100.0821318
  },
  {
    "mu_place": "หลวงพ่อฤาษีลิงดำ( พระราชพรหมยาน)",
    "name": "ศูนย์อนุรักษ์ไก่แสมดำ",
    "address": "85 หมู่ 7 ตำบล ดอนขวาง อำเภอเมืองอุทัยธานี",
    "lat": 15.3906203,
    "lng": 99.99969089999999
  },
  {
    "mu_place": "หลวงพ่อฤาษีลิงดำ( พระราชพรหมยาน)",
    "name": "วัดสังกัสรัตนคีรี",
    "address": "92G9+23W ตำบล น้ำซึม อำเภอเมืองอุทัยธานี",
    "lat": 15.3751087,
    "lng": 100.0177104
  },
  {
    "mu_place": "หลวงพ่อฤาษีลิงดำ( พระราชพรหมยาน)",
    "name": "ศูนย์เรียนรู้ตามศาสตร์พระราชาเกษตรทฤษฎีใหม่เทศบาลตำบลทัพทัน",
    "address": "GW38+F9G 3070 ตำบล โคกหม้อ อำเภอ ทัพทัน",
    "lat": 15.5036858,
    "lng": 99.9159423
  },
  {
    "mu_place": "หลวงพ่อฤาษีลิงดำ( พระราชพรหมยาน)",
    "name": "สวนน้ำเฉลิมพระเกียรติพระบาทสมเด็จพระเจ้าอยู่หัว",
    "address": "5002 Rural Rd, ตำบล เกาะเทโพ อำเภอเมืองอุทัยธานี",
    "lat": 15.377548,
    "lng": 100.062759
  },
  {
    "mu_place": "วัดสายไหม",
    "name": "Spy War",
    "address": "World, Safari แขวงสามวาตะวันตก เขตคลองสามวา",
    "lat": 13.8640257,
    "lng": 100.7014903
  },
  {
    "mu_place": "วัดสายไหม",
    "name": "พระที่นั่งพิมานจักรี",
    "address": "315 ถ. ราชวิถี แขวงทุ่งพญาไท เขตราชเทวี",
    "lat": 13.7685069,
    "lng": 100.5328757
  },
  {
    "mu_place": "วัดสายไหม",
    "name": "สวนเกร็ดพุทธ",
    "address": "WF4Q+254 ตำบล เกาะเกร็ด อำเภอปากเกร็ด",
    "lat": 13.9050229,
    "lng": 100.4879706
  },
  {
    "mu_place": "วัดสายไหม",
    "name": "ซาฟารีเวิลด์",
    "address": "99 ถ. ปัญญาอินทรา แขวงสามวาตะวันตก เขตคลองสามวา",
    "lat": 13.8654914,
    "lng": 100.7030427
  },
  {
    "mu_place": "วัดสายไหม",
    "name": "พระตำหนักแดง",
    "address": "4 ถ. หน้าพระธาตุ แขวงพระบรมมหาราชวัง เขตพระนคร",
    "lat": 13.7577024,
    "lng": 100.491825
  },
  {
    "mu_place": "วัดสายไหม",
    "name": "เสาชิงช้า",
    "address": "239 ถนน ดินสอ แขวงบางขุนพรหม เขตพระนคร",
    "lat": 13.7517707,
    "lng": 100.5012761
  },
  {
    "mu_place": "วัดสายไหม",
    "name": "อุทยานผีเสื้อและแมลง กรุงเทพฯ",
    "address": "สวนวิชรเบญจทิศ(สวนรถไฟ ถนน กำแพงเพชร 3 แขวงลาดยาว เขตจตุจักร",
    "lat": 13.8095512,
    "lng": 100.5549011
  },
  {
    "mu_place": "วัดสายไหม",
    "name": "ริมน้ำโขง หอ14",
    "address": "50, Kasetsart University, Ngam Wong Wan Road, Lat Yao, Khet Chatuchak, Bangkok, 10900 แขวงลาดยาว เขตจตุจักร",
    "lat": 13.8487664,
    "lng": 100.5688721
  },
  {
    "mu_place": "วัดสายไหม",
    "name": "พิพิธภัณฑ์ของเล่น ตูนนี่ ประเทศไทย",
    "address": "ซอย ศรีสมาน 8 ตำบลบ้านใหม่ อำเภอปากเกร็ด",
    "lat": 13.9347737,
    "lng": 100.5617274
  },
  {
    "mu_place": "วัดสายไหม",
    "name": "พิพิธภัณฑ์บัว มหาวิทยาลัยเทคโนโลยีราชมงคลธัญบุรี",
    "address": "มหาวิทยาลัยเทคโนโลยีราชมงคล ธัญบุรี 39 ถนน รังสิต - นครนายก ตำบล คลองหก อำเภอคลองหลวง",
    "lat": 14.032087,
    "lng": 100.7302152
  },
  {
    "mu_place": "วัดสายไหม",
    "name": "ลาน 60 ปี ธรรมศาสตร์",
    "address": "2 ถ. หน้าพระธาตุ แขวงพระบรมมหาราชวัง เขตพระนคร",
    "lat": 13.7575138,
    "lng": 100.4895887
  },
  {
    "mu_place": "วัดสายไหม",
    "name": "ท่องเที่ยวลำพัง",
    "address": "QF7H+2R4 คลอง แขวงอรุณอมรินทร์ เขตบางกอกน้อย",
    "lat": 13.7625155,
    "lng": 100.4795931
  },
  {
    "mu_place": "วัดสายไหม",
    "name": "พุทธสถานเชิงท่า-หน้าโบสถ์",
    "address": "VFVR+HQW ท่าทราย อำเภอเมืองนนทบุรี",
    "lat": 13.893999,
    "lng": 100.4918495
  },
  {
    "mu_place": "วัดสายไหม",
    "name": "ป้อมพระสุเมรุ",
    "address": "QF7W+H7W ถนน พระอาทิตย์ แขวงชนะสงคราม เขตพระนคร",
    "lat": 13.7639776,
    "lng": 100.4956975
  },
  {
    "mu_place": "วัดสายไหม",
    "name": "พิพิธภัณฑ์ศิลปะไทยร่วมสมัย",
    "address": "VH27+Q2X 499 ถ. กำแพงเพชร 6 แขวงลาดยาว เขตจตุจักร",
    "lat": 13.8522993,
    "lng": 100.5630055
  },
  {
    "mu_place": "วัดสายไหม",
    "name": "วัดสุทัศนเทพวรารามราชวรมหาวิหาร",
    "address": "146 ถ. บำรุงเมือง แขวงวัดราชบพิตร เขตพระนคร",
    "lat": 13.751068,
    "lng": 100.5010391
  },
  {
    "mu_place": "วัดสายไหม",
    "name": "ทุ่งทอง@บางเขน",
    "address": "ซอย กาญจนาภิเษก 6 แขวงท่าแร้ง เขตบางเขน",
    "lat": 13.8788382,
    "lng": 100.6810585
  },
  {
    "mu_place": "วัดสายไหม",
    "name": "สวนเฉลิมหล้า",
    "address": "ซอย เพชรบุรี 18 - ซอย ซอย เพชรบุรี 18 แขวงถนนเพชรบุรี เขตราชเทวี",
    "lat": 13.7500569,
    "lng": 100.5316902
  },
  {
    "mu_place": "วัดสายไหม",
    "name": "บจก. สวนสัตว์พาต้า",
    "address": "QFCM+MPP ถนน สมเด็จพระปิ่นเกล้า แขวงบางยี่ขัน เขตบางพลัด",
    "lat": 13.7717036,
    "lng": 100.4843353
  },
  {
    "mu_place": "วัดสายไหม",
    "name": "สวนสันติชัยปราการ",
    "address": "QF7W+J29 ถนน พระอาทิตย์ แขวงชนะสงคราม เขตพระนคร",
    "lat": 13.7640367,
    "lng": 100.4951096
  },
  {
    "mu_place": "พุทธสถาน จีเต็กลิ้ม",
    "name": "วังมัจฉา",
    "address": "366 ปราจีนอนุสรณ์ ตำบล หน้าเมือง อำเภอเมืองปราจีนบุรี",
    "lat": 14.0518468,
    "lng": 101.3638754
  },
  {
    "mu_place": "พุทธสถาน จีเต็กลิ้ม",
    "name": "เอเดนฟาร์ม นครนายก",
    "address": "655J+5RH ถนน รังสิต - นครนายก ตำบล คลองใหญ่ อำเภอองครักษ์",
    "lat": 14.2079474,
    "lng": 101.1821211
  },
  {
    "mu_place": "พุทธสถาน จีเต็กลิ้ม",
    "name": "เมืองโบราณดงละคร",
    "address": "2010 ซอย พาณิชย์เจริญ 3 ตำบล ดงละคร อำเภอเมืองนครนายก",
    "lat": 14.1591984,
    "lng": 101.1670868
  },
  {
    "mu_place": "พุทธสถาน จีเต็กลิ้ม",
    "name": "Posai Farm | โพธ์ไทร ฟาร์ม",
    "address": "81 หมู่ 3 ตำบล ดอนเกาะกา อำเภอบางน้ำเปรี้ยว",
    "lat": 13.9226229,
    "lng": 101.0226677
  },
  {
    "mu_place": "พุทธสถาน จีเต็กลิ้ม",
    "name": "วังกุ้งหนาวหําหด ยินดีต้อนรับ",
    "address": "15 ตำบล บางยาง อำเภอ บ้านสร้าง",
    "lat": 13.8947381,
    "lng": 101.2272959
  },
  {
    "mu_place": "พุทธสถาน จีเต็กลิ้ม",
    "name": "วัดฝั่งคลอง",
    "address": "307 ถ. สุวรรณศร ตำบล เกาะหวาย อำเภอปากพลี",
    "lat": 14.163687,
    "lng": 101.263391
  },
  {
    "mu_place": "พุทธสถาน จีเต็กลิ้ม",
    "name": "ดินแดนหิ่งห้อยนับแสน",
    "address": "กรมทหารปืนใหญ่ที่ 2 รักษาพระองค์ 1 หมู่ที่ 5 ค่ายพรหมโยธี ตำบล ไม้เค็ด อำเภอเมืองปราจีนบุรี",
    "lat": 14.1373758,
    "lng": 101.3605486
  },
  {
    "mu_place": "พุทธสถาน จีเต็กลิ้ม",
    "name": "สวนจ่าโสเขาใหญ่ปราจีนบุรี",
    "address": "บ้านบ่อแร่ ตำบล เนินหอม อำเภอเมืองปราจีนบุรี",
    "lat": 14.1878641,
    "lng": 101.3575027
  },
  {
    "mu_place": "พุทธสถาน จีเต็กลิ้ม",
    "name": "สะพานบางยางประชาชนร่วมใจ",
    "address": "W5GC+Q5X ตำบล บางยาง อำเภอ บ้านสร้าง",
    "lat": 13.9269757,
    "lng": 101.1704779
  },
  {
    "mu_place": "พุทธสถาน จีเต็กลิ้ม",
    "name": "พุทธสถาน จีเต็กลิ้ม",
    "address": "25GG+VFQ ตำบล ศรีจุฬา อำเภอเมืองนครนายก",
    "lat": 14.0272189,
    "lng": 101.1763145
  },
  {
    "mu_place": "พุทธสถาน จีเต็กลิ้ม",
    "name": "วัดบางกระเบา พระอารามหลวง",
    "address": "36 หมู่ 6 ตำบล บางกระเบา อำเภอ บ้านสร้าง",
    "lat": 13.9685139,
    "lng": 101.2054342
  },
  {
    "mu_place": "ศาลาหลวงปู่ดู่",
    "name": "วัดมหาธาตุ",
    "address": "Wat Mahathat ถ. นเรศวร ตำบลท่าวาสุกรี อำเภอ พระนครศรีอยุธยา",
    "lat": 14.3569443,
    "lng": 100.5675112
  },
  {
    "mu_place": "ศาลาหลวงปู่ดู่",
    "name": "ทุ่งมะขามหย่อง",
    "address": "9GMH+G5P ตำบลบ้านใหม่ อำเภอ พระนครศรีอยุธยา",
    "lat": 14.3838265,
    "lng": 100.5279444
  },
  {
    "mu_place": "ศาลาหลวงปู่ดู่",
    "name": "โบราณสถานวัดพระยาแมน",
    "address": "9HH3+5GM ตำบล ลุมพลี อำเภอ พระนครศรีอยุธยา",
    "lat": 14.3779528,
    "lng": 100.5537944
  },
  {
    "mu_place": "ศาลาหลวงปู่ดู่",
    "name": "พระที่นั่งเพนียด",
    "address": "9HG9+MF9 ตำบล สวนพริก อำเภอ พระนครศรีอยุธยา",
    "lat": 14.3766521,
    "lng": 100.5687352
  },
  {
    "mu_place": "ศาลาหลวงปู่ดู่",
    "name": "พระราชวังบางปะอิน",
    "address": "พระราชวังบางปะอิน ตำบล บ้านเลน อำเภอบางปะอิน",
    "lat": 14.2327734,
    "lng": 100.5790669
  },
  {
    "mu_place": "ศาลาหลวงปู่ดู่",
    "name": "สวนสาธารณะเฉลิมพระเกียรติทุ่งหันตรา (อนุสรณ์สถานแห่งความจงรักภักดี ทุ่งหันตรา)",
    "address": "9HHX+55X ตำบลหันตรา อำเภอ พระนครศรีอยุธยา",
    "lat": 14.377995,
    "lng": 100.5979935
  },
  {
    "mu_place": "ศาลาหลวงปู่ดู่",
    "name": "สะพานไม้ชายทุ่ง",
    "address": "ทุ่งบัวแดง หมู่ 5 ถนน AH2 ตำบล คลองจิก อำเภอบางปะอิน",
    "lat": 14.2130749,
    "lng": 100.6197751
  },
  {
    "mu_place": "ศาลาหลวงปู่ดู่",
    "name": "วังช้างอยุธยา แล เพนียด",
    "address": "ถนน ป่าโทน ตำบล ประตูชัย อำเภอ พระนครศรีอยุธยา",
    "lat": 14.3522678,
    "lng": 100.5586724
  },
  {
    "mu_place": "ศาลาหลวงปู่ดู่",
    "name": "ทุ่งนา เสน่หาท่าหลวง",
    "address": "GQQ5+QP2 ตำบล ท่าหลวง อำเภอ ท่าเรือ",
    "lat": 14.5394059,
    "lng": 100.7593471
  },
  {
    "mu_place": "ศาลาหลวงปู่ดู่",
    "name": "วัดพระศรีสรรเพชญ์",
    "address": "9H45+963 ตำบล ประตูชัย อำเภอ พระนครศรีอยุธยา",
    "lat": 14.3558151,
    "lng": 100.5580536
  },
  {
    "mu_place": "ศาลาหลวงปู่ดู่",
    "name": "วิหารพระนอน วัดใหญ่ชัยมงคล",
    "address": "8HWV+C65 ตำบล ไผ่ลิง อำเภอ พระนครศรีอยุธยา",
    "lat": 14.3460148,
    "lng": 100.5931187
  },
  {
    "mu_place": "ศาลาหลวงปู่ดู่",
    "name": "ปราสาทนครหลวง",
    "address": "FJ86+4H5 ตำบล นครหลวง อำเภอนครหลวง",
    "lat": 14.465252,
    "lng": 100.6114679
  },
  {
    "mu_place": "ศาลาหลวงปู่ดู่",
    "name": "หมู่บ้านท่องเที่ยวเชิงเกษตร OTOP นวัตวิถี หมู่ 4 ต.ทับน้ำ อ.บางปะหัน จ.พระนครศรีอยุธยา",
    "address": "บ้านทับน้ำ ตำบล ทับน้ำ อำเภอบางปะหัน",
    "lat": 14.4824838,
    "lng": 100.5048041
  },
  {
    "mu_place": "ศาลาหลวงปู่ดู่",
    "name": "พลับพลา สถานีรถไฟบางปะอิน",
    "address": "6HQM+XQP บาง ปะ ดิน ตำบล บ้านเลน อำเภอบางปะอิน",
    "lat": 14.2399563,
    "lng": 100.5844747
  },
  {
    "mu_place": "ศาลาหลวงปู่ดู่",
    "name": "หอเหมมณเฑียรเทวราช",
    "address": "พระราชวังบางปะอิน ตำบล บ้านเลน อำเภอบางปะอิน",
    "lat": 14.2311709,
    "lng": 100.5781113
  },
  {
    "mu_place": "ศาลาหลวงปู่ดู่",
    "name": "Entrance Wat Phra Ram",
    "address": "9H36+H6X ตำบล ประตูชัย อำเภอ พระนครศรีอยุธยา",
    "lat": 14.3539828,
    "lng": 100.5606213
  },
  {
    "mu_place": "ศาลาหลวงปู่ดู่",
    "name": "The Ruins of Wat Chai Watthanaram",
    "address": "8GVR+CFH ตำบล บ้านป้อม อำเภอ พระนครศรีอยุธยา",
    "lat": 14.3435561,
    "lng": 100.5412414
  },
  {
    "mu_place": "ศาลาหลวงปู่ดู่",
    "name": "ตลาดน้ำอโยธยา",
    "address": "65/19 ตำบล ไผ่ลิง อำเภอ พระนครศรีอยุธยา",
    "lat": 14.3589799,
    "lng": 100.5933314
  },
  {
    "mu_place": "ศาลาหลวงปู่ดู่",
    "name": "วัดราชบูรณะ",
    "address": "9H58+FWF ซอย ชีกุน ตำบลท่าวาสุกรี อำเภอ พระนครศรีอยุธยา",
    "lat": 14.3587096,
    "lng": 100.5674662
  },
  {
    "mu_place": "ศาลาหลวงปู่ดู่",
    "name": "พระตำหนักสิริยาลัย",
    "address": "8GVV+9PH ตำบล ประตูชัย อำเภอ พระนครศรีอยุธยา",
    "lat": 14.3434319,
    "lng": 100.5443503
  },
  {
    "mu_place": "วัดดาวดึงษาราม",
    "name": "หอดูนก สวนศรีนครเขื่อนขันธ์",
    "address": "MHW9+F9V ตำบล บางกะเจ้า อำเภอพระประแดง",
    "lat": 13.6962495,
    "lng": 100.5684135
  },
  {
    "mu_place": "วัดดาวดึงษาราม",
    "name": "มิวเซียมสยาม",
    "address": "4 ถนน สนามไชย แขวงพระบรมมหาราชวัง เขตพระนคร",
    "lat": 13.744147,
    "lng": 100.494137
  },
  {
    "mu_place": "วัดดาวดึงษาราม",
    "name": "พระที่นั่งพิมานจักรี",
    "address": "315 ถ. ราชวิถี แขวงทุ่งพญาไท เขตราชเทวี",
    "lat": 13.7685069,
    "lng": 100.5328757
  },
  {
    "mu_place": "วัดดาวดึงษาราม",
    "name": "ไร่เหมือนจันทร์",
    "address": "166/1 ถนน เลียบคลองทวีวัฒนา แขวงบางไผ่ เขตบางแค",
    "lat": 13.7385124,
    "lng": 100.3592722
  },
  {
    "mu_place": "วัดดาวดึงษาราม",
    "name": "สวนเกร็ดพุทธ",
    "address": "WF4Q+254 ตำบล เกาะเกร็ด อำเภอปากเกร็ด",
    "lat": 13.9050229,
    "lng": 100.4879706
  },
  {
    "mu_place": "วัดดาวดึงษาราม",
    "name": "พิพิธภัณฑ์ช้างเอราวัณ",
    "address": "99 ถ. กาญจนาภิเษก ตำบล บางเมืองใหม่ อำเภอเมืองสมุทรปราการ",
    "lat": 13.6285771,
    "lng": 100.5889193
  },
  {
    "mu_place": "วัดดาวดึงษาราม",
    "name": "ตลาดน้ำคลองบางหลวง",
    "address": "13°43'48. 100°27'50. 99/5 ซอย เพชรเกษม 20 แขวงปากคลองภาษีเจริญ เขตภาษีเจริญ",
    "lat": 13.7316243,
    "lng": 100.46312
  },
  {
    "mu_place": "วัดดาวดึงษาราม",
    "name": "คลองบางหลวง (คลองบางกอกใหญ่)",
    "address": "ซอย เพชรเกษม 20 แขวงปากคลองภาษีเจริญ เขตภาษีเจริญ",
    "lat": 13.7316031,
    "lng": 100.4632156
  },
  {
    "mu_place": "วัดดาวดึงษาราม",
    "name": "ตลาดน้ำตลิ่งชัน",
    "address": "333 ถนน ชักพระ แขวงคลองชักพระ เขตตลิ่งชัน",
    "lat": 13.7762674,
    "lng": 100.4565979
  },
  {
    "mu_place": "วัดดาวดึงษาราม",
    "name": "ซีไลฟ์ แบงคอก",
    "address": "ชั้น บี1-บี2 สยามพารากอน 991 ถ. พระรามที่ ๑ แขวงปทุมวัน เขตปทุมวัน",
    "lat": 13.7459351,
    "lng": 100.5352057
  },
  {
    "mu_place": "วัดดาวดึงษาราม",
    "name": "บ้านศิลปินคลองบางหลวง : Artist House Bangkok",
    "address": "309 ซอย เพชรเกษม 28 แขวงคูหาสวรรค์ เขตภาษีเจริญ",
    "lat": 13.7312977,
    "lng": 100.4632778
  },
  {
    "mu_place": "วัดดาวดึงษาราม",
    "name": "หาดเติมรัก บางบัวทอง",
    "address": "ตำบล บางคูรัด อำเภอบางบัวทอง",
    "lat": 13.8949929,
    "lng": 100.3518422
  },
  {
    "mu_place": "วัดดาวดึงษาราม",
    "name": "Guide Thailandia & Tours",
    "address": "888TT Building, ซ. สุขุมวิท 81 แขวงบางจาก เขตพระโขนง",
    "lat": 13.7061533,
    "lng": 100.6050823
  },
  {
    "mu_place": "วัดดาวดึงษาราม",
    "name": "เสาชิงช้า",
    "address": "239 ถนน ดินสอ แขวงบางขุนพรหม เขตพระนคร",
    "lat": 13.7517707,
    "lng": 100.5012761
  },
  {
    "mu_place": "วัดดาวดึงษาราม",
    "name": "พระตำหนักแดง",
    "address": "4 ถ. หน้าพระธาตุ แขวงพระบรมมหาราชวัง เขตพระนคร",
    "lat": 13.7577024,
    "lng": 100.491825
  },
  {
    "mu_place": "วัดดาวดึงษาราม",
    "name": "สูงวัยพาเที่ยว",
    "address": "JGFQ+F6J ถ. สุขสวัสดิ์ เขตจอมทอง",
    "lat": 13.6237038,
    "lng": 100.5380215
  },
  {
    "mu_place": "วัดดาวดึงษาราม",
    "name": "อุทยานผีเสื้อและแมลง กรุงเทพฯ",
    "address": "สวนวิชรเบญจทิศ(สวนรถไฟ ถนน กำแพงเพชร 3 แขวงลาดยาว เขตจตุจักร",
    "lat": 13.8095512,
    "lng": 100.5549011
  },
  {
    "mu_place": "วัดดาวดึงษาราม",
    "name": "สถานที่ถ่ายรูป พระธรรมกายเทพมงคล",
    "address": "766 ถนน เพชรเกษมสายเก่า แขวงวัดท่าพระ เขตบางกอกใหญ่",
    "lat": 13.7232028,
    "lng": 100.480732
  },
  {
    "mu_place": "วัดดาวดึงษาราม",
    "name": "ริมน้ำโขง หอ14",
    "address": "50, Kasetsart University, Ngam Wong Wan Road, Lat Yao, Khet Chatuchak, Bangkok, 10900 แขวงลาดยาว เขตจตุจักร",
    "lat": 13.8487664,
    "lng": 100.5688721
  },
  {
    "mu_place": "วัดดาวดึงษาราม",
    "name": "ลาน 60 ปี ธรรมศาสตร์",
    "address": "2 ถ. หน้าพระธาตุ แขวงพระบรมมหาราชวัง เขตพระนคร",
    "lat": 13.7575138,
    "lng": 100.4895887
  },
  {
    "mu_place": "วิหารหลวงพ่อสำเร็จศักดิ์สิทธิ์",
    "name": "อุทยานแห่งชาติน้ำตกสามหลั่น",
    "address": "53 หมู่ที่ 1 ตำบล หนองปลาไหล อำเภอเมืองสระบุรี",
    "lat": 14.4407444,
    "lng": 100.9596264
  },
  {
    "mu_place": "วิหารหลวงพ่อสำเร็จศักดิ์สิทธิ์",
    "name": "อนุสรณ์สงครามโลกครั้งที่ 2 ของกองทัพญี่ปุ่น (เขาแดง)",
    "address": "CXQ5+XRX ตำบล หนองปลาไหล อำเภอเมืองสระบุรี",
    "lat": 14.4399813,
    "lng": 100.9596166
  },
  {
    "mu_place": "วิหารหลวงพ่อสำเร็จศักดิ์สิทธิ์",
    "name": "อ่างเก็บน้ำตะกุด",
    "address": "GWRJ+5RJ ตำบล ตะกุด อำเภอเมืองสระบุรี",
    "lat": 14.5404635,
    "lng": 100.9320224
  },
  {
    "mu_place": "วิหารหลวงพ่อสำเร็จศักดิ์สิทธิ์",
    "name": "ศาลแม่นางตะเคียน เสาร้องไห้",
    "address": "GRXX+763 ตำบล เสาไห้ อำเภอ เสาไห้",
    "lat": 14.5480803,
    "lng": 100.848048
  },
  {
    "mu_place": "วิหารหลวงพ่อสำเร็จศักดิ์สิทธิ์",
    "name": "Thammajinda Pagodas",
    "address": "HR53+X5X ตำบล ม่วงงาม อำเภอ เสาไห้",
    "lat": 14.5599809,
    "lng": 100.8029941
  },
  {
    "mu_place": "วิหารหลวงพ่อสำเร็จศักดิ์สิทธิ์",
    "name": "ทุ่งนา เสน่หาท่าหลวง",
    "address": "GQQ5+QP2 ตำบล ท่าหลวง อำเภอ ท่าเรือ",
    "lat": 14.5394059,
    "lng": 100.7593471
  },
  {
    "mu_place": "วิหารหลวงพ่อสำเร็จศักดิ์สิทธิ์",
    "name": "ผาไทร็อค",
    "address": "ตำบล หนองยาว อำเภอเมืองสระบุรี",
    "lat": 14.4773991,
    "lng": 100.9000964
  },
  {
    "mu_place": "วิหารหลวงพ่อสำเร็จศักดิ์สิทธิ์",
    "name": "อ่างเก็บน้ำบ้านเกล็ดเพ็ชร",
    "address": "GW6P+53Q ตำบล ปากข้าวสาร อำเภอเมืองสระบุรี",
    "lat": 14.5104529,
    "lng": 100.9352317
  },
  {
    "mu_place": "วิหารหลวงพ่อสำเร็จศักดิ์สิทธิ์",
    "name": "หอวัฒนธรรมพื้นบ้านไทยวน",
    "address": "หมู่ที่ 6 48 ตำบล ดาวเรือง อ.เมือง",
    "lat": 14.5554711,
    "lng": 100.8848449
  },
  {
    "mu_place": "วิหารหลวงพ่อสำเร็จศักดิ์สิทธิ์",
    "name": "ตลาดน้ำโบราณบ้านต้นตาล",
    "address": "HV2J+H3V ทางหลวงชนบทสาย สบ.3050 ตำบล ต้นตาล อำเภอ เสาไห้",
    "lat": 14.5514971,
    "lng": 100.8801603
  },
  {
    "mu_place": "วิหารหลวงพ่อสำเร็จศักดิ์สิทธิ์",
    "name": "บึงวัดเพชร",
    "address": "ตำบล บ้านยาง อำเภอ เสาไห้",
    "lat": 14.5671565,
    "lng": 100.805997
  },
  {
    "mu_place": "วิหารหลวงพ่อสำเร็จศักดิ์สิทธิ์",
    "name": "สวนแม่แหวนอินฟลาวเวอร์",
    "address": "GQ5X+FQJ Unnamed Road ตำบล ไก่เส่า อำเภอ หนองแซง",
    "lat": 14.5087223,
    "lng": 100.7994038
  },
  {
    "mu_place": "วิหารหลวงพ่อสำเร็จศักดิ์สิทธิ์",
    "name": "น้ำตกโพธิ์หินดาด สระบุรี",
    "address": "CXQ7+JVP ตำบล หนองปลาไหล อำเภอเมืองสระบุรี",
    "lat": 14.4390999,
    "lng": 100.9646992
  },
  {
    "mu_place": "วิหารหลวงพ่อสำเร็จศักดิ์สิทธิ์",
    "name": "วิสาหกิจชุมชนท่าหลวงท่องเที่ยวเชิงเกษตร (กาแฟ)",
    "address": "99, ตำบล ท่าหลวง อำเภอ ท่าเรือ",
    "lat": 14.5575821,
    "lng": 100.7725757
  },
  {
    "mu_place": "วิหารหลวงพ่อสำเร็จศักดิ์สิทธิ์",
    "name": "พิพิธภัณฑ์บ้านใร่กาแฟ",
    "address": "FQJF+67J ทางหลวงชนบทสาย สบ.5043 ตำบล หนองแซง อำเภอ หนองแซง",
    "lat": 14.4805942,
    "lng": 100.7731377
  },
  {
    "mu_place": "วิหารหลวงพ่อสำเร็จศักดิ์สิทธิ์",
    "name": "Saraburi Clock Tower",
    "address": "GWF7+4QC สุดบรรทัด อำเภอเมืองสระบุรี",
    "lat": 14.5228113,
    "lng": 100.9143795
  },
  {
    "mu_place": "วิหารหลวงพ่อสำเร็จศักดิ์สิทธิ์",
    "name": "หมู่บ้านท่องเที่ยว OTOP นวัตวิถี บ้านคันลำ",
    "address": "ฺBan Kan Lam Village No.3 Nong Moo, อำเภอวิหารแดง",
    "lat": 14.3319766,
    "lng": 100.941504
  },
  {
    "mu_place": "วิหารหลวงพ่อสำเร็จศักดิ์สิทธิ์",
    "name": "วิหารพระศรีพุทธมงคลมุนี(หลวงพ่อดำ)",
    "address": "GRXX+54H ตำบล เสาไห้ อำเภอ เสาไห้",
    "lat": 14.547947,
    "lng": 100.8478213
  },
  {
    "mu_place": "วิหารหลวงพ่อสำเร็จศักดิ์สิทธิ์",
    "name": "ประเพณีตักบาตรข้าวหลามจี่ เดือนยี่ ที่หนองโน",
    "address": "FVR6+3GC ตำบล หนองโน อำเภอเมืองสระบุรี",
    "lat": 14.490197,
    "lng": 100.861251
  },
  {
    "mu_place": "วิหารหลวงพ่อสำเร็จศักดิ์สิทธิ์",
    "name": "ทุ่งปอเทือง จุดเช็คอินบัวลอยบ้านเฮา",
    "address": "บัวลอยบ้านเฮา บัวลอย ตำบล บัวลอย อำเภอหนองแค",
    "lat": 14.4230254,
    "lng": 100.8406403
  },
  {
    "mu_place": "หลวงพ่อรวย วัดตะโก",
    "name": "วิหารพระนอน วัดใหญ่ชัยมงคล",
    "address": "8HWV+C65 ตำบล ไผ่ลิง อำเภอ พระนครศรีอยุธยา",
    "lat": 14.3460148,
    "lng": 100.5931187
  },
  {
    "mu_place": "หลวงพ่อรวย วัดตะโก",
    "name": "ปราสาทนครหลวง",
    "address": "FJ86+4H5 ตำบล นครหลวง อำเภอนครหลวง",
    "lat": 14.465252,
    "lng": 100.6114679
  },
  {
    "mu_place": "หลวงพ่อรวย วัดตะโก",
    "name": "หอวัฒนธรรมพื้นบ้านไทยวน",
    "address": "หมู่ที่ 6 48 ตำบล ดาวเรือง อ.เมือง",
    "lat": 14.5554711,
    "lng": 100.8848449
  },
  {
    "mu_place": "หลวงพ่อรวย วัดตะโก",
    "name": "ตลาดน้ำอโยธยา",
    "address": "65/19 ตำบล ไผ่ลิง อำเภอ พระนครศรีอยุธยา",
    "lat": 14.3589799,
    "lng": 100.5933314
  },
  {
    "mu_place": "หลวงพ่อรวย วัดตะโก",
    "name": "วัดราชบูรณะ",
    "address": "9H58+FWF ซอย ชีกุน ตำบลท่าวาสุกรี อำเภอ พระนครศรีอยุธยา",
    "lat": 14.3587096,
    "lng": 100.5674662
  },
  {
    "mu_place": "หลวงพ่อรวย วัดตะโก",
    "name": "พิพิธภัณฑ์บ้านใร่กาแฟ",
    "address": "FQJF+67J ทางหลวงชนบทสาย สบ.5043 ตำบล หนองแซง อำเภอ หนองแซง",
    "lat": 14.4805942,
    "lng": 100.7731377
  },
  {
    "mu_place": "หลวงพ่อรวย วัดตะโก",
    "name": "วัดตะโก หลวงพ่อรวย",
    "address": "31 หมู่2 ตำบล ดอนหญ้านาง อำเภอ ภาชี",
    "lat": 14.4826807,
    "lng": 100.7193635
  },
  {
    "mu_place": "หลวงพ่อรวย วัดตะโก",
    "name": "วัดตาลเอน",
    "address": "หมู่ที่ 1 ตำบลตาลเอน อำเภอบางปะหัน",
    "lat": 14.5191033,
    "lng": 100.5602648
  },
  {
    "mu_place": "หลวงพ่อรวย วัดตะโก",
    "name": "วัดกุฎีดาว พระนครศรีอยุธยา",
    "address": "19 ซอย ป่าโทน 19 ตำบล ประตูชัย อำเภอ พระนครศรีอยุธยา",
    "lat": 14.3633804,
    "lng": 100.5899031
  },
  {
    "mu_place": "หลวงพ่อรวย วัดตะโก",
    "name": "อู๊ด​อู๊ด​แลนด์​ดินแดนมหัศจรรย์",
    "address": "FM2G+C6C ถนน โยธาธิการ พระนครศรีอยุธยา 2075 ตำบล พระแก้ว อำเภอ ภาชี",
    "lat": 14.4510597,
    "lng": 100.6755125
  },
  {
    "mu_place": "หลวงพ่อรวย วัดตะโก",
    "name": "ศรีอยุธยา ไลอ้อน ปาร์ค",
    "address": "91 ตำบล หนองขนาก อำเภอ ท่าเรือ",
    "lat": 14.4943966,
    "lng": 100.7181032
  },
  {
    "mu_place": "หลวงพ่อรวย วัดตะโก",
    "name": "ตลาดเจ้าพรหม",
    "address": "3 9 ถ. อู่ทอง ตำบลหอรัตนไชย อำเภอ พระนครศรีอยุธยา",
    "lat": 14.3588065,
    "lng": 100.5794716
  },
  {
    "mu_place": "ศาลเจ้าหน่าจาซาไท้จื้อ อ่างศิลา",
    "name": "อมตะ คาสเซิล อ.เมือง จ.ชลบุรี Amata Castle",
    "address": "C296+G96 ตำบล คลองตำหรุ อำเภอเมืองชลบุรี",
    "lat": 13.4187882,
    "lng": 101.0109049
  },
  {
    "mu_place": "ศาลเจ้าหน่าจาซาไท้จื้อ อ่างศิลา",
    "name": "น้ำตกชันตาเถร",
    "address": "62RW+V5H ตำบล บางพระ อำเภอศรีราชา",
    "lat": 13.2421847,
    "lng": 101.0454846
  },
  {
    "mu_place": "ศาลเจ้าหน่าจาซาไท้จื้อ อ่างศิลา",
    "name": "แกรนด์แคนยอน ชลบุรี",
    "address": "20000 ถนนเลี่ยงเมืองชลบุรี ตำบล ห้วยกะปิ อำเภอเมืองชลบุรี",
    "lat": 13.3230553,
    "lng": 100.9807451
  },
  {
    "mu_place": "ศาลเจ้าหน่าจาซาไท้จื้อ อ่างศิลา",
    "name": "สวนพุทธแดนนรก",
    "address": "12 ซอย สำรวล ตำบลแสนสุข อำเภอเมืองชลบุรี",
    "lat": 13.297434,
    "lng": 100.9125583
  },
  {
    "mu_place": "ศาลเจ้าหน่าจาซาไท้จื้อ อ่างศิลา",
    "name": "แหลมถ้ำพัง",
    "address": "4RW2+WF5 ถนน เฉลิมพระเกียรติ ตำบล ท่าเทววงษ์ อำเภอ เกาะสีชัง",
    "lat": 13.1472705,
    "lng": 100.8012413
  },
  {
    "mu_place": "ศาลเจ้าหน่าจาซาไท้จื้อ อ่างศิลา",
    "name": "ช่องเขาขาด",
    "address": "5R72+85G ศรีราชา อำเภอ เกาะสีชัง",
    "lat": 13.1633042,
    "lng": 100.8004481
  },
  {
    "mu_place": "ศาลเจ้าหน่าจาซาไท้จื้อ อ่างศิลา",
    "name": "จุดชมวิว ยอดเขาสามมุข",
    "address": "8W73+2J2 ตำบลแสนสุข อำเภอเมืองชลบุรี",
    "lat": 13.312504,
    "lng": 100.9039819
  },
  {
    "mu_place": "ศาลเจ้าหน่าจาซาไท้จื้อ อ่างศิลา",
    "name": "หาดวอนนภา",
    "address": "186 ถนน บางแสนล่าง ตำบลแสนสุข อำเภอเมืองชลบุรี",
    "lat": 13.269572,
    "lng": 100.9233621
  },
  {
    "mu_place": "ศาลเจ้าหน่าจาซาไท้จื้อ อ่างศิลา",
    "name": "บ้านไร่ลุงดาป้านิด",
    "address": "ตำบล หนองตำลึง อำเภอพานทอง",
    "lat": 13.3937882,
    "lng": 101.0759471
  },
  {
    "mu_place": "ศาลเจ้าหน่าจาซาไท้จื้อ อ่างศิลา",
    "name": "หาดบางแสน",
    "address": "ซอย บางแสน สาย 1 ตำบลแสนสุข อำเภอเมืองชลบุรี",
    "lat": 13.2884469,
    "lng": 100.9112799
  },
  {
    "mu_place": "ศาลเจ้าหน่าจาซาไท้จื้อ อ่างศิลา",
    "name": "วัดแสนสุข เมืองสวรรค์ แดนนรก",
    "address": "150 ถนน บางแสนสาย 2 ตำบลแสนสุข อำเภอเมืองชลบุรี",
    "lat": 13.29734,
    "lng": 100.9130351
  },
  {
    "mu_place": "ศาลเจ้าหน่าจาซาไท้จื้อ อ่างศิลา",
    "name": "สถาบันวิทยาศาสตร์ทางทะเล มหาวิทยาลัยบูรพา",
    "address": "169 ถนน ลงหาดบางแสน ตำบลแสนสุข อำเภอเมืองชลบุรี",
    "lat": 13.2848718,
    "lng": 100.9248992
  },
  {
    "mu_place": "ศาลเจ้าหน่าจาซาไท้จื้อ อ่างศิลา",
    "name": "ตึกมหาราช",
    "address": "8WRG+362 3134 อำเภอเมืองชลบุรี",
    "lat": 13.3401229,
    "lng": 100.9255117
  },
  {
    "mu_place": "ศาลเจ้าหน่าจาซาไท้จื้อ อ่างศิลา",
    "name": "ตึกแดง อ่างศิลา",
    "address": "ปาก ทางเข้าตลาดเก่า ตำบล อ่างศิลา อำเภอเมืองชลบุรี",
    "lat": 13.3403784,
    "lng": 100.9258326
  },
  {
    "mu_place": "ศาลเจ้าหน่าจาซาไท้จื้อ อ่างศิลา",
    "name": "LOF LAND @แกรนด์แคนยอนชลบุรี",
    "address": "17 17 หมู่ที่ 7 ถนน คีรีนคร 8 ตำบล ห้วยกะปิ อำเภอเมืองชลบุรี",
    "lat": 13.3197735,
    "lng": 100.9787832
  },
  {
    "mu_place": "ศาลเจ้าหน่าจาซาไท้จื้อ อ่างศิลา",
    "name": "หอชมเมืองศรีราชา",
    "address": "5W6C+V9V ตำบล ศรีราชา อำเภอศรีราชา",
    "lat": 13.1622364,
    "lng": 100.9209166
  },
  {
    "mu_place": "ศาลเจ้าหน่าจาซาไท้จื้อ อ่างศิลา",
    "name": "ท้าวเวสสุวรรณ",
    "address": "7WX8+P6 ตำบลแสนสุข อำเภอเมืองชลบุรี",
    "lat": 13.2992537,
    "lng": 100.9155644
  },
  {
    "mu_place": "ศาลเจ้าหน่าจาซาไท้จื้อ อ่างศิลา",
    "name": "ชลบุรีสุนัขพันธุ์ใหญ่ (นำเข้า)",
    "address": "92FV+X66 ตำบล นาป่า อำเภอเมืองชลบุรี",
    "lat": 13.375347,
    "lng": 101.043931
  },
  {
    "mu_place": "ศาลเจ้าหน่าจาซาไท้จื้อ อ่างศิลา",
    "name": "ศาลธรรมนาวา",
    "address": "8W66+MGG ตำบลแสนสุข อำเภอเมืองชลบุรี",
    "lat": 13.3116754,
    "lng": 100.9113376
  },
  {
    "mu_place": "ศาลเจ้าหน่าจาซาไท้จื้อ อ่างศิลา",
    "name": "วงเวียนฉลามคู่",
    "address": "9X8G+8V5 ตำบล บางปลาสร้อย อำเภอเมืองชลบุรี",
    "lat": 13.365907,
    "lng": 100.9758061
  },
  {
    "mu_place": "อนุสาวรีย์ พระนางเลือดขาว แม่เจ้าอยู่หัว",
    "name": "ชุมชนเครือข่าย​ท่องเที่ยว​เชิง​วัฒนธรรม​บ้านศาลาฝาชีพัฒนา​",
    "address": "52JQ+6WF 413 ตำบล สวนหลวง อำเภอ เฉลิมพระเกียรติ",
    "lat": 8.1805893,
    "lng": 100.0398512
  },
  {
    "mu_place": "อนุสาวรีย์ พระนางเลือดขาว แม่เจ้าอยู่หัว",
    "name": "นบกั้นน้ำคลองวังเคียน",
    "address": "หมู่บ้านวังเคียน หมู่ 2 ตำบล เขาพระทอง อำเภอ ชะอวด",
    "lat": 7.9815295,
    "lng": 99.9213221
  },
  {
    "mu_place": "อนุสาวรีย์ พระนางเลือดขาว แม่เจ้าอยู่หัว",
    "name": "ลานท่าพยา บีช",
    "address": "77G9+VV3 ตำบล ท่าพญา อำเภอ ปากพนัง",
    "lat": 8.277067299999999,
    "lng": 100.2697067
  },
  {
    "mu_place": "อนุสาวรีย์ พระนางเลือดขาว แม่เจ้าอยู่หัว",
    "name": "น้ำตร้อพังแพร่",
    "address": "36C2+QHQ Unnamed Road ตำบล เขาพระบาท อำเภอ เชียรใหญ่",
    "lat": 8.071952,
    "lng": 100.2014709
  },
  {
    "mu_place": "อนุสาวรีย์ พระนางเลือดขาว แม่เจ้าอยู่หัว",
    "name": "บ้านสวน อัญมณีทอง",
    "address": "131 ตำบล แม่เจ้าอยู่หัว อำเภอ เชียรใหญ่",
    "lat": 8.0937796,
    "lng": 100.1040907
  },
  {
    "mu_place": "อนุสาวรีย์ พระนางเลือดขาว แม่เจ้าอยู่หัว",
    "name": "บ้านสวนกะออม",
    "address": "29 2 ตำบล บางนบ อำเภอ หัวไทร",
    "lat": 8.0972881,
    "lng": 100.2657061
  },
  {
    "mu_place": "อนุสาวรีย์ พระนางเลือดขาว แม่เจ้าอยู่หัว",
    "name": "พระพุทธกรรมแต่ง เทวสยามศรีวิชัย",
    "address": "35HX+76F Unnamed Road ตำบล เขาพระบาท อำเภอ เชียรใหญ่",
    "lat": 8.0781838,
    "lng": 100.1980509
  },
  {
    "mu_place": "วัดทุ่งเศรษฐี ราม2",
    "name": "Spy War",
    "address": "World, Safari แขวงสามวาตะวันตก เขตคลองสามวา",
    "lat": 13.8640257,
    "lng": 100.7014903
  },
  {
    "mu_place": "วัดทุ่งเศรษฐี ราม2",
    "name": "หอดูนก สวนศรีนครเขื่อนขันธ์",
    "address": "MHW9+F9V ตำบล บางกะเจ้า อำเภอพระประแดง",
    "lat": 13.6962495,
    "lng": 100.5684135
  },
  {
    "mu_place": "วัดทุ่งเศรษฐี ราม2",
    "name": "พระที่นั่งพิมานจักรี",
    "address": "315 ถ. ราชวิถี แขวงทุ่งพญาไท เขตราชเทวี",
    "lat": 13.7685069,
    "lng": 100.5328757
  },
  {
    "mu_place": "วัดทุ่งเศรษฐี ราม2",
    "name": "พิพิธภัณฑ์ช้างเอราวัณ",
    "address": "99 ถ. กาญจนาภิเษก ตำบล บางเมืองใหม่ อำเภอเมืองสมุทรปราการ",
    "lat": 13.6285771,
    "lng": 100.5889193
  },
  {
    "mu_place": "วัดทุ่งเศรษฐี ราม2",
    "name": "ซาฟารีเวิลด์",
    "address": "99 ถ. ปัญญาอินทรา แขวงสามวาตะวันตก เขตคลองสามวา",
    "lat": 13.8654914,
    "lng": 100.7030427
  },
  {
    "mu_place": "วัดทุ่งเศรษฐี ราม2",
    "name": "ซีไลฟ์ แบงคอก",
    "address": "ชั้น บี1-บี2 สยามพารากอน 991 ถ. พระรามที่ ๑ แขวงปทุมวัน เขตปทุมวัน",
    "lat": 13.7459351,
    "lng": 100.5352057
  },
  {
    "mu_place": "วัดทุ่งเศรษฐี ราม2",
    "name": "Guide Thailandia & Tours",
    "address": "888TT Building, ซ. สุขุมวิท 81 แขวงบางจาก เขตพระโขนง",
    "lat": 13.7061533,
    "lng": 100.6050823
  },
  {
    "mu_place": "วัดทุ่งเศรษฐี ราม2",
    "name": "เสาชิงช้า",
    "address": "239 ถนน ดินสอ แขวงบางขุนพรหม เขตพระนคร",
    "lat": 13.7517707,
    "lng": 100.5012761
  },
  {
    "mu_place": "วัดทุ่งเศรษฐี ราม2",
    "name": "สูงวัยพาเที่ยว",
    "address": "JGFQ+F6J ถ. สุขสวัสดิ์ เขตจอมทอง",
    "lat": 13.6237038,
    "lng": 100.5380215
  },
  {
    "mu_place": "วัดทุ่งเศรษฐี ราม2",
    "name": "อุทยานผีเสื้อและแมลง กรุงเทพฯ",
    "address": "สวนวิชรเบญจทิศ(สวนรถไฟ ถนน กำแพงเพชร 3 แขวงลาดยาว เขตจตุจักร",
    "lat": 13.8095512,
    "lng": 100.5549011
  },
  {
    "mu_place": "วัดทุ่งเศรษฐี ราม2",
    "name": "ริมน้ำโขง หอ14",
    "address": "50, Kasetsart University, Ngam Wong Wan Road, Lat Yao, Khet Chatuchak, Bangkok, 10900 แขวงลาดยาว เขตจตุจักร",
    "lat": 13.8487664,
    "lng": 100.5688721
  },
  {
    "mu_place": "วัดทุ่งเศรษฐี ราม2",
    "name": "สวนงู สถานเสาวภา สภากาชาดไทย",
    "address": "1871 ถนนพระรามที่ ๔ แขวงปทุมวัน เขตปทุมวัน",
    "lat": 13.7328912,
    "lng": 100.5327978
  },
  {
    "mu_place": "วัดทุ่งเศรษฐี ราม2",
    "name": "สยามอะเมซิ่งพาร์ค",
    "address": "203 ถ. สวนสยาม แขวงคันนายาว เขตคันนายาว",
    "lat": 13.8066994,
    "lng": 100.6923303
  },
  {
    "mu_place": "วัดทุ่งเศรษฐี ราม2",
    "name": "คลองโอ่งอ่าง (คลองรอบกรุง)",
    "address": "PGW3+8C6 คลองโอ่งอ่าง แขวงสัมพันธวงศ์ เขตสัมพันธวงศ์",
    "lat": 13.7457964,
    "lng": 100.5035255
  },
  {
    "mu_place": "วัดทุ่งเศรษฐี ราม2",
    "name": "พิพิธภัณฑ์เรือนคำเที่ยง",
    "address": "131 ถนน อโศกมนตรี แขวงคลองเตยเหนือ เขตวัฒนา",
    "lat": 13.7393283,
    "lng": 100.5612914
  },
  {
    "mu_place": "วัดทุ่งเศรษฐี ราม2",
    "name": "วัดสุทัศนเทพวรารามราชวรมหาวิหาร",
    "address": "146 ถ. บำรุงเมือง แขวงวัดราชบพิตร เขตพระนคร",
    "lat": 13.751068,
    "lng": 100.5010391
  },
  {
    "mu_place": "วัดทุ่งเศรษฐี ราม2",
    "name": "สวนสาธารณะและสวนพฤกษชาติ ศรีนครเขื่อนขันธ์",
    "address": "73 ซอย วัดราษฎร์รังสรรค์ ตำบล บางกะเจ้า อำเภอพระประแดง",
    "lat": 13.6968366,
    "lng": 100.5649237
  },
  {
    "mu_place": "วัดทุ่งเศรษฐี ราม2",
    "name": "ล้ง 1919",
    "address": "248 ถนน เชียงใหม่ แขวงคลองสาน เขตคลองสาน",
    "lat": 13.7343611,
    "lng": 100.5076162
  },
  {
    "mu_place": "วัดทุ่งเศรษฐี ราม2",
    "name": "สวนลาดกระบัง (สวนพระนคร)",
    "address": "PQCJ+9F8 ถนน ลาดกระบัง เเขวง ลาดกระบัง เขตลาดกระบัง",
    "lat": 13.7209142,
    "lng": 100.7812019
  },
  {
    "mu_place": "วัดทุ่งเศรษฐี ราม2",
    "name": "อุทยานเบญจสิริ",
    "address": "ถ. สุขุมวิท แขวงคลองตัน เขตคลองเตย",
    "lat": 13.7313966,
    "lng": 100.56793
  },
  {
    "mu_place": "วัดเขาบันไดอิฐ",
    "name": "ถ้ำเขาหลวง",
    "address": "ตำบล ธงชัย อำเภอเมืองเพชรบุรี",
    "lat": 13.135207,
    "lng": 99.932894
  },
  {
    "mu_place": "วัดเขาบันไดอิฐ",
    "name": "อุทยานประวัติศาสตร์พระนครคีรี",
    "address": "97 ถนน คีรีรัถยา ตำบล คลองกระแซง อำเภอเมืองเพชรบุรี",
    "lat": 13.1091837,
    "lng": 99.9366336
  },
  {
    "mu_place": "วัดเขาบันไดอิฐ",
    "name": "หาดแหลมหลวง",
    "address": "23VV+HQH ตำบล แหลมผักเบี้ย อำเภอ บ้านแหลม",
    "lat": 13.0439428,
    "lng": 100.094488
  },
  {
    "mu_place": "วัดเขาบันไดอิฐ",
    "name": "สวนตาลลุงถนอม",
    "address": "2WC7+Q84 ตำบล ถ้ำรงค์ อำเภอบ้านลาด",
    "lat": 13.0218831,
    "lng": 99.9133178
  },
  {
    "mu_place": "วัดเขาบันไดอิฐ",
    "name": "เสาชิงช้า วัดพลิบพลี",
    "address": "4X23+5VP ตำบล ท่าราบ อำเภอเมืองเพชรบุรี",
    "lat": 13.1004643,
    "lng": 99.9546914
  },
  {
    "mu_place": "วัดเขาบันไดอิฐ",
    "name": "หอน้ำโบราณ พระรามราชนิเวศน์",
    "address": "3WQX+J6Q ตำบล คลองกระแซง อำเภอเมืองเพชรบุรี",
    "lat": 13.0890893,
    "lng": 99.94809719999999
  },
  {
    "mu_place": "วัดเขาบันไดอิฐ",
    "name": "ทุ่งทานตะวันนาพันสาม",
    "address": "323P+2VW, Unnamed Road, ตำบล นาพันสาม อำเภอเมืองเพชรบุรี",
    "lat": 13.052605,
    "lng": 100.037189
  },
  {
    "mu_place": "วัดเขาบันไดอิฐ",
    "name": "Art Of Salt",
    "address": "33V7+PF4 ตำบล บางแก้ว อำเภอ บ้านแหลม",
    "lat": 13.0942692,
    "lng": 100.0636942
  },
  {
    "mu_place": "วัดเขาบันไดอิฐ",
    "name": "ฟาร์มทะเลตัวอย่างในสมเด็จพระนางเจ้าสิริกิติ์ พระบรมราชินีนาถ จังหวัดเพชรบุรี",
    "address": "บางแก้ว ตำบล บางแก้ว อำเภอ บ้านแหลม",
    "lat": 13.117948,
    "lng": 100.0599352
  },
  {
    "mu_place": "วัดเขาบันไดอิฐ",
    "name": "ผาซ่อนรัก MK",
    "address": "XR9V+GHG Unnamed Road ตำบล ท่าแลง อำเภอท่ายาง",
    "lat": 12.9688239,
    "lng": 99.8439401
  },
  {
    "mu_place": "วัดเขาบันไดอิฐ",
    "name": "ทุ่งบัวแดงหัวตะเข้",
    "address": "5XGH+PQJ ตำบล บ้านแหลม อำเภอ บ้านแหลม",
    "lat": 13.1768354,
    "lng": 99.9794057
  },
  {
    "mu_place": "วัดเขาบันไดอิฐ",
    "name": "ฟาร์มทะเลตัวอย่างฯ",
    "address": "บางแก้ว, ตำบล บางแก้ว อำเภอ บ้านแหลม",
    "lat": 13.1173688,
    "lng": 100.0597714
  },
  {
    "mu_place": "วัดเขาบันไดอิฐ",
    "name": "อุทยานปลาวัดท่าคอย",
    "address": "XVFJ+GXH ซอย ท่าคอย 4 ตำบล ท่าคอย อำเภอท่ายาง",
    "lat": 12.9738002,
    "lng": 99.88249619999999
  },
  {
    "mu_place": "วัดเขาบันไดอิฐ",
    "name": "Street Art Wat Kaen Lek Community (ชุมชนวัดแก่นเหล็ก)",
    "address": "4W4W+PV3 ตำบล คลองกระแซง อำเภอเมืองเพชรบุรี",
    "lat": 13.106757,
    "lng": 99.9471638
  },
  {
    "mu_place": "วัดเขาบันไดอิฐ",
    "name": "ทางขึ้น อุทยานประวัติศาสตร์เขาพระนครคีรี",
    "address": "4W5M+HWP Unnamed Road ตำบล คลองกระแซง อำเภอเมืองเพชรบุรี",
    "lat": 13.1089548,
    "lng": 99.93481799999999
  },
  {
    "mu_place": "วัดเขาบันไดอิฐ",
    "name": "จุดเล่นน้ำคอละออม",
    "address": "WVG5+GQH ตำบล ท่าคอย อำเภอท่ายาง",
    "lat": 12.9263099,
    "lng": 99.8594936
  },
  {
    "mu_place": "วัดเขาบันไดอิฐ",
    "name": "หลงเล@แหลมผักเบี้ย",
    "address": "บ้านปากคลองบางทะลุ ตำบล แหลมผักเบี้ย อำเภอ บ้านแหลม",
    "lat": 13.0280764,
    "lng": 100.051063
  },
  {
    "mu_place": "วัดเขาบันไดอิฐ",
    "name": "จุดชมวิว โรงตากเกลือ บางขุนไทร",
    "address": "52J3+7X ตำบล บางขุนไทร อำเภอ บ้านแหลม",
    "lat": 13.1807,
    "lng": 100.005
  },
  {
    "mu_place": "วัดเขาบันไดอิฐ",
    "name": "Khao Luang Cave Phetchaburi",
    "address": "4WPM+48F ตำบล ธงชัย อำเภอเมืองเพชรบุรี",
    "lat": 13.135691,
    "lng": 99.9333386
  },
  {
    "mu_place": "วัดเขาบันไดอิฐ",
    "name": "สวนเต่ายายยาย",
    "address": "2W9C+QMC ตำบล ไร่มะขาม อำเภอบ้านลาด",
    "lat": 13.0192837,
    "lng": 99.92192349999999
  },
  {
    "mu_place": "วัดป่าสว่างธรรม",
    "name": "บ้านควาย อุดรธานี",
    "address": "C58M+3P4 2096 ตำบล หนองเม็ก อำเภอหนองหาน",
    "lat": 17.4151422,
    "lng": 103.1843376
  },
  {
    "mu_place": "วัดป่าสว่างธรรม",
    "name": "วัดสระมณี",
    "address": "829G+F22 บ้าน ผัก ต บ, ตำบล ผักตบ อำเภอหนองหาน",
    "lat": 17.3187132,
    "lng": 103.0250065
  },
  {
    "mu_place": "วัดป่าสว่างธรรม",
    "name": "วัดป่านาคำมูล",
    "address": "2255 ตำบล นาข่า อำเภอเมืองอุดรธานี",
    "lat": 17.5556298,
    "lng": 102.8957408
  },
  {
    "mu_place": "วัดศรีดอนมูล",
    "name": "สวนองุ่นเวียงด้ง",
    "address": "PW83+RG2 ตำบล น้ำแพร่ อำเภอหางดง",
    "lat": 18.7170112,
    "lng": 98.9037702
  },
  {
    "mu_place": "วัดศรีดอนมูล",
    "name": "วังบัวบาน",
    "address": "99 ถ. ห้วยแก้ว ตำบลช้างเผือก อำเภอเมืองเชียงใหม่",
    "lat": 18.8122544,
    "lng": 98.94164119999999
  },
  {
    "mu_place": "วัดศรีดอนมูล",
    "name": "ลานทรายฝายหินบ้านทุ่งขี้เสือ",
    "address": "P32G+PPR Unnamed Road ตำบล ชมภู อำเภอ สารภี",
    "lat": 18.7018719,
    "lng": 99.0767529
  },
  {
    "mu_place": "วัดศรีดอนมูล",
    "name": "หมู่บ้านหัตถกรรมเพื่อการท่องเที่ยว(หมู่บ้านโอท๊อป)ต้นแบบ",
    "address": "2/4 บ้านแม่โฮม ซอย 3 ตำบลต้นเปา อำเภอสันกำแพง",
    "lat": 18.7709632,
    "lng": 99.0749744
  },
  {
    "mu_place": "วัดศรีดอนมูล",
    "name": "สถานที่ท่องเที่ยว",
    "address": "104/1 ถ. ช้างคลาน ตำบล ช้างม่อย อำเภอเมืองเชียงใหม่",
    "lat": 18.785275,
    "lng": 99.00027039999999
  },
  {
    "mu_place": "วัดศรีดอนมูล",
    "name": "จุดชมวิวม่อนผาดำ",
    "address": "RV3W+6GQ ตำบลสุเทพ อำเภอเมืองเชียงใหม่",
    "lat": 18.8030837,
    "lng": 98.8963488
  },
  {
    "mu_place": "วัดศรีดอนมูล",
    "name": "Chinese Welcome Gate",
    "address": "QXRX+6HQ ถนน ช้างม่อย ตำบล ช้างม่อย อำเภอเมืองเชียงใหม่",
    "lat": 18.7905897,
    "lng": 98.9989712
  },
  {
    "mu_place": "วัดศรีดอนมูล",
    "name": "บ้านชาวนา เชียงใหม่",
    "address": "111/2 M.7 Sanpheesua rd., Sanpheesua Muang",
    "lat": 18.830788,
    "lng": 98.99618799999999
  },
  {
    "mu_place": "วัดศรีดอนมูล",
    "name": "กลุ่มท่องเที่ยวเชิงอนุรักษ์บ้านปง-ห้วยลาน",
    "address": "บ้านเลขที่ 1 ตำบล ออนใต้ อำเภอสันกำแพง",
    "lat": 18.7191368,
    "lng": 99.20142330000002
  },
  {
    "mu_place": "วัดศรีดอนมูล",
    "name": "หอคำหลวง",
    "address": "QW3C+5X6 อำเภอเมืองเชียงใหม่",
    "lat": 18.7529143,
    "lng": 98.922388
  },
  {
    "mu_place": "วัดศรีดอนมูล",
    "name": "แหล่งท่องเที่ยวเชิงเกษตรบ้านห้วยม่วง",
    "address": "106/1 ซอย หมู่บ้านเอ็ม.เอส. วิลเลจ 4 ตำบล ห้วยม่วง อำเภอกำแพงแสน",
    "lat": 18.727681,
    "lng": 99.0286967
  },
  {
    "mu_place": "วัดศรีดอนมูล",
    "name": "จุดชมวิว",
    "address": "QWVM+32F ถนน ศรีวิชัย ตำบลสุเทพ อำเภอเมืองเชียงใหม่",
    "lat": 18.7926941,
    "lng": 98.9325422
  },
  {
    "mu_place": "วัดศรีดอนมูล",
    "name": "ศูนย์บริการนักท่องเที่ยว",
    "address": "QW9R+58P ตำบลสุเทพ อำเภอเมืองเชียงใหม่",
    "lat": 18.767956,
    "lng": 98.94081489999999
  },
  {
    "mu_place": "วัดศรีดอนมูล",
    "name": "Ratchawang-inn/ราชวังอินทร์",
    "address": "21/3 หมู่ 2 บ้าน สัน ต้น ม่วง เหนือ ตำบล สำราญ รา ษ ฏ ร์, อำเภอดอยสะเก็ด",
    "lat": 18.8163382,
    "lng": 99.0973484
  },
  {
    "mu_place": "วัดศรีดอนมูล",
    "name": "คิงคองฟางยักษ์",
    "address": "VWFP+2QG Unnamed Rd ตำบล ดอนแก้ว อำเภอแม่ริม",
    "lat": 18.8725565,
    "lng": 98.9369474
  },
  {
    "mu_place": "วัดศรีดอนมูล",
    "name": "ชุมชนออนใต้ หมู่บ้าน CIV จ.เชียงใหม่",
    "address": "ชุมชนออนใต้ ตำบล ออนใต้ อำเภอสันกำแพง",
    "lat": 18.7370903,
    "lng": 99.2145336
  },
  {
    "mu_place": "วัดศรีดอนมูล",
    "name": "De'Kashor Elephant Home & Hilltribe village",
    "address": "330 12 ซอย หมู่บ้านเชียงใหม่แลนด์ ตำบลช้างคลาน เมือง",
    "lat": 18.7673497,
    "lng": 98.9969864
  },
  {
    "mu_place": "วัดศรีดอนมูล",
    "name": "Don Kaeo",
    "address": "VWC8+8RV ตำบล ดอนแก้ว อำเภอแม่ริม",
    "lat": 18.8708714,
    "lng": 98.91703439999999
  },
  {
    "mu_place": "วัดศรีดอนมูล",
    "name": "ฝายมังกาละโป่ (น้ำแม่คาว)",
    "address": "Q2CW+VVH ซอย ศรีบัวเงิน 1 ตำบล ท่าศาลา อำเภอเมืองเชียงใหม่",
    "lat": 18.772196,
    "lng": 99.0472365
  },
  {
    "mu_place": "วัดศรีดอนมูล",
    "name": "เวียงกุมกาม",
    "address": "149 หมู่ที่ 2 ถนน สมโภชเชียงใหม่ 700 ปี ตำบลท่าวังตาล อำเภอ สารภี",
    "lat": 18.7446684,
    "lng": 98.9943528
  },
  {
    "mu_place": "วัดพระธาตุดอยสะเก็ด",
    "name": "สถานที่ท่องเที่ยว",
    "address": "104/1 ถ. ช้างคลาน ตำบล ช้างม่อย อำเภอเมืองเชียงใหม่",
    "lat": 18.785275,
    "lng": 99.00027039999999
  },
  {
    "mu_place": "วัดพระธาตุดอยสะเก็ด",
    "name": "สวนลุงวิท",
    "address": "W2C2+PH3 ตำบลหนองหาร อำเภอสันทราย",
    "lat": 18.9217696,
    "lng": 99.0014066
  },
  {
    "mu_place": "วัดพระธาตุดอยสะเก็ด",
    "name": "ลานทรายฝายหินบ้านทุ่งขี้เสือ",
    "address": "P32G+PPR Unnamed Road ตำบล ชมภู อำเภอ สารภี",
    "lat": 18.7018719,
    "lng": 99.0767529
  },
  {
    "mu_place": "วัดพระธาตุดอยสะเก็ด",
    "name": "หมู่บ้านหัตถกรรมเพื่อการท่องเที่ยว(หมู่บ้านโอท๊อป)ต้นแบบ",
    "address": "2/4 บ้านแม่โฮม ซอย 3 ตำบลต้นเปา อำเภอสันกำแพง",
    "lat": 18.7709632,
    "lng": 99.0749744
  },
  {
    "mu_place": "วัดพระธาตุดอยสะเก็ด",
    "name": "ท่าจะฮักสบแฝก ท่องเที่ยวและผลิตภัณฑ์ชุมชนเชียงใหม่",
    "address": "หมู่ที่ 2 191 ตำบล แม่แฝกใหม่ อำเภอสันทราย",
    "lat": 18.9949027,
    "lng": 98.9664406
  },
  {
    "mu_place": "วัดพระธาตุดอยสะเก็ด",
    "name": "เวียงกุมกาม",
    "address": "149 หมู่ที่ 2 ถนน สมโภชเชียงใหม่ 700 ปี ตำบลท่าวังตาล อำเภอ สารภี",
    "lat": 18.7446684,
    "lng": 98.9943528
  },
  {
    "mu_place": "วัดพระธาตุดอยสะเก็ด",
    "name": "Elephant Parade Holiday Inn",
    "address": "318/1 ถ. เชียงใหม่-ลำพูน T. Wat Kate, A. Muang",
    "lat": 18.766163,
    "lng": 99.00466580000001
  },
  {
    "mu_place": "วัดพระธาตุดอยสะเก็ด",
    "name": "Northern Star Tours",
    "address": "QXPM+7CJ ตำบล พระสิงห์ อำเภอเมืองเชียงใหม่",
    "lat": 18.7857053,
    "lng": 98.98352949999999
  },
  {
    "mu_place": "วัดพระธาตุดอยสะเก็ด",
    "name": "น้ำพุร้อนดอยสะเก็ด",
    "address": "W65W+W7J ชม.3005 ตำบล ป่าเมี่ยง อำเภอดอยสะเก็ด",
    "lat": 18.9098428,
    "lng": 99.2456445
  },
  {
    "mu_place": "วัดพระธาตุดอยสะเก็ด",
    "name": "วัดเจดีย์หลวงวรวิหาร เชียงใหม่",
    "address": "103 ถ. พระปกเกล้า ตำบลศรีภูมิ อำเภอเมืองเชียงใหม่",
    "lat": 18.7869693,
    "lng": 98.9865804
  },
  {
    "mu_place": "วัดพระธาตุดอยสะเก็ด",
    "name": "Chinese Welcome Gate",
    "address": "QXRX+6HQ ถนน ช้างม่อย ตำบล ช้างม่อย อำเภอเมืองเชียงใหม่",
    "lat": 18.7905897,
    "lng": 98.9989712
  },
  {
    "mu_place": "วัดพระธาตุดอยสะเก็ด",
    "name": "บ้านชาวนา เชียงใหม่",
    "address": "111/2 M.7 Sanpheesua rd., Sanpheesua Muang",
    "lat": 18.830788,
    "lng": 98.99618799999999
  },
  {
    "mu_place": "วัดพระธาตุดอยสะเก็ด",
    "name": "แหล่งท่องเที่ยวเชิงเกษตรบ้านห้วยม่วง",
    "address": "106/1 ซอย หมู่บ้านเอ็ม.เอส. วิลเลจ 4 ตำบล ห้วยม่วง อำเภอกำแพงแสน",
    "lat": 18.727681,
    "lng": 99.0286967
  },
  {
    "mu_place": "วัดพระธาตุดอยสะเก็ด",
    "name": "สามแยกเจ็ดยอด",
    "address": "RX5C+2V6 ตำบลช้างเผือก อำเภอเมืองเชียงใหม่",
    "lat": 18.8075361,
    "lng": 98.9721462
  },
  {
    "mu_place": "วัดพระธาตุดอยสะเก็ด",
    "name": "Lanna​ Mini​ Zoo",
    "address": "320 ตำบล แม่แฝก อำเภอสันทราย",
    "lat": 19.0501535,
    "lng": 98.97567649999999
  },
  {
    "mu_place": "วัดพระธาตุดอยสะเก็ด",
    "name": "วัดสวนดอก พระอารามหลวง",
    "address": "139 ถนน สุเทพ ตำบลสุเทพ อำเภอเมืองเชียงใหม่",
    "lat": 18.7882603,
    "lng": 98.96776489999999
  },
  {
    "mu_place": "วัดพระธาตุดอยสะเก็ด",
    "name": "Night Bazaar Shopping Street",
    "address": "Q2P2+C7M ถ. ช้างคลาน ตำบล ช้างม่อย อำเภอเมืองเชียงใหม่",
    "lat": 18.786084,
    "lng": 99.0006808
  },
  {
    "mu_place": "วัดพระธาตุดอยสะเก็ด",
    "name": "Chic",
    "address": "QX9G+P73 ตำบลป่าแดด อำเภอเมืองเชียงใหม่",
    "lat": 18.7692638,
    "lng": 98.9756637
  },
  {
    "mu_place": "วัดพระธาตุดอยสะเก็ด",
    "name": "หมู่บ้านลึกลับ เมืองไดโนเสาร์ เชียงใหม่",
    "address": "77/19 ตำบล สันผีเสื้อ อำเภอเมืองเชียงใหม่",
    "lat": 18.8330873,
    "lng": 98.9975895
  },
  {
    "mu_place": "วัดพระธาตุดอยสะเก็ด",
    "name": "De'Kashor Elephant Home & Hilltribe village",
    "address": "330 12 ซอย หมู่บ้านเชียงใหม่แลนด์ ตำบลช้างคลาน เมือง",
    "lat": 18.7673497,
    "lng": 98.9969864
  },
  {
    "mu_place": "วัดธาตุมหาชัย หลวงปู่คำพันธ์",
    "name": "สวนอาหาร & คาเฟ่ บ่อตกปลาวังตามัวฟิชชิ่ง",
    "address": "196 ตำบล วังตามัว อำเภอเมือง",
    "lat": 17.3137404,
    "lng": 104.4839765
  },
  {
    "mu_place": "วัดธาตุมหาชัย หลวงปู่คำพันธ์",
    "name": "แหล่งท่องเที่ยวมณฑลทหารบกที่ 210",
    "address": "ค่ายพระยอดเมืองขวาง ตำบล กุรุคุ เมือง",
    "lat": 17.3332868,
    "lng": 104.5798061
  },
  {
    "mu_place": "วัดธาตุมหาชัย หลวงปู่คำพันธ์",
    "name": "ถนนแลนด์มาร์คบ้านโพนจาน",
    "address": "CCGF+JG8 นพ.2041 ตำบล โพนจาน อำเภอ โพนสวรรค์",
    "lat": 17.4265347,
    "lng": 104.4238351
  },
  {
    "mu_place": "วัดเขาตาเงาะอุดมพร(หลวงปู่จื่อ)",
    "name": "สะพานไม้ ทุ่งบัวแดง บึงละหาน (บ้านมะเกลือ) อ.จัตุรัส",
    "address": "ตำบล บ้านกอก อำเภอจัตุรัส",
    "lat": 15.6359862,
    "lng": 101.8736736
  },
  {
    "mu_place": "วัดเขาตาเงาะอุดมพร(หลวงปู่จื่อ)",
    "name": "ทุ่งบัวแดง ดอนละนาม ชัยภูมิ",
    "address": "JWP9+5MX ตำบล ละหาน อำเภอจัตุรัส",
    "lat": 15.635497,
    "lng": 101.919237
  },
  {
    "mu_place": "วัดเขาตาเงาะอุดมพร(หลวงปู่จื่อ)",
    "name": "น้ำตกตาดร้อยรู",
    "address": "บ้านตาดพัฒนา ต.ตลาดแร้ง อำเภอ บ้านเขว้า",
    "lat": 15.8646439,
    "lng": 101.8271437
  },
  {
    "mu_place": "วัดเขาตาเงาะอุดมพร(หลวงปู่จื่อ)",
    "name": "เกาะโนนงิ้ว",
    "address": "หมู่ที่8 บ้านน้อยเกตุจำปา ตำบล หนองบัวใหญ่ อำเภอจัตุรัส",
    "lat": 15.6053621,
    "lng": 101.8887242
  },
  {
    "mu_place": "วัดเขาตาเงาะอุดมพร(หลวงปู่จื่อ)",
    "name": "Pink Lotus Lahan Paddle Boarding",
    "address": "ทุ่งบัวแดง บ้านดอนละนาม, ตำบล ละหาน อำเภอจัตุรัส",
    "lat": 15.6353611,
    "lng": 101.9192142
  },
  {
    "mu_place": "วัดเขาตาเงาะอุดมพร(หลวงปู่จื่อ)",
    "name": "บ้านละหาน บึงละหาน",
    "address": "JV8Q+89H ตำบล หนองบัวใหญ่ อำเภอจัตุรัส",
    "lat": 15.6158219,
    "lng": 101.888477
  },
  {
    "mu_place": "วัดเขาตาเงาะอุดมพร(หลวงปู่จื่อ)",
    "name": "ฝายน้ำล้น",
    "address": "MVCV+2GC ตำบล หนองบัวบาน อำเภอจัตุรัส",
    "lat": 15.6700602,
    "lng": 101.8937553
  },
  {
    "mu_place": "ศาลปู่อือลือนาคราช",
    "name": "น้ำตกตาดกินรี",
    "address": "หมู่ที่ 5 105 ตำบล โพธิ์หมากแข้ง อำเภอ บึงโขงหลง",
    "lat": 17.9456942,
    "lng": 104.1301892
  },
  {
    "mu_place": "ศาลปู่อือลือนาคราช",
    "name": "ถ้ำนาคี นครพนม(Nakee Cave)",
    "address": "X4MG+XW5 ตำบล ไผ่ล้อม อำเภอ บ้านแพง",
    "lat": 17.984897,
    "lng": 104.127357
  },
  {
    "mu_place": "ศาลปู่อือลือนาคราช",
    "name": "ถึงแล้วภูลังกา ชุมชนท่องเที่ยว OTOP นวัตวิถี บ้านดงสว่าง",
    "address": "X32R+GHP บก.4017 ตำบล โพธิ์หมากแข้ง อำเภอ บึงโขงหลง",
    "lat": 17.951337,
    "lng": 104.0914581
  },
  {
    "mu_place": "ศาลปู่อือลือนาคราช",
    "name": "วังนาคิน น้ำตกกินรี",
    "address": "W4VH+VXV ตำบล โพธิ์หมากแข้ง อำเภอ บึงโขงหลง",
    "lat": 17.9447228,
    "lng": 104.1299351
  },
  {
    "mu_place": "ศาลปู่อือลือนาคราช",
    "name": "จุดขึ้นชมถ้ำนาคา จุดที่ 2 บึงกาฬ",
    "address": "W4V4+WFF ตำบล โพธิ์หมากแข้ง อำเภอ บึงโขงหลง",
    "lat": 17.944823,
    "lng": 104.106171
  },
  {
    "mu_place": "ศาลปู่อือลือนาคราช",
    "name": "เจดีย์พระธาตุน้อยฐานหินลายเกล็ด",
    "address": "X4F7+F6C ตำบล โพธิ์หมากแข้ง อำเภอ บึงโขงหลง",
    "lat": 17.9736938,
    "lng": 104.1130017
  },
  {
    "mu_place": "ศาลปู่อือลือนาคราช",
    "name": "ทางขึ้นสักการะหลวงพ่อพระขาว",
    "address": "W3WV+9V5 ตำบล โพธิ์หมากแข้ง อำเภอ บึงโขงหลง",
    "lat": 17.9458898,
    "lng": 104.0947274
  },
  {
    "mu_place": "ศาลปู่อือลือนาคราช",
    "name": "ถ้ำกินรีนาคา",
    "address": "W4VH+VXV ตำบล โพธิ์หมากแข้ง อำเภอ บึงโขงหลง",
    "lat": 17.9447499,
    "lng": 104.1299169
  },
  {
    "mu_place": "ศาลปู่อือลือนาคราช",
    "name": "หินรถบัส ภูลังกา",
    "address": "X4J6+7WF ตำบล โพธิ์หมากแข้ง อำเภอ บึงโขงหลง",
    "lat": 17.9806912,
    "lng": 104.1122845
  },
  {
    "mu_place": "ศาลปู่อือลือนาคราช",
    "name": "Tham Phra Waterfall น้ำตกถ้ำพระ",
    "address": "4XRR+2Q ตำบล โสกก่าม อำเภอ เซกา",
    "lat": 18.1400615,
    "lng": 103.991967
  },
  {
    "mu_place": "ศาลปู่อือลือนาคราช",
    "name": "จุดขึ้นชมถ้ำนาคาและน้ำตกตาดวิมานทิพย์ บึงกาฬ",
    "address": "W3RW+P5R Unnamed Road ตำบล โพธิ์หมากแข้ง อำเภอ บึงโขงหลง",
    "lat": 17.9418611,
    "lng": 104.0953889
  },
  {
    "mu_place": "ศาลปู่อือลือนาคราช",
    "name": "Maher Mekong Sanctuary",
    "address": "255V+V56 ตำบล บ้านแพง อำเภอ บ้านแพง",
    "lat": 18.0096875,
    "lng": 104.1929375
  },
  {
    "mu_place": "ศาลปู่อือลือนาคราช",
    "name": "Maher Mekong Sanctuary",
    "address": "254v+jjx ต, ตำบล บ้านแพง อำเภอ บ้านแพง",
    "lat": 18.0065625,
    "lng": 104.1940625
  },
  {
    "mu_place": "ศาลปู่อือลือนาคราช",
    "name": "เนินสนามบิน",
    "address": "X427+PXC ตำบล โพธิ์หมากแข้ง อำเภอ บึงโขงหลง",
    "lat": 17.9518129,
    "lng": 104.114895
  },
  {
    "mu_place": "ศาลปู่อือลือนาคราช",
    "name": "หินนาคา(กินรี)จุดที่4",
    "address": "W4VG+M3H ที่ตัังหินนาคา(กินรี) Unnamed Road ตำบล โพธิ์หมากแข้ง อำเภอ บึงโขงหลง",
    "lat": 17.944188,
    "lng": 104.125221
  },
  {
    "mu_place": "ศาลปู่อือลือนาคราช",
    "name": "สวนสยามอินทผลัม",
    "address": "บ้านโนนสูง ตำบล เซกา อำเภอ เซกา",
    "lat": 17.9878504,
    "lng": 103.9625958
  },
  {
    "mu_place": "ศาลปู่อือลือนาคราช",
    "name": "กระถินทุ่ง@บึงโขงหลง",
    "address": "W2HP+FHV ตำบล โพธิ์หมากแข้ง อำเภอ บึงโขงหลง",
    "lat": 17.9287322,
    "lng": 104.036434
  },
  {
    "mu_place": "ศาลปู่อือลือนาคราช",
    "name": "38ภูลังกาฟาร์ม",
    "address": "X3XQ+PR6 2026 ตำบล บึงโขงหลง อำเภอ บึงโขงหลง",
    "lat": 17.9992895,
    "lng": 104.0895162
  },
  {
    "mu_place": "ศาลปู่อือลือนาคราช",
    "name": "ถนนต้นยาง",
    "address": "2482+693 บก.4015 ตำบล ดงบัง อำเภอ บึงโขงหลง",
    "lat": 18.0155012,
    "lng": 104.1009191
  },
  {
    "mu_place": "วัดปากคลองมะขามเฒ่า - หลวงปู่ศุข",
    "name": "เขาสะแกกรัง อุทัยธานี",
    "address": "92J8+5F5 ตำบล อุทัยใหม่ อำเภอเมืองอุทัยธานี",
    "lat": 15.3803981,
    "lng": 100.0162499
  },
  {
    "mu_place": "วัดปากคลองมะขามเฒ่า - หลวงปู่ศุข",
    "name": "นวัตวิถี",
    "address": "555W+JHQ ตำบล บางหลวง อำเภอสรรพยา",
    "lat": 15.1590912,
    "lng": 100.1964871
  },
  {
    "mu_place": "วัดปากคลองมะขามเฒ่า - หลวงปู่ศุข",
    "name": "ทุ่งนา ป่าตาล",
    "address": "72R7+W5G ตำบล หนองบัว อำเภอ วัดสิงห์",
    "lat": 15.2923053,
    "lng": 100.0129384
  },
  {
    "mu_place": "วัดปากคลองมะขามเฒ่า - หลวงปู่ศุข",
    "name": "ชุมชนท่องเที่ยว OTOP นวัตวิถี หนองไผ่แบน",
    "address": "2 5 ตำบล หนองไผ่แบน อำเภอเมืองอุทัยธานี",
    "lat": 15.4252583,
    "lng": 100.0249175
  },
  {
    "mu_place": "วัดปากคลองมะขามเฒ่า - หลวงปู่ศุข",
    "name": "บ้านจงรัก",
    "address": "ศรีอุทัย ตำบล อุทัยใหม่ อำเภอเมืองอุทัยธานี",
    "lat": 15.3801654,
    "lng": 100.0313017
  },
  {
    "mu_place": "วัดปากคลองมะขามเฒ่า - หลวงปู่ศุข",
    "name": "หมุดโลก (หมุดที่ 2 ของเอเชีย)",
    "address": "เขาสะแกกรัง อุทัยธานี ตำบล อุทัยใหม่ อำเภอเมืองอุทัยธานี",
    "lat": 15.3837869,
    "lng": 100.0132147
  },
  {
    "mu_place": "วัดปากคลองมะขามเฒ่า - หลวงปู่ศุข",
    "name": "เขื่อนเรียงหิน",
    "address": "297 ถนน ชัยณรงค์ ตำบล ในเมือง อำเภอเมืองชัยนาท",
    "lat": 15.1839063,
    "lng": 100.1231321
  },
  {
    "mu_place": "วัดปากคลองมะขามเฒ่า - หลวงปู่ศุข",
    "name": "บ้านหาดมะตูม",
    "address": "937M+C5H Unnamed Road ตำบล ศิลาดาน อำเภอมโนรมย์",
    "lat": 15.3635678,
    "lng": 100.0829859
  },
  {
    "mu_place": "วัดปากคลองมะขามเฒ่า - หลวงปู่ศุข",
    "name": "สวนนกชัยนาท",
    "address": "6542+QQ6 ตำบล เขาท่าพระ อำเภอเมืองชัยนาท",
    "lat": 15.2069213,
    "lng": 100.1519043
  },
  {
    "mu_place": "วัดปากคลองมะขามเฒ่า - หลวงปู่ศุข",
    "name": "พิพิธภัณฑสถานแห่งชาติ ชัยนาทมุนี",
    "address": "5562+3V3 ตำบล ชัยนาท อำเภอเมืองชัยนาท",
    "lat": 15.1601357,
    "lng": 100.1521674
  },
  {
    "mu_place": "วัดปากคลองมะขามเฒ่า - หลวงปู่ศุข",
    "name": "พิพิธภัณฑ์ไข่นก",
    "address": "6542+QC6 ตำบล เขาท่าพระ อำเภอเมืองชัยนาท",
    "lat": 15.2069068,
    "lng": 100.1510165
  },
  {
    "mu_place": "วัดปากคลองมะขามเฒ่า - หลวงปู่ศุข",
    "name": "ชุมชนท่องเที่ยว OTOP นวัตวิถี บ้านท่าหาด",
    "address": "738J+9J3 3244 ตำบล ธรรมามูล อำเภอเมืองชัยนาท",
    "lat": 15.265881,
    "lng": 100.081558
  },
  {
    "mu_place": "วัดปากคลองมะขามเฒ่า - หลวงปู่ศุข",
    "name": "ลำน้ำสะแกกรัง at อำเภอเมืองอุทัยธานี",
    "address": "228 ซอย ตั้งใจงาม ตำบล น้ำซึม อำเภอเมืองอุทัยธานี",
    "lat": 15.3267712,
    "lng": 100.0731838
  },
  {
    "mu_place": "วัดปากคลองมะขามเฒ่า - หลวงปู่ศุข",
    "name": "สำเภาทอง",
    "address": "835J+7R9 ตำบล คุ้งสำเภา อำเภอมโนรมย์",
    "lat": 15.3081677,
    "lng": 100.0821318
  },
  {
    "mu_place": "วัดปากคลองมะขามเฒ่า - หลวงปู่ศุข",
    "name": "วัดสังกัสรัตนคีรี",
    "address": "92G9+23W ตำบล น้ำซึม อำเภอเมืองอุทัยธานี",
    "lat": 15.3751087,
    "lng": 100.0177104
  },
  {
    "mu_place": "วัดปากคลองมะขามเฒ่า - หลวงปู่ศุข",
    "name": "พิพิธภัณฑ์ประวัติศาสตร์และวัฒนธรรมพื้นเมือง",
    "address": "92FP+VJX ตำบล อุทัยใหม่ อำเภอเมืองอุทัยธานี",
    "lat": 15.3747366,
    "lng": 100.0366199
  },
  {
    "mu_place": "วัดปากคลองมะขามเฒ่า - หลวงปู่ศุข",
    "name": "เมืองโบราณอู่ตะเภา",
    "address": "75MR+9VX ตำบล อู่ตะเภา อำเภอมโนรมย์",
    "lat": 15.2834843,
    "lng": 100.1922303
  },
  {
    "mu_place": "วัดปากคลองมะขามเฒ่า - หลวงปู่ศุข",
    "name": "วัดธรรมามูลวรวิหาร",
    "address": "ตำบล ธรรมามูล อำเภอเมืองชัยนาท",
    "lat": 15.2485793,
    "lng": 100.0836056
  },
  {
    "mu_place": "หลวงปู่ทิม พระเกจิแห่งดินแดนบูรพา วัดละหารไร่",
    "name": "จุดชมวิว วัดเขาโบสถ์",
    "address": "P6RJ+9FC, Unnamed Rd,, ตำบลทับมา อำเภอเมืองระยอง",
    "lat": 12.7409375,
    "lng": 101.2311326
  },
  {
    "mu_place": "หลวงปู่ทิม พระเกจิแห่งดินแดนบูรพา วัดละหารไร่",
    "name": "ทุ่งทานตะวัน อ่างเก็บน้ำดอกกราย",
    "address": "V6XC+8FC ตำบล แม่น้ำคู้ อำเภอปลวกแดง",
    "lat": 12.8983113,
    "lng": 101.2211532
  },
  {
    "mu_place": "หลวงปู่ทิม พระเกจิแห่งดินแดนบูรพา วัดละหารไร่",
    "name": "น้ำเนินไทร",
    "address": "บ้านหนองกรับ หนองบัว อำเภอบ้านค่าย",
    "lat": 12.8981558,
    "lng": 101.297383
  },
  {
    "mu_place": "หลวงปู่ทิม พระเกจิแห่งดินแดนบูรพา วัดละหารไร่",
    "name": "เขางวงช้าง",
    "address": "เขางวงช้าง ตำบล บางบุตร อำเภอบ้านค่าย",
    "lat": 12.811949,
    "lng": 101.400714
  },
  {
    "mu_place": "หลวงปู่ทิม พระเกจิแห่งดินแดนบูรพา วัดละหารไร่",
    "name": "คลองหินลอย ปลวกแดง",
    "address": "X5FR+CVH ตำบล มาบยางพร อำเภอปลวกแดง",
    "lat": 12.973562,
    "lng": 101.192232
  },
  {
    "mu_place": "หลวงปู่ทิม พระเกจิแห่งดินแดนบูรพา วัดละหารไร่",
    "name": "ทุ่งทานตะวัน บ้านค่าย ระยอง",
    "address": "V9F6+9PJ ตำบล หนองบัว อำเภอบ้านค่าย",
    "lat": 12.8734562,
    "lng": 101.361772
  },
  {
    "mu_place": "หลวงปู่ทิม พระเกจิแห่งดินแดนบูรพา วัดละหารไร่",
    "name": "ทุ่งคอสมอสบ้านน้านี",
    "address": "29 หมู่7 ตำบล ชากบก อำเภอบ้านค่าย",
    "lat": 12.7830573,
    "lng": 101.3511051
  },
  {
    "mu_place": "หลวงปู่ทิม พระเกจิแห่งดินแดนบูรพา วัดละหารไร่",
    "name": "สวนช่อฟ้า",
    "address": "MCVV+JWW ตำบล สำนักทอง อำเภอเมืองระยอง",
    "lat": 12.6941181,
    "lng": 101.4448199
  },
  {
    "mu_place": "หลวงปู่ทิม พระเกจิแห่งดินแดนบูรพา วัดละหารไร่",
    "name": "วงเวียนปี่",
    "address": "M7P8+QVH ตำบลเชิงเนิน อำเภอเมืองระยอง",
    "lat": 12.6869292,
    "lng": 101.2672491
  },
  {
    "mu_place": "หลวงปู่ทิม พระเกจิแห่งดินแดนบูรพา วัดละหารไร่",
    "name": "ไร่น้ำเนินไทรแคมป์ปิ้ง",
    "address": "0 ตำบล หนองบัว อำเภอบ้านค่าย",
    "lat": 12.8984793,
    "lng": 101.2975121
  },
  {
    "mu_place": "หลวงปู่ทิม พระเกจิแห่งดินแดนบูรพา วัดละหารไร่",
    "name": "พระมหาเจดีย์ศรีธรรมสถิตย์",
    "address": "60 ถนน สุขุมวิท ตำบล สำนักทอง อำเภอเมืองระยอง",
    "lat": 12.7045661,
    "lng": 101.4403602
  },
  {
    "mu_place": "หลวงปู่ทิม พระเกจิแห่งดินแดนบูรพา วัดละหารไร่",
    "name": "สนามสเกลริมคลองบ้านดอนระยอง",
    "address": "83/2 อำเภอเมืองระยอง",
    "lat": 12.6987151,
    "lng": 101.3030159
  },
  {
    "mu_place": "หลวงปู่ทิม พระเกจิแห่งดินแดนบูรพา วัดละหารไร่",
    "name": "ตลาดน้ำเกาะกลอย",
    "address": "65/3 เมือง",
    "lat": 12.6967082,
    "lng": 101.266448
  },
  {
    "mu_place": "หลวงปู่ทิม พระเกจิแห่งดินแดนบูรพา วัดละหารไร่",
    "name": "สวนละไม",
    "address": "XCVM+HXR ตำบล ป่ายุบใน อำเภอวังจันทร์",
    "lat": 12.995535,
    "lng": 101.436284
  },
  {
    "mu_place": "หลวงปู่ทิม พระเกจิแห่งดินแดนบูรพา วัดละหารไร่",
    "name": "ร่มไผ่&ไทรย้อย",
    "address": "บ้านคลองนอก ตำบล แม่น้ำคู้ อำเภอปลวกแดง",
    "lat": 12.8988755,
    "lng": 101.2963801
  },
  {
    "mu_place": "หลวงปู่ทิม พระเกจิแห่งดินแดนบูรพา วัดละหารไร่",
    "name": "วัดน้ำตกธรรมรส",
    "address": "2C3J+P39 ตำบล ป่ายุบใน อำเภอวังจันทร์",
    "lat": 13.0042773,
    "lng": 101.4302306
  },
  {
    "mu_place": "หลวงปู่ทิม พระเกจิแห่งดินแดนบูรพา วัดละหารไร่",
    "name": "Areeya Flower Park",
    "address": "V6C6+3XP ตำบล แม่น้ำคู้ อำเภอปลวกแดง",
    "lat": 12.8702053,
    "lng": 101.2124497
  },
  {
    "mu_place": "หลวงปู่ทิม พระเกจิแห่งดินแดนบูรพา วัดละหารไร่",
    "name": "สวนสุภัทราแลนด์ โดย ททท.",
    "address": "3143 ตำบล หนองละลอก อำเภอบ้านค่าย",
    "lat": 12.79977,
    "lng": 101.2307391
  },