[
  {
    "mu_place": "ท้าวเวสสุวรรณ วัดพระศรีรัตนมหาธาตุวิหาร(วัดใหญ่)",
    "name": "Home resort",
    "rating": 4.6,
    "address": "289 หมู่ 5 ตำบล ท่าโพธิ์ อำเภอเมือง",
    "lat": 16.7726685,
    "lng": 100.1956556
  },
  {
    "mu_place": "ท้าวเวสสุวรรณ วัดพระศรีรัตนมหาธาตุวิหาร(วัดใหญ่)",
    "name": "โรงแรม AVA HOTEL",
    "rating": 3.6,
    "address": "290 77 ถ. พิชัยสงคราม ตำบล ในเมือง อำเภอเมืองพิษณุโลก",
    "lat": 16.8160334,
    "lng": 100.2813498
  },
  {
    "mu_place": "ท้าวเวสสุวรรณ วัดพระศรีรัตนมหาธาตุวิหาร(วัดใหญ่)",
    "name": "B2 Phitsanulok Premier Hotel / บีทู พิษณุโลก พรีเมียร์",
    "rating": 4.6,
    "address": "66 8 ซอย หมู่บ้านวนาทาวน์โฮม ตำบลวัดจันทร์ อำเภอเมืองพิษณุโลก",
    "lat": 16.8138864,
    "lng": 100.2362462
  },
  {
    "mu_place": "ท้าวเวสสุวรรณ วัดพระศรีรัตนมหาธาตุวิหาร(วัดใหญ่)",
    "name": "โรงแรมหมายเลข 8 The 8 Factory Hostel",
    "rating": 4.3,
    "address": "174, 11 ถนน ศรีธรรมไตรปิฏก ตำบล ในเมือง อำเภอเมืองพิษณุโลก",
    "lat": 16.802384,
    "lng": 100.263506
  },
  {
    "mu_place": "ท้าวเวสสุวรรณ วัดพระศรีรัตนมหาธาตุวิหาร(วัดใหญ่)",
    "name": "เดอะ สเตท รีสอร์ท",
    "rating": 4,
    "address": "16 3 ตำบล วัดพริก เมือง",
    "lat": 16.7420935,
    "lng": 100.2343243
  },
  {
    "mu_place": "ท้าวเวสสุวรรณ วัดพระศรีรัตนมหาธาตุวิหาร(วัดใหญ่)",
    "name": "Dragon River Avenue (ดราก้อนริเวอร์อเวนิว)",
    "rating": 4.1,
    "address": "27/54 ถ.เอกาทศรฐ ในเมือง",
    "lat": 16.8287498,
    "lng": 100.2643625
  },
  {
    "mu_place": "ท้าวเวสสุวรรณ วัดพระศรีรัตนมหาธาตุวิหาร(วัดใหญ่)",
    "name": "โรงแรม ปุณยา การ์เด้น",
    "rating": 3.6,
    "address": "158/5-6 ซอย ตำบล ท่าโพธิ์ อำเภอเมืองพิษณุโลก",
    "lat": 16.7699068,
    "lng": 100.1957289
  },
  {
    "mu_place": "ท้าวเวสสุวรรณ วัดพระศรีรัตนมหาธาตุวิหาร(วัดใหญ่)",
    "name": "โรงแรมท็อปแลนด์",
    "rating": 4,
    "address": "68/33 ถนน เอกาทศรฐ ตำบล ในเมือง อำเภอ เมืองพิษณุโลก",
    "lat": 16.8216859,
    "lng": 100.2645522
  },
  {
    "mu_place": "ท้าวเวสสุวรรณ วัดพระศรีรัตนมหาธาตุวิหาร(วัดใหญ่)",
    "name": "Garden Corner Resort&Hotel",
    "rating": 4,
    "address": "อำเภอเมืองพิษณุโลก",
    "lat": 16.7617411,
    "lng": 100.2097486
  },
  {
    "mu_place": "ท้าวเวสสุวรรณ วัดพระศรีรัตนมหาธาตุวิหาร(วัดใหญ่)",
    "name": "มอสเทล พิษณุโลก",
    "rating": 4.5,
    "address": "หมู่ที่ 5, 60/10, ตำบลพลายชุมพล เมือง",
    "lat": 16.8436141,
    "lng": 100.2335543
  },
  {
    "mu_place": "ท้าวเวสสุวรรณ วัดพระศรีรัตนมหาธาตุวิหาร(วัดใหญ่)",
    "name": "โรงแรมเดอะวิวพอยท์",
    "rating": 4,
    "address": "R764+63W Mueang อำเภอเมืองพิษณุโลก",
    "lat": 16.8106461,
    "lng": 100.2552704
  },
  {
    "mu_place": "ท้าวเวสสุวรรณ วัดพระศรีรัตนมหาธาตุวิหาร(วัดใหญ่)",
    "name": "PHITSANULOK UNITED",
    "rating": 4.4,
    "address": "อำเภอเมืองพิษณุโลก",
    "lat": 16.7999934,
    "lng": 100.2232135
  },
  {
    "mu_place": "ท้าวเวสสุวรรณ วัดพระศรีรัตนมหาธาตุวิหาร(วัดใหญ่)",
    "name": "วังจันทน์ ริเวอร์วิว",
    "rating": 4.1,
    "address": "R785+R8Q ตำบล ในเมือง อำเภอเมืองพิษณุโลก",
    "lat": 16.8170792,
    "lng": 100.2583696
  },
  {
    "mu_place": "ท้าวเวสสุวรรณ วัดพระศรีรัตนมหาธาตุวิหาร(วัดใหญ่)",
    "name": "โรงแรมฟอร์จูน ดี​ พิษณุโลก",
    "rating": 4.3,
    "address": "40 ใน เมือง",
    "lat": 16.8189935,
    "lng": 100.275467
  },
  {
    "mu_place": "ท้าวเวสสุวรรณ วัดพระศรีรัตนมหาธาตุวิหาร(วัดใหญ่)",
    "name": "The Bed Hotel โรงแรมเดอะเบด",
    "rating": 4.4,
    "address": "83/50 Sritammatripidok, อำเภอเมืองพิษณุโลก",
    "lat": 16.8034,
    "lng": 100.2628075
  },
  {
    "mu_place": "ท้าวเวสสุวรรณ วัดพระศรีรัตนมหาธาตุวิหาร(วัดใหญ่)",
    "name": "โรงแรม พิษณุโลกออร์คิด",
    "rating": 4,
    "address": "89 31 ม.8 ตำบลหัวรอ อำเภอเมืองพิษณุโลก",
    "lat": 16.8439669,
    "lng": 100.2667672
  },
  {
    "mu_place": "ท้าวเวสสุวรรณ วัดพระศรีรัตนมหาธาตุวิหาร(วัดใหญ่)",
    "name": "เดอะวิลเลจน์",
    "rating": 4,
    "address": "119/1 Singhawat Road ตำบลบ้านคลอง อำเภอเมืองพิษณุโลก",
    "lat": 16.8311891,
    "lng": 100.2492812
  },
  {
    "mu_place": "ท้าวเวสสุวรรณ วัดพระศรีรัตนมหาธาตุวิหาร(วัดใหญ่)",
    "name": "B2 Phitsanulok Hotel / บีทู พิษณุโลก",
    "rating": 4.3,
    "address": "A, 30/2 M.7 T, ตำบลวัดจันทร์ อำเภอเมืองพิษณุโลก",
    "lat": 16.8072675,
    "lng": 100.2237956
  },
  {
    "mu_place": "ท้าวเวสสุวรรณ วัดพระศรีรัตนมหาธาตุวิหาร(วัดใหญ่)",
    "name": "Phitsanulok Orchid Hotel",
    "rating": 4.2,
    "address": "89/31 Moo 8, T. Huaro, Phitsanulok",
    "lat": 16.843927,
    "lng": 100.26677
  },
  {
    "mu_place": "ท้าวเวสสุวรรณ วัดพระศรีรัตนมหาธาตุวิหาร(วัดใหญ่)",
    "name": "โรงแรมภูผาอินน์ แอนด์ รีสอร์ท",
    "rating": 4.1,
    "address": "RCQR+MGX ตำบลวังทอง อำเภอวังทอง",
    "lat": 16.8392369,
    "lng": 100.4413606
  },
  {
    "mu_place": "วัดมณีวงศ์",
    "name": "SP3 Resort Hotel",
    "rating": 4.2,
    "address": "125-126หมู่3 บ้านพร้าว อำเภอบ้านนา",
    "lat": 14.2411201,
    "lng": 101.1190408
  },
  {
    "mu_place": "วัดมณีวงศ์",
    "name": "ลอฟท์ วิลเลจ นครนายก",
    "rating": 3.3,
    "address": "131 หมู่ 4 พรหมณี เมือง",
    "lat": 14.273036,
    "lng": 101.160292
  },
  {
    "mu_place": "วัดมณีวงศ์",
    "name": "Field Town Apartment",
    "rating": 4.2,
    "address": "Soi6 137/5 Moo.7 Suwannasorn ตำบล บ้านใหญ่ Muang",
    "lat": 14.2113911,
    "lng": 101.2060381
  },
  {
    "mu_place": "วัดมณีวงศ์",
    "name": "Baanna Place",
    "rating": 4,
    "address": "178, 9 อำเภอบ้านนา",
    "lat": 14.261509,
    "lng": 101.0740629
  },
  {
    "mu_place": "วัดมณีวงศ์",
    "name": "โรงแรม จันทรา รีสอร์ท",
    "rating": 4,
    "address": "31/1 Moo 9 Tachang, อำเภอเมืองนครนายก",
    "lat": 14.2106869,
    "lng": 101.1823429
  },
  {
    "mu_place": "วัดมณีวงศ์",
    "name": "บ้านชมภูรีสอร์ท",
    "rating": 4.1,
    "address": "102 1 ตำบล ท่าช้าง อำเภอเมืองนครนายก",
    "lat": 14.200863,
    "lng": 101.1983319
  },
  {
    "mu_place": "วัดมณีวงศ์",
    "name": "ไออุ่นอินน์",
    "rating": 3.9,
    "address": "44/1 หมู่ 13 ตำบล ป่าขะ อำเภอบ้านนา",
    "lat": 14.2882275,
    "lng": 101.077202
  },
  {
    "mu_place": "วัดมณีวงศ์",
    "name": "Deva Garden Resort",
    "rating": 4,
    "address": "ตำบล ไม้เค็ด อำเภอเมืองปราจีนบุรี",
    "lat": 14.1080458,
    "lng": 101.3430626
  },
  {
    "mu_place": "วัดมณีวงศ์",
    "name": "E2S PLACE",
    "rating": 3.5,
    "address": "181​, ตำบล พรหมณี อำเภอเมืองนครนายก",
    "lat": 14.2391144,
    "lng": 101.1544362
  },
  {
    "mu_place": "วัดมณีวงศ์",
    "name": "ริเวอร์ แอนด์ เมาน์เท่น รีสอร์ท",
    "rating": 4.1,
    "address": "188 moo 9, ตำบล หินตั้ง อำเภอเมืองนครนายก",
    "lat": 14.2928918,
    "lng": 101.300666
  },
  {
    "mu_place": "วัดมณีวงศ์",
    "name": "The Chamuang Forest Nakhon Nayok เดอะชะมวงฟอเรสต์ นครนายก,",
    "rating": 4.6,
    "address": "Nangrong 25, 347, Soi, ตำบล สาริกา Amphoe. Muaeng",
    "lat": 14.3123302,
    "lng": 101.2874559
  },
  {
    "mu_place": "วัดมณีวงศ์",
    "name": "Nakhonyok Homestay (นครยก โฮมสเตย์)",
    "rating": 4,
    "address": "190 4 ตำบล ศรีนาวา อำเภอเมืองนครนายก",
    "lat": 14.2106227,
    "lng": 101.2729522
  },
  {
    "mu_place": "วัดมณีวงศ์",
    "name": "HiddenBOX",
    "rating": 4.2,
    "address": "218/1, 218, ตำบล พรหมณี อำเภอเมืองนครนายก",
    "lat": 14.2741707,
    "lng": 101.1664609
  },
  {
    "mu_place": "วัดมณีวงศ์",
    "name": "Capital O 75412 V Resort",
    "rating": 2.9,
    "address": "105, Suwannason, Banna District, Nakhonnayok City, Bangkok",
    "lat": 14.24793,
    "lng": 101.1033331
  },
  {
    "mu_place": "วัดมณีวงศ์",
    "name": "คนชมรีสอร์ท",
    "rating": 3.5,
    "address": "41/7 Moo 4, Wihan Daeng",
    "lat": 14.321704,
    "lng": 100.99936
  },
  {
    "mu_place": "วัดมณีวงศ์",
    "name": "Eden house resort",
    "rating": 4.5,
    "address": "149, ตำบล สาริกา อำเภอเมืองนครนายก",
    "lat": 14.2266125,
    "lng": 101.2515255
  },
  {
    "mu_place": "วัดมณีวงศ์",
    "name": "กรรณาวัฒน์ รีสอร์ท",
    "rating": 4.7,
    "address": "129, T. Paka A. Banna, ตำบล ป่าขะ อำเภอบ้านนา",
    "lat": 14.2741482,
    "lng": 101.0929387
  },
  {
    "mu_place": "วัดมณีวงศ์",
    "name": "ข้าวหอมรีสอร์ท",
    "rating": 4.5,
    "address": "15 Moo1 Tambon Ko wai, Amphoe Pakplee Nakhon Nayok",
    "lat": 14.1695059,
    "lng": 101.255981
  },
  {
    "mu_place": "วัดมณีวงศ์",
    "name": "บ้านนารีสอร์ท นครนายกBanna Resort",
    "rating": 4.2,
    "address": "138-139 หมู่13 ตำบล ป่าขะ อำเภอบ้านนา",
    "lat": 14.2937799,
    "lng": 101.0740789
  },
  {
    "mu_place": "วัดมณีวงศ์",
    "name": "ศรีทอง รีสอร์ท",
    "rating": 4,
    "address": "776M+MQX ตำบล หินตั้ง อำเภอเมืองนครนายก",
    "lat": 14.261747,
    "lng": 101.2844547
  },
  {
    "mu_place": "วัดอินทรวิหาร พระอารามหลวง (บางขุนพรหม)",
    "name": "Bed By Cruise",
    "rating": 4,
    "address": "169, ท่าทราย, เมือง",
    "lat": 13.8871529,
    "lng": 100.5111063
  },
  {
    "mu_place": "วัดอินทรวิหาร พระอารามหลวง (บางขุนพรหม)",
    "name": "Malizon Hotel & Residences โรงแรมมะลิซ้อน เรสซิเด้นซ์",
    "rating": 4.2,
    "address": "56 ซอย กรุงเทพนนท์ 4 ตำบลบางเขน ตำบลตลาดขวัญ",
    "lat": 13.8371615,
    "lng": 100.5197818
  },
  {
    "mu_place": "วัดอินทรวิหาร พระอารามหลวง (บางขุนพรหม)",
    "name": "Viva Residence",
    "rating": 4,
    "address": "90 ถนน คู้บอน แขวงรามอินทรา เขตคันนายาว",
    "lat": 13.8446463,
    "lng": 100.6637178
  },
  {
    "mu_place": "วัดอินทรวิหาร พระอารามหลวง (บางขุนพรหม)",
    "name": "โรงแรมดอนเมือง",
    "rating": 3.9,
    "address": "5 สรณคมน์3 แยก 2 แขวงสีกัน เขตดอนเมือง",
    "lat": 13.9256773,
    "lng": 100.5984586
  },
  {
    "mu_place": "วัดอินทรวิหาร พระอารามหลวง (บางขุนพรหม)",
    "name": "48 Ville Donmueang Airport",
    "rating": 4.1,
    "address": "94/1 ซอย พหลโยธิน 48 แยก 2 แขวงอนุสาวรีย์ เขตบางเขน",
    "lat": 13.8844411,
    "lng": 100.6064665
  },
  {
    "mu_place": "วัดอินทรวิหาร พระอารามหลวง (บางขุนพรหม)",
    "name": "Pranot Apartment & Spa",
    "rating": 4.4,
    "address": "41/49 ชั้น 2 4 ถ. บางกรวย - ไทรน้อย ตำบล บางกร่าง เมือน",
    "lat": 13.8393983,
    "lng": 100.4550125
  },
  {
    "mu_place": "วัดอินทรวิหาร พระอารามหลวง (บางขุนพรหม)",
    "name": "OYO 427 Chill Apartment",
    "rating": 3.6,
    "address": "Chill Apartment, 46 ซอย เพชรเกษม 67 แยก 4 แขวงหลักสอง เขตบางแค",
    "lat": 13.7072396,
    "lng": 100.3788512
  },
  {
    "mu_place": "วัดอินทรวิหาร พระอารามหลวง (บางขุนพรหม)",
    "name": "โรงแรมลิโวเทล เอ็กซ์เพรส (รามคำแหง 50)",
    "rating": 3.5,
    "address": "26 ซอย รามคำแหง 50 หัวหมาก เขตบางกะปิ",
    "lat": 13.7597194,
    "lng": 100.6426302
  },
  {
    "mu_place": "วัดอินทรวิหาร พระอารามหลวง (บางขุนพรหม)",
    "name": "เบน เรสซิเดนซ์",
    "rating": 3.9,
    "address": "551/1 ถ. พระราม 2 ซ. 69 แขวงแสมดำ เขตบางขุนเทียน",
    "lat": 13.6401382,
    "lng": 100.4290599
  },
  {
    "mu_place": "วัดอินทรวิหาร พระอารามหลวง (บางขุนพรหม)",
    "name": "Platinums",
    "rating": 3.8,
    "address": "102 ถนน พระรามที่ 2 ซอย 54 แยก 4 แขวงแสมดำ เขตบางขุนเทียน",
    "lat": 13.6689383,
    "lng": 100.4322159
  },
  {
    "mu_place": "วัดอินทรวิหาร พระอารามหลวง (บางขุนพรหม)",
    "name": "โรงแรม บารอน โซเทล ลาดพร้าว 117 - บางกะปิ",
    "rating": 4,
    "address": "77 ซอย ลาดพร้าว 117 แขวงคลองจั่น เขตบางกะปิ",
    "lat": 13.7723808,
    "lng": 100.640731
  },
  {
    "mu_place": "วัดอินทรวิหาร พระอารามหลวง (บางขุนพรหม)",
    "name": "THE Bedroom Ladprao 101",
    "rating": 4.1,
    "address": "99 Ladprao 101 yak 38 Klongchan Bangkapi",
    "lat": 13.7874874,
    "lng": 100.6311393
  },
  {
    "mu_place": "วัดอินทรวิหาร พระอารามหลวง (บางขุนพรหม)",
    "name": "The Home Hotel",
    "rating": 4.1,
    "address": "THE HOME HOTEL 119/1 ซอย รามคำแหง 50 แขวงหัวหมาก เขตบางกะปิ",
    "lat": 13.7548714,
    "lng": 100.6432517
  },
  {
    "mu_place": "วัดอินทรวิหาร พระอารามหลวง (บางขุนพรหม)",
    "name": "Boom inn(ID LINE: boominn)",
    "rating": 4.2,
    "address": "88, 2 Soi Thairomklao, ตำบล บางม่วง Bangyai District",
    "lat": 13.8408315,
    "lng": 100.4088324
  },
  {
    "mu_place": "วัดอินทรวิหาร พระอารามหลวง (บางขุนพรหม)",
    "name": "สินสิริ 2 ลาดพร้าว 98/1",
    "rating": 4,
    "address": "13 ซอย ลาดพร้าว 98/1 แขวงวังทองหลาง เขตวังทองหลาง",
    "lat": 13.7830986,
    "lng": 100.6130945
  },
  {
    "mu_place": "วัดอินทรวิหาร พระอารามหลวง (บางขุนพรหม)",
    "name": "โรงแรมริมน้ำ สุขสวัสดิ์ 70",
    "rating": 3.4,
    "address": "78 61 ถนน สุขสวัสดิ์ 70 ลัดหลวง อำเภอพระประแดง",
    "lat": 13.6408725,
    "lng": 100.5205619
  },
  {
    "mu_place": "วัดอินทรวิหาร พระอารามหลวง (บางขุนพรหม)",
    "name": "โรงแรมนันทรา สุขุมวิท39",
    "rating": 3.2,
    "address": "แขวงคลองตันเหนือ เขตวัฒนา",
    "lat": 13.7311691,
    "lng": 100.5701829
  },
  {
    "mu_place": "วัดอินทรวิหาร พระอารามหลวง (บางขุนพรหม)",
    "name": "นันทรา เอกมัย",
    "rating": 3.6,
    "address": "9, 14 ซอย ธนาอาเขต แขวงคลองตันเหนือ เขตวัฒนา",
    "lat": 13.7222591,
    "lng": 100.5840153
  },
  {
    "mu_place": "วัดอินทรวิหาร พระอารามหลวง (บางขุนพรหม)",
    "name": "Studio 41: salaya-Sai4",
    "rating": 3.4,
    "address": "ตำบล กระทุ่มล้ม อำเภอสามพราน",
    "lat": 13.7296125,
    "lng": 100.3306719
  },
  {
    "mu_place": "วัดอินทรวิหาร พระอารามหลวง (บางขุนพรหม)",
    "name": "14 Avenue",
    "rating": 3.4,
    "address": "1 ถ. พระราม ๒ แขวงบางมด เขตจอมทอง",
    "lat": 13.6821899,
    "lng": 100.4751307
  },
  {
    "mu_place": "ศาลเจ้าพ่อกรมหลวงชุมพร อุดมศักดิ์",
    "name": "Bed By Cruise",
    "rating": 4,
    "address": "169, ท่าทราย, เมือง",
    "lat": 13.8871529,
    "lng": 100.5111063
  },
  {
    "mu_place": "ศาลเจ้าพ่อกรมหลวงชุมพร อุดมศักดิ์",
    "name": "Malizon Hotel & Residences โรงแรมมะลิซ้อน เรสซิเด้นซ์",
    "rating": 4.2,
    "address": "56 ซอย กรุงเทพนนท์ 4 ตำบลบางเขน ตำบลตลาดขวัญ",
    "lat": 13.8371615,
    "lng": 100.5197818
  },
  {
    "mu_place": "ศาลเจ้าพ่อกรมหลวงชุมพร อุดมศักดิ์",
    "name": "Viva Residence",
    "rating": 4,
    "address": "90 ถนน คู้บอน แขวงรามอินทรา เขตคันนายาว",
    "lat": 13.8446463,
    "lng": 100.6637178
  },
  {
    "mu_place": "ศาลเจ้าพ่อกรมหลวงชุมพร อุดมศักดิ์",
    "name": "โรงแรมดอนเมือง",
    "rating": 3.9,
    "address": "5 สรณคมน์3 แยก 2 แขวงสีกัน เขตดอนเมือง",
    "lat": 13.9256773,
    "lng": 100.5984586
  },
  {
    "mu_place": "ศาลเจ้าพ่อกรมหลวงชุมพร อุดมศักดิ์",
    "name": "48 Ville Donmueang Airport",
    "rating": 4.1,
    "address": "94/1 ซอย พหลโยธิน 48 แยก 2 แขวงอนุสาวรีย์ เขตบางเขน",
    "lat": 13.8844411,
    "lng": 100.6064665
  },
  {
    "mu_place": "ศาลเจ้าพ่อกรมหลวงชุมพร อุดมศักดิ์",
    "name": "Pranot Apartment & Spa",
    "rating": 4.4,
    "address": "41/49 ชั้น 2 4 ถ. บางกรวย - ไทรน้อย ตำบล บางกร่าง เมือน",
    "lat": 13.8393983,
    "lng": 100.4550125
  },
  {
    "mu_place": "ศาลเจ้าพ่อกรมหลวงชุมพร อุดมศักดิ์",
    "name": "โรงแรมลิโวเทล เอ็กซ์เพรส (รามคำแหง 50)",
    "rating": 3.5,
    "address": "26 ซอย รามคำแหง 50 หัวหมาก เขตบางกะปิ",
    "lat": 13.7597194,
    "lng": 100.6426302
  },
  {
    "mu_place": "ศาลเจ้าพ่อกรมหลวงชุมพร อุดมศักดิ์",
    "name": "เบน เรสซิเดนซ์",
    "rating": 3.9,
    "address": "551/1 ถ. พระราม 2 ซ. 69 แขวงแสมดำ เขตบางขุนเทียน",
    "lat": 13.6401382,
    "lng": 100.4290599
  },
  {
    "mu_place": "ศาลเจ้าพ่อกรมหลวงชุมพร อุดมศักดิ์",
    "name": "OYO 427 Chill Apartment",
    "rating": 3.6,
    "address": "Chill Apartment, 46 ซอย เพชรเกษม 67 แยก 4 แขวงหลักสอง เขตบางแค",
    "lat": 13.7072396,
    "lng": 100.3788512
  },
  {
    "mu_place": "ศาลเจ้าพ่อกรมหลวงชุมพร อุดมศักดิ์",
    "name": "Platinums",
    "rating": 3.8,
    "address": "102 ถนน พระรามที่ 2 ซอย 54 แยก 4 แขวงแสมดำ เขตบางขุนเทียน",
    "lat": 13.6689383,
    "lng": 100.4322159
  },
  {
    "mu_place": "ศาลเจ้าพ่อกรมหลวงชุมพร อุดมศักดิ์",
    "name": "โรงแรม บารอน โซเทล ลาดพร้าว 117 - บางกะปิ",
    "rating": 4,
    "address": "77 ซอย ลาดพร้าว 117 แขวงคลองจั่น เขตบางกะปิ",
    "lat": 13.7723808,
    "lng": 100.640731
  },
  {
    "mu_place": "ศาลเจ้าพ่อกรมหลวงชุมพร อุดมศักดิ์",
    "name": "THE Bedroom Ladprao 101",
    "rating": 4.1,
    "address": "99 Ladprao 101 yak 38 Klongchan Bangkapi",
    "lat": 13.7874874,
    "lng": 100.6311393
  },
  {
    "mu_place": "ศาลเจ้าพ่อกรมหลวงชุมพร อุดมศักดิ์",
    "name": "The Home Hotel",
    "rating": 4.1,
    "address": "THE HOME HOTEL 119/1 ซอย รามคำแหง 50 แขวงหัวหมาก เขตบางกะปิ",
    "lat": 13.7548714,
    "lng": 100.6432517
  },
  {
    "mu_place": "ศาลเจ้าพ่อกรมหลวงชุมพร อุดมศักดิ์",
    "name": "Boom inn(ID LINE: boominn)",
    "rating": 4.2,
    "address": "88, 2 Soi Thairomklao, ตำบล บางม่วง Bangyai District",
    "lat": 13.8408315,
    "lng": 100.4088324
  },
  {
    "mu_place": "ศาลเจ้าพ่อกรมหลวงชุมพร อุดมศักดิ์",
    "name": "สินสิริ 2 ลาดพร้าว 98/1",
    "rating": 4,
    "address": "13 ซอย ลาดพร้าว 98/1 แขวงวังทองหลาง เขตวังทองหลาง",
    "lat": 13.7830986,
    "lng": 100.6130945
  },
  {
    "mu_place": "ศาลเจ้าพ่อกรมหลวงชุมพร อุดมศักดิ์",
    "name": "โรงแรมริมน้ำ สุขสวัสดิ์ 70",
    "rating": 3.4,
    "address": "78 61 ถนน สุขสวัสดิ์ 70 ลัดหลวง อำเภอพระประแดง",
    "lat": 13.6408725,
    "lng": 100.5205619
  },
  {
    "mu_place": "ศาลเจ้าพ่อกรมหลวงชุมพร อุดมศักดิ์",
    "name": "โรงแรมนันทรา สุขุมวิท39",
    "rating": 3.2,
    "address": "แขวงคลองตันเหนือ เขตวัฒนา",
    "lat": 13.7311691,
    "lng": 100.5701829
  },
  {
    "mu_place": "ศาลเจ้าพ่อกรมหลวงชุมพร อุดมศักดิ์",
    "name": "นันทรา เอกมัย",
    "rating": 3.6,
    "address": "9, 14 ซอย ธนาอาเขต แขวงคลองตันเหนือ เขตวัฒนา",
    "lat": 13.7222591,
    "lng": 100.5840153
  },
  {
    "mu_place": "ศาลเจ้าพ่อกรมหลวงชุมพร อุดมศักดิ์",
    "name": "Studio 41: salaya-Sai4",
    "rating": 3.4,
    "address": "ตำบล กระทุ่มล้ม อำเภอสามพราน",
    "lat": 13.7296125,
    "lng": 100.3306719
  },
  {
    "mu_place": "ศาลเจ้าพ่อกรมหลวงชุมพร อุดมศักดิ์",
    "name": "14 Avenue",
    "rating": 3.4,
    "address": "1 ถ. พระราม ๒ แขวงบางมด เขตจอมทอง",
    "lat": 13.6821899,
    "lng": 100.4751307
  },
  {
    "mu_place": "วิหารพระพุทธชินราชมงคลปราการ",
    "name": "Floral Shire Resort (Suvarnabhumi Airport)",
    "rating": 3.5,
    "address": "56 Soi 42, แขวงลาดกระบัง เขตลาดกระบัง",
    "lat": 13.717292,
    "lng": 100.7650371
  },
  {
    "mu_place": "วิหารพระพุทธชินราชมงคลปราการ",
    "name": "โรงแรมบ้านปากน้ำ",
    "rating": 4.2,
    "address": "427 ถนน สายลวด ตำบลปากน้ำ เมือง",
    "lat": 13.5804569,
    "lng": 100.6022121
  },
  {
    "mu_place": "วิหารพระพุทธชินราชมงคลปราการ",
    "name": "CASA Grand Hotel",
    "rating": 4.6,
    "address": "88 อักษรลักษณ์ ตำบล บางเมือง อำเภอเมืองสมุทรปราการ",
    "lat": 13.6015169,
    "lng": 100.6030533
  },
  {
    "mu_place": "วิหารพระพุทธชินราชมงคลปราการ",
    "name": "โรงแรมลิโวเทล เอ็กซ์เพรส (รามคำแหง 50)",
    "rating": 3.5,
    "address": "26 ซอย รามคำแหง 50 หัวหมาก เขตบางกะปิ",
    "lat": 13.7597194,
    "lng": 100.6426302
  },
  {
    "mu_place": "วิหารพระพุทธชินราชมงคลปราการ",
    "name": "เบน เรสซิเดนซ์",
    "rating": 3.9,
    "address": "551/1 ถ. พระราม 2 ซ. 69 แขวงแสมดำ เขตบางขุนเทียน",
    "lat": 13.6401382,
    "lng": 100.4290599
  },
  {
    "mu_place": "วิหารพระพุทธชินราชมงคลปราการ",
    "name": "Sweety Resort",
    "rating": 4,
    "address": "888/888 Moo 14, ซอย หมู่บ้านอนันดาบีชไลฟ์ อำเภอบางพลี",
    "lat": 13.6440035,
    "lng": 100.7040709
  },
  {
    "mu_place": "วิหารพระพุทธชินราชมงคลปราการ",
    "name": "โรงแรม บารอน โซเทล ลาดพร้าว 117 - บางกะปิ",
    "rating": 4,
    "address": "77 ซอย ลาดพร้าว 117 แขวงคลองจั่น เขตบางกะปิ",
    "lat": 13.7723808,
    "lng": 100.640731
  },
  {
    "mu_place": "วิหารพระพุทธชินราชมงคลปราการ",
    "name": "โรงแรมราคาประหยัด โรงแรม444",
    "rating": 3.8,
    "address": "1103 หมู่ที่1 ถ. สุขุมวิท ตำบล บางปูใหม่ อำเภอเมือง",
    "lat": 13.5378385,
    "lng": 100.6216486
  },
  {
    "mu_place": "วิหารพระพุทธชินราชมงคลปราการ",
    "name": "Platinums",
    "rating": 3.8,
    "address": "102 ถนน พระรามที่ 2 ซอย 54 แยก 4 แขวงแสมดำ เขตบางขุนเทียน",
    "lat": 13.6689383,
    "lng": 100.4322159
  },
  {
    "mu_place": "วิหารพระพุทธชินราชมงคลปราการ",
    "name": "The Home Hotel",
    "rating": 4.1,
    "address": "THE HOME HOTEL 119/1 ซอย รามคำแหง 50 แขวงหัวหมาก เขตบางกะปิ",
    "lat": 13.7548714,
    "lng": 100.6432517
  },
  {
    "mu_place": "วิหารพระพุทธชินราชมงคลปราการ",
    "name": "โรงแรมริมน้ำ สุขสวัสดิ์ 70",
    "rating": 3.4,
    "address": "78 61 ถนน สุขสวัสดิ์ 70 ลัดหลวง อำเภอพระประแดง",
    "lat": 13.6408725,
    "lng": 100.5205619
  },
  {
    "mu_place": "วิหารพระพุทธชินราชมงคลปราการ",
    "name": "โรงแรมทับทิมสยาม สุวรรณภูมิ",
    "rating": 4.2,
    "address": "125/272 ถ.วัดศรีวารีน้อย, ตำบลบางโฉลง อำเภอบางพลี",
    "lat": 13.621679,
    "lng": 100.7628466
  },
  {
    "mu_place": "วิหารพระพุทธชินราชมงคลปราการ",
    "name": "โรงแรม แกรนด์ พินนาเคิล",
    "rating": 3.8,
    "address": "1666/1 5 ซอย ลาดกระบัง 11 แขวงลาดกระบัง เขตลาดกระบัง",
    "lat": 13.7222995,
    "lng": 100.7716793
  },
  {
    "mu_place": "วิหารพระพุทธชินราชมงคลปราการ",
    "name": "14 Avenue",
    "rating": 3.4,
    "address": "1 ถ. พระราม ๒ แขวงบางมด เขตจอมทอง",
    "lat": 13.6821899,
    "lng": 100.4751307
  },
  {
    "mu_place": "วิหารพระพุทธชินราชมงคลปราการ",
    "name": "โรงแรมนันทรา สุขุมวิท39",
    "rating": 3.2,
    "address": "แขวงคลองตันเหนือ เขตวัฒนา",
    "lat": 13.7311691,
    "lng": 100.5701829
  },
  {
    "mu_place": "วิหารพระพุทธชินราชมงคลปราการ",
    "name": "14 รีสอร์ท",
    "rating": 4.1,
    "address": "2/1-3 35/1 ถ. เพชรเกษม แขวงบางหว้า เขตภาษีเจริญ",
    "lat": 13.7114159,
    "lng": 100.4322334
  },
  {
    "mu_place": "วิหารพระพุทธชินราชมงคลปราการ",
    "name": "The Kinn Bangkok โรงแรมเดอะคินน์",
    "rating": 4.1,
    "address": "578 ถนน พระราม 9 ซ. 26 แขวงบางกะปิ เขตห้วยขวาง",
    "lat": 13.7526483,
    "lng": 100.58856
  },
  {
    "mu_place": "วิหารพระพุทธชินราชมงคลปราการ",
    "name": "นันทรา เอกมัย",
    "rating": 3.6,
    "address": "9, 14 ซอย ธนาอาเขต แขวงคลองตันเหนือ เขตวัฒนา",
    "lat": 13.7222591,
    "lng": 100.5840153
  },
  {
    "mu_place": "วิหารพระพุทธชินราชมงคลปราการ",
    "name": "Sananwan Palace (สนานวรรณ พาเลซ)",
    "rating": 4.2,
    "address": "18 11 ตำบล บางพลีใหญ่ อำเภอบางพลี",
    "lat": 13.6042453,
    "lng": 100.7152027
  },
  {
    "mu_place": "วิหารพระพุทธชินราชมงคลปราการ",
    "name": "SPARK HOTEL - MRT Queen Sirikit - โรงแรมสปาร์ค",
    "rating": 4.2,
    "address": "599 Soi Phaisingtoh แขวงคลองเตย เขตคลองเตย",
    "lat": 13.7242134,
    "lng": 100.5614653
  },
  {
    "mu_place": "ท้าวเวสสุวรรณ วัดจุฬามณี",
    "name": "โรงแรมอลงกรณ์ บาย เอสบี",
    "rating": 4,
    "address": "541 15 ถ. เกษมสุขุม ตำบล แม่กลอง อำเภอเมืองสมุทรสงคราม",
    "lat": 13.4088065,
    "lng": 100.0011716
  },
  {
    "mu_place": "ท้าวเวสสุวรรณ วัดจุฬามณี",
    "name": "โรงแรมวิสดอม",
    "rating": 3.9,
    "address": "พระราม2 (กม.64) ตำบล แม่กลอง อำเภอเมืองสมุทรสงคราม",
    "lat": 13.3930592,
    "lng": 100.0012983
  },
  {
    "mu_place": "ท้าวเวสสุวรรณ วัดจุฬามณี",
    "name": "The Sun Resort Ratchaburi",
    "rating": 4.2,
    "address": "บายพาส 238 ตำบลดอนตะโก อำเภอเมืองราชบุรี",
    "lat": 13.5106682,
    "lng": 99.8001388
  },
  {
    "mu_place": "ท้าวเวสสุวรรณ วัดจุฬามณี",
    "name": "โรงแรมเวสเทิร์นแกรนด์ราชบุรี",
    "rating": 3.9,
    "address": "105/1 ถนนเพชรเกษม หน้าเมือง อ.เมืองราชบุรี",
    "lat": 13.5379291,
    "lng": 99.80752609999999
  },
  {
    "mu_place": "ท้าวเวสสุวรรณ วัดจุฬามณี",
    "name": "โรงแรมรอยัลแลนด์ แม่กลอง",
    "rating": 3.6,
    "address": "540 ถ. เกษมสุขุม ตำบล แม่กลอง อำเภอเมืองสมุทรสงคราม",
    "lat": 13.4090308,
    "lng": 100.001582
  },
  {
    "mu_place": "ท้าวเวสสุวรรณ วัดจุฬามณี",
    "name": "โรงแรมโคโคนัท",
    "rating": 3.4,
    "address": "18 ม.2 ตำบล บางนกแขวก อำเภอ บางคนที",
    "lat": 13.5083865,
    "lng": 99.91776109999999
  },
  {
    "mu_place": "ท้าวเวสสุวรรณ วัดจุฬามณี",
    "name": "โรงแรมแฮปปี้โฮม ราชบุรี",
    "rating": 4.1,
    "address": "8 ซอย แม้นรำลึก 4 ตำบล หน้าเมือง อำเภอเมืองราชบุรี",
    "lat": 13.5276664,
    "lng": 99.8176897
  },
  {
    "mu_place": "ท้าวเวสสุวรรณ วัดจุฬามณี",
    "name": "โรงแรมบ้านละมุน ราชบุรี",
    "rating": 4.2,
    "address": "88 Tambon Baanrai Amphoe Muang",
    "lat": 13.5279097,
    "lng": 99.8325459
  },
  {
    "mu_place": "ท้าวเวสสุวรรณ วัดจุฬามณี",
    "name": "โรงแรมผึ้งหลวง",
    "rating": 3.5,
    "address": "186/3 หมู่ 8 ถนน ดำเนินสะดวก หลัก ห้า ตำบล ศรีสุราษฎร์ อำเภอดำเนินสะดวก",
    "lat": 13.523093,
    "lng": 99.973925
  },
  {
    "mu_place": "ท้าวเวสสุวรรณ วัดจุฬามณี",
    "name": "Golf Inn Resort",
    "rating": 4,
    "address": "50/3 Thanon Thonburi-Pakthor ตำบล แม่กลอง อำเภอเมืองสมุทรสงคราม",
    "lat": 13.3924638,
    "lng": 100.0021983
  },
  {
    "mu_place": "ท้าวเวสสุวรรณ วัดจุฬามณี",
    "name": "The Bedrooms Maeklong Hotel and Serviced Apartment",
    "rating": 4.5,
    "address": "148 3 ตำบล บางแก้ว อำเภอเมืองสมุทรสงคราม",
    "lat": 13.402364,
    "lng": 100.0074933
  },
  {
    "mu_place": "ท้าวเวสสุวรรณ วัดจุฬามณี",
    "name": "โรงแรมนำสิน ราชบุรี",
    "rating": 3.5,
    "address": "2, 16 ถ. ไกรเพชร ตำบล หน้าเมือง อำเภอเมืองราชบุรี",
    "lat": 13.538354,
    "lng": 99.8224262
  },
  {
    "mu_place": "ท้าวเวสสุวรรณ วัดจุฬามณี",
    "name": "โรงแรมทิวลิปเพลส",
    "rating": 3.9,
    "address": "80, 2 ถ. เพชรเกษม ตำบล เจดีย์หัก อำเภอเมืองราชบุรี",
    "lat": 13.5355111,
    "lng": 99.797319
  },
  {
    "mu_place": "ท้าวเวสสุวรรณ วัดจุฬามณี",
    "name": "Eitanic Resort and Spa",
    "rating": 4.3,
    "address": "GRGP+W3H ตำบล หน้าเมือง อำเภอเมืองราชบุรี",
    "lat": 13.5273086,
    "lng": 99.8352316
  },
  {
    "mu_place": "ท้าวเวสสุวรรณ วัดจุฬามณี",
    "name": "โรงแรม มายรูม ราชบุรี My ROOM",
    "rating": 4,
    "address": "182 65 ถ ศรีสุริยวงศ์ ตำบล หน้าเมือง เมือง",
    "lat": 13.5353998,
    "lng": 99.8095108
  },
  {
    "mu_place": "ท้าวเวสสุวรรณ วัดจุฬามณี",
    "name": "Reurn Thai Resort Ratchaburi",
    "rating": 3.7,
    "address": "248/1 Moo 10, Damnoen Saduak",
    "lat": 13.5175548,
    "lng": 99.9703335
  },
  {
    "mu_place": "ท้าวเวสสุวรรณ วัดจุฬามณี",
    "name": "วนิลา ริเวอร์",
    "rating": 3.6,
    "address": "205/8 Road ถนน, อัมรินทร์ ตำบล หน้าเมือง อำเภอเมืองราชบุรี",
    "lat": 13.5390832,
    "lng": 99.82136229999999
  },
  {
    "mu_place": "ท้าวเวสสุวรรณ วัดจุฬามณี",
    "name": "Relax House",
    "rating": 4.3,
    "address": "117 Moo 3 Wangmanow, อำเภอปากท่อ",
    "lat": 13.3387528,
    "lng": 99.8381368
  },
  {
    "mu_place": "ท้าวเวสสุวรรณ วัดจุฬามณี",
    "name": "โรงแรมเลอเลิศ",
    "rating": 4.5,
    "address": "8 88 วิศวเสนานิคม ตำบล หน้าเมือง อำเภอเมืองราชบุรี",
    "lat": 13.5253866,
    "lng": 99.7972687
  },
  {
    "mu_place": "ท้าวเวสสุวรรณ วัดจุฬามณี",
    "name": "Cap.O 75415 Nanthachart Riverview Resort",
    "rating": 4,
    "address": "42, ตำบล ลาดใหญ่ Muang Samut Songkram",
    "lat": 13.4280964,
    "lng": 100.0206635
  },
  {
    "mu_place": "หลวงพ่อปลดหนี้ วัดห้วยน้ำทรัพย์ หรือ วัดพระธาตุวาโย",
    "name": "โรงแรม และร้านอาหาร นันทรมย์ - Nantharom Hotel & Restaurant",
    "rating": 4.5,
    "address": "26, 1 ตำบล หัวสำโรง อำเภอแปลงยาว",
    "lat": 13.6445926,
    "lng": 101.2878589
  },
  {
    "mu_place": "หลวงพ่อปลดหนี้ วัดห้วยน้ำทรัพย์ หรือ วัดพระธาตุวาโย",
    "name": "ริมเมือง รีสอร์ท",
    "rating": 4,
    "address": "123 1 ตำบล เกาะขนุน อำเภอพนมสารคาม",
    "lat": 13.6741309,
    "lng": 101.4288645
  },
  {
    "mu_place": "หลวงพ่อปลดหนี้ วัดห้วยน้ำทรัพย์ หรือ วัดพระธาตุวาโย",
    "name": "Tai Baan Resort",
    "rating": 4.4,
    "address": "T.Phanom Sarakham, อำเภอพนมสารคาม",
    "lat": 13.7485486,
    "lng": 101.3352702
  },
  {
    "mu_place": "หลวงพ่อปลดหนี้ วัดห้วยน้ำทรัพย์ หรือ วัดพระธาตุวาโย",
    "name": "หลับเพลิน รีสอร์ท",
    "rating": 4.4,
    "address": "1717 72/1 พนมสารคาม อำเภอพนมสารคาม",
    "lat": 13.7428038,
    "lng": 101.3454139
  },
  {
    "mu_place": "หลวงพ่อปลดหนี้ วัดห้วยน้ำทรัพย์ หรือ วัดพระธาตุวาโย",
    "name": "ชานชาลา คาเฟ่แอนด์รีสอร์ท (Charn Chala Cafe‘ & Resort)",
    "rating": 4.9,
    "address": "22/12 หมู่ 2ถนนพนมสารคาม-สนามชัยเขต ซอย 1 อำเภอพนมสารคาม",
    "lat": 13.7433541,
    "lng": 101.3575246
  },
  {
    "mu_place": "หลวงพ่อปลดหนี้ วัดห้วยน้ำทรัพย์ หรือ วัดพระธาตุวาโย",
    "name": "Pillow inn Phanomsarakham Hotel",
    "rating": 4.1,
    "address": "304 ถนนฉะเชิงเทรา - กบินทร์บุรี ตำบล เขาหินซ้อน อำเภอพนมสารคาม",
    "lat": 13.7458141,
    "lng": 101.4807989
  },
  {
    "mu_place": "หลวงพ่อปลดหนี้ วัดห้วยน้ำทรัพย์ หรือ วัดพระธาตุวาโย",
    "name": "โรงแรมโมเดิร์นเลิฟรีสอร์ท",
    "rating": 4.1,
    "address": "70/13 หมู่9 ตำบล นาเริก อำเภอพนัสนิคม",
    "lat": 13.3941233,
    "lng": 101.2601955
  },
  {
    "mu_place": "หลวงพ่อปลดหนี้ วัดห้วยน้ำทรัพย์ หรือ วัดพระธาตุวาโย",
    "name": "โรงเเรมเดอะริชอินน์",
    "rating": 4.5,
    "address": "383 ต.วังเย็น อำเภอแปลงยาว",
    "lat": 13.5871076,
    "lng": 101.2729721
  },
  {
    "mu_place": "หลวงพ่อปลดหนี้ วัดห้วยน้ำทรัพย์ หรือ วัดพระธาตุวาโย",
    "name": "โอ.เค.รีสอร์ท",
    "rating": 4.3,
    "address": "98Q7+2FM ตำบลท่าบุญมี อำเภอเกาะจันทร์",
    "lat": 13.3875903,
    "lng": 101.3136791
  },
  {
    "mu_place": "หลวงพ่อปลดหนี้ วัดห้วยน้ำทรัพย์ หรือ วัดพระธาตุวาโย",
    "name": "โรงแรมแกรนด์พนม",
    "rating": 3.4,
    "address": "333 ตำบล ท่าถ่าน อำเภอพนมสารคาม",
    "lat": 13.7513261,
    "lng": 101.3660719
  },
  {
    "mu_place": "หลวงพ่อปลดหนี้ วัดห้วยน้ำทรัพย์ หรือ วัดพระธาตุวาโย",
    "name": "บ้านไม้รีสอร์ท บ.เกาะโพธิ์",
    "rating": 4.3,
    "address": "15, ซอย เทศบาล 5 ตำบลท่าบุญมี อำเภอเกาะจันทร์",
    "lat": 13.3874456,
    "lng": 101.2993832
  },
  {
    "mu_place": "หลวงพ่อปลดหนี้ วัดห้วยน้ำทรัพย์ หรือ วัดพระธาตุวาโย",
    "name": "โรงแรมป๊อกเก้า รีสอร์ท",
    "rating": 3.8,
    "address": "MCXV+C3X ตำบล เกาะขนุน อำเภอพนมสารคาม",
    "lat": 13.6986113,
    "lng": 101.4427246
  },
  {
    "mu_place": "หลวงพ่อปลดหนี้ วัดห้วยน้ำทรัพย์ หรือ วัดพระธาตุวาโย",
    "name": "หนองครกรีสอร์ท",
    "rating": 4,
    "address": "186 ตำบล แปลงยาว อำเภอแปลงยาว",
    "lat": 13.5886955,
    "lng": 101.295372
  },
  {
    "mu_place": "หลวงพ่อปลดหนี้ วัดห้วยน้ำทรัพย์ หรือ วัดพระธาตุวาโย",
    "name": "ทูรีสอร์ท",
    "rating": 3.7,
    "address": "MC6J+HWH ตำบล คู้ยายหมี อำเภอสนามชัยเขต",
    "lat": 13.6614442,
    "lng": 101.4323446
  },
  {
    "mu_place": "หลวงพ่อปลดหนี้ วัดห้วยน้ำทรัพย์ หรือ วัดพระธาตุวาโย",
    "name": "โรงแรมเหมือนฝัน รีสอร์ท",
    "rating": 3.9,
    "address": "อ 192 ม.11 ต อำเภอแปลงยาว",
    "lat": 13.592705,
    "lng": 101.2901021
  },
  {
    "mu_place": "หลวงพ่อปลดหนี้ วัดห้วยน้ำทรัพย์ หรือ วัดพระธาตุวาโย",
    "name": "มอแกน รีสอร์ท ( Morgan Resort )",
    "rating": 4.3,
    "address": "22 4 ตำบลเมืองเก่า อำเภอพนมสารคาม",
    "lat": 13.724106,
    "lng": 101.3240844
  },
  {
    "mu_place": "หลวงพ่อปลดหนี้ วัดห้วยน้ำทรัพย์ หรือ วัดพระธาตุวาโย",
    "name": "โรงเเรมต้นสน",
    "rating": 3.5,
    "address": "H7WX+8X5 Unnamed Road ตำบล แปลงยาว อำเภอแปลงยาว",
    "lat": 13.5957666,
    "lng": 101.2999866
  },
  {
    "mu_place": "หลวงพ่อปลดหนี้ วัดห้วยน้ำทรัพย์ หรือ วัดพระธาตุวาโย",
    "name": "โรงแรมโกลเด้นฮิลล์",
    "rating": 3.9,
    "address": "H7QW+69Q ตำบล แปลงยาว อำเภอแปลงยาว",
    "lat": 13.5880901,
    "lng": 101.2959794
  },
  {
    "mu_place": "หลวงพ่อปลดหนี้ วัดห้วยน้ำทรัพย์ หรือ วัดพระธาตุวาโย",
    "name": "นพรัตน์รีสอร์ท",
    "rating": 4.2,
    "address": "Unnamed Road ตำบล แปลงยาว อำเภอแปลงยาว",
    "lat": 13.6039539,
    "lng": 101.2850841
  },
  {
    "mu_place": "หลวงพ่อปลดหนี้ วัดห้วยน้ำทรัพย์ หรือ วัดพระธาตุวาโย",
    "name": "สดใสรีสอร์ท",
    "rating": 4.5,
    "address": "ฉช.3018 ตำบล แปลงยาว อำเภอแปลงยาว",
    "lat": 13.5945471,
    "lng": 101.2901024
  },
  {
    "mu_place": "วัดสายไหม",
    "name": "นิทรา เรสซิเดนซ์",
    "rating": 4.7,
    "address": "462 หมู่ที่ 4 ซ. พหลโยธิน 62 ตำบลคูคต อำเภอลำลูกกา",
    "lat": 13.9418573,
    "lng": 100.6370299
  },
  {
    "mu_place": "วัดสายไหม",
    "name": "Bed By Cruise",
    "rating": 4,
    "address": "169, ท่าทราย, เมือง",
    "lat": 13.8871529,
    "lng": 100.5111063
  },
  {
    "mu_place": "วัดสายไหม",
    "name": "PP@Hotel Rangsit",
    "rating": 4,
    "address": "117 รังสิต-นครนายก 20 ตำบล ประชาธิปัตย์ อำเภอธัญบุรี",
    "lat": 13.9792323,
    "lng": 100.6278031
  },
  {
    "mu_place": "วัดสายไหม",
    "name": "Malizon Hotel & Residences โรงแรมมะลิซ้อน เรสซิเด้นซ์",
    "rating": 4.2,
    "address": "56 ซอย กรุงเทพนนท์ 4 ตำบลบางเขน ตำบลตลาดขวัญ",
    "lat": 13.8371615,
    "lng": 100.5197818
  },
  {
    "mu_place": "วัดสายไหม",
    "name": "โรงแรมฮ็อป อินน์ รังสิต",
    "rating": 4.4,
    "address": "92 2 ถ. พหลโยธิน ตำบล ประชาธิปัตย์ อำเภอธัญบุรี",
    "lat": 13.9859709,
    "lng": 100.6170001
  },
  {
    "mu_place": "วัดสายไหม",
    "name": "Viva Residence",
    "rating": 4,
    "address": "90 ถนน คู้บอน แขวงรามอินทรา เขตคันนายาว",
    "lat": 13.8446463,
    "lng": 100.6637178
  },
  {
    "mu_place": "วัดสายไหม",
    "name": "OYO 519 B Min Airport",
    "rating": 3,
    "address": "3 B Min Airport ซอย รามคำแหง 187 เขตมีนบุรี",
    "lat": 13.7999209,
    "lng": 100.7126281
  },
  {
    "mu_place": "วัดสายไหม",
    "name": "โรงแรมดอนเมือง",
    "rating": 3.9,
    "address": "5 สรณคมน์3 แยก 2 แขวงสีกัน เขตดอนเมือง",
    "lat": 13.9256773,
    "lng": 100.5984586
  },
  {
    "mu_place": "วัดสายไหม",
    "name": "โรงแรม เดอะ เจอร์นีย์ โฮเทล หลักสี่",
    "rating": 4.4,
    "address": "345, 65 ซอย งามวงศ์วาน 47 แยก 44 แขวงทุ่งสองห้อง เขตหลักสี่",
    "lat": 13.8706853,
    "lng": 100.5586534
  },
  {
    "mu_place": "วัดสายไหม",
    "name": "48 Ville Donmueang Airport",
    "rating": 4.1,
    "address": "94/1 ซอย พหลโยธิน 48 แยก 2 แขวงอนุสาวรีย์ เขตบางเขน",
    "lat": 13.8844411,
    "lng": 100.6064665
  },
  {
    "mu_place": "วัดสายไหม",
    "name": "โรงแรม นารา",
    "rating": 4.3,
    "address": "ซอย แจ้งวัฒนะ 13 แขวงทุ่งสองห้อง เขตหลักสี่",
    "lat": 13.8917905,
    "lng": 100.5624943
  },
  {
    "mu_place": "วัดสายไหม",
    "name": "โรงแรมลิโวเทล เอ็กซ์เพรส (รามคำแหง 50)",
    "rating": 3.5,
    "address": "26 ซอย รามคำแหง 50 หัวหมาก เขตบางกะปิ",
    "lat": 13.7597194,
    "lng": 100.6426302
  },
  {
    "mu_place": "วัดสายไหม",
    "name": "The Sky Loft Hotel",
    "rating": 4.1,
    "address": "ซอย คลองหลวง 8 ตำบล คลองหนึ่ง อำเภอคลองหลวง",
    "lat": 14.0079691,
    "lng": 100.6232756
  },
  {
    "mu_place": "วัดสายไหม",
    "name": "โรงแรม บารอน โซเทล ลาดพร้าว 117 - บางกะปิ",
    "rating": 4,
    "address": "77 ซอย ลาดพร้าว 117 แขวงคลองจั่น เขตบางกะปิ",
    "lat": 13.7723808,
    "lng": 100.640731
  },
  {
    "mu_place": "วัดสายไหม",
    "name": "THE Bedroom Ladprao 101",
    "rating": 4.1,
    "address": "99 Ladprao 101 yak 38 Klongchan Bangkapi",
    "lat": 13.7874874,
    "lng": 100.6311393
  },
  {
    "mu_place": "วัดสายไหม",
    "name": "The Home Hotel",
    "rating": 4.1,
    "address": "THE HOME HOTEL 119/1 ซอย รามคำแหง 50 แขวงหัวหมาก เขตบางกะปิ",
    "lat": 13.7548714,
    "lng": 100.6432517
  },
  {
    "mu_place": "วัดสายไหม",
    "name": "Natcha Place Thammasat Rangsit",
    "rating": 3,
    "address": "37/7 ซอยคลองหลวง 35 ตำบล คลองหนึ่ง อำเภอคลองหลวง",
    "lat": 14.0622719,
    "lng": 100.6158384
  },
  {
    "mu_place": "วัดสายไหม",
    "name": "Natcha Place Rangsit Donmuang",
    "rating": 2.7,
    "address": "733/23 Phahonyothin 80 Road Kukot, อำเภอลำลูกกา",
    "lat": 13.9658133,
    "lng": 100.6207712
  },
  {
    "mu_place": "วัดสายไหม",
    "name": "Sena House Lamlukka Klong2",
    "rating": 3.1,
    "address": "39 9 ถนน เสมาฟ้าคราม ตำบลคูคต อำเภอลำลูกกา",
    "lat": 13.9559334,
    "lng": 100.6427727
  },
  {
    "mu_place": "วัดสายไหม",
    "name": "Newman Hotel",
    "rating": 4.3,
    "address": "9/222 ม.10 ตำบล ลาดสวาย อำเภอลำลูกกา",
    "lat": 13.9723804,
    "lng": 100.665665
  },
  {
    "mu_place": "ลานพญาศรีสัตตนาคราช",
    "name": "Hotel VELA Dhi Nakhon Phanom",
    "rating": 4.7,
    "address": "ธาตุพนม 19 ถนน นครพนม, ตำบล ในเมือง อำเภอเมืองนครพนม",
    "lat": 17.3785505,
    "lng": 104.7939773
  },
  {
    "mu_place": "ลานพญาศรีสัตตนาคราช",
    "name": "Siam Grand Hotel Nakhonphanom (โรงแรมสยามแกรนด์)",
    "rating": 3.6,
    "address": "ทางหลวงจังหวัด นครพนม-มุกดาหาร ตำบล หนองแสง อำเภอเมืองนครพนม",
    "lat": 17.426368,
    "lng": 104.765586
  },
  {
    "mu_place": "ลานพญาศรีสัตตนาคราช",
    "name": "โรงแรมเดอะริเวอร์ นครพนม",
    "rating": 4.4,
    "address": "ธาตุพนม 35/9 ถนน นครพนม ตำบล ในเมือง อำเภอเมืองนครพนม",
    "lat": 17.3761524,
    "lng": 104.7942284
  },
  {
    "mu_place": "ลานพญาศรีสัตตนาคราช",
    "name": "โรงแรม ฟอร์จูนวิวโขง",
    "rating": 4.1,
    "address": "527 ซอย สุนทรวิจิตร ตำบล ในเมือง อำเภอเมืองนครพนม",
    "lat": 17.387102,
    "lng": 104.7935571
  },
  {
    "mu_place": "ลานพญาศรีสัตตนาคราช",
    "name": "โรงแรมชีวาโขง",
    "rating": 4.6,
    "address": "121/5 ถนนนครพนม-ท่าอุเทน ตำบล อาจสามารถ อำเภอเมืองนครพนม",
    "lat": 17.4334836,
    "lng": 104.7616688
  },
  {
    "mu_place": "ลานพญาศรีสัตตนาคราช",
    "name": "โรงแรม สิริรีเจ้นท์",
    "rating": 4.5,
    "address": "37 ถ.นครพนม-ธาตุพนม ในเมือง อำเภอเมืองนครพนม",
    "lat": 17.3751303,
    "lng": 104.793623
  },
  {
    "mu_place": "ลานพญาศรีสัตตนาคราช",
    "name": "โรงแรม เดอะ สแควร์โฮเทล นครพนม",
    "rating": 4.9,
    "address": "386 1 ซอย ธำรงค์ประสิทธิ์ ตำบล ในเมือง อำเภอเมืองนครพนม",
    "lat": 17.3990443,
    "lng": 104.7880118
  },
  {
    "mu_place": "ลานพญาศรีสัตตนาคราช",
    "name": "โรงแรมแลนด์มาร์คนครพนม",
    "rating": 4.4,
    "address": "2 9QXQ+PV3 1 ถนน นิตโย ตำบล ในเมือง อำเภอเมืองนครพนม",
    "lat": 17.3994074,
    "lng": 104.7899477
  },
  {
    "mu_place": "ลานพญาศรีสัตตนาคราช",
    "name": "โรงแรม ตองเจ็ด โฮมเทล ( 777Hometel )",
    "rating": 4,
    "address": "เลขที่ 75/4 ถ.บำรุงเมือง ต.ในเมือง อำเภอเมืองนครพนม",
    "lat": 17.4040063,
    "lng": 104.7856439
  },
  {
    "mu_place": "ลานพญาศรีสัตตนาคราช",
    "name": "โรงแรมรชาโขง",
    "rating": 4.4,
    "address": "16 ศรีเทพ ในเมือง เมือง",
    "lat": 17.4037346,
    "lng": 104.787413
  },
  {
    "mu_place": "ลานพญาศรีสัตตนาคราช",
    "name": "R2 Hotel",
    "rating": 4.4,
    "address": "234 8 ตำบล ท่าค้อ อำเภอเมืองนครพนม",
    "lat": 17.3515407,
    "lng": 104.7862679
  },
  {
    "mu_place": "ลานพญาศรีสัตตนาคราช",
    "name": "The Room Hotel โรงแรมเดอะรูม",
    "rating": 3.7,
    "address": "12/2 Kubathawhai Road T.Naimuang A, Muang",
    "lat": 17.4178525,
    "lng": 104.7772642
  },
  {
    "mu_place": "ลานพญาศรีสัตตนาคราช",
    "name": "The Square Hotel Nakhon Phanom",
    "rating": 5,
    "address": "9QXQ+J59, ตำบล ในเมือง, Nakhon Phanom",
    "lat": 17.3990397,
    "lng": 104.7880139
  },
  {
    "mu_place": "ลานพญาศรีสัตตนาคราช",
    "name": "Windsor hotel",
    "rating": 3.9,
    "address": "272 โรงแรมวินเซอร์ ถนน บำรุงเมือง ในเมือง เมือง",
    "lat": 17.4018448,
    "lng": 104.7856938
  },
  {
    "mu_place": "ลานพญาศรีสัตตนาคราช",
    "name": "Chic-Chid Kong Hotel & Cafe",
    "rating": 4.5,
    "address": "9QXR+Q2R ตำบล ในเมือง อำเภอเมืองนครพนม",
    "lat": 17.3994888,
    "lng": 104.7900548
  },
  {
    "mu_place": "ลานพญาศรีสัตตนาคราช",
    "name": "Take A Rest At Nakhon Phanom",
    "rating": 4.5,
    "address": "746 ถนน สุนทรวิจิตร ตำบล ในเมือง อำเภอเมืองนครพนม",
    "lat": 17.3928462,
    "lng": 104.7922957
  },
  {
    "mu_place": "ลานพญาศรีสัตตนาคราช",
    "name": "โรงแรมฟอร์จูน ริเวอร์วิว นครพนม",
    "rating": 4,
    "address": "ธาตุพนม 9 ถนนนครพนม ตำบล ในเมือง อำเภอเมืองนครพนม",
    "lat": 17.3824269,
    "lng": 104.7941056
  },
  {
    "mu_place": "ลานพญาศรีสัตตนาคราช",
    "name": "Blu Hotel Nakhon Phanom",
    "rating": 4.3,
    "address": "เลขที่ 133 ถนน นครพนม-ท่าอุเทน อาจสามารถ, อำเภอเมืองนครพนม",
    "lat": 17.4322144,
    "lng": 104.7628505
  },
  {
    "mu_place": "ลานพญาศรีสัตตนาคราช",
    "name": "โรงแรมแกรนด์",
    "rating": 3.4,
    "address": "210 ศรีเทพ ตำบล ในเมือง อำเภอเมืองนครพนม",
    "lat": 17.4005492,
    "lng": 104.7883834
  },
  {
    "mu_place": "ลานพญาศรีสัตตนาคราช",
    "name": "วิษศศิโฮมเทล W/SASI NAKHONPHANOM",
    "rating": 4.3,
    "address": "69 ถนน พินิจรังสรรค์ ในเมือง เมือง",
    "lat": 17.3938398,
    "lng": 104.7902583
  },
  {
    "mu_place": "หลวงพ่อฤาษีลิงดำ( พระราชพรหมยาน)",
    "name": "Chao Phraya Home",
    "rating": 4.2,
    "address": "30 Moo 7 Asia Road, Tumbon ตำบล น้ำทรง Amphoe Payuhakeeree",
    "lat": 15.4234177,
    "lng": 100.1309295
  },
  {
    "mu_place": "หลวงพ่อฤาษีลิงดำ( พระราชพรหมยาน)",
    "name": "โรงแรม ซีทูยู อุทัยธานี C2U Hotel Uthai-Thani",
    "rating": 3.9,
    "address": "88 ตำบล ท่าโพ อำเภอ หนองขาหย่าง",
    "lat": 15.3635937,
    "lng": 99.98394379999999
  },
  {
    "mu_place": "หลวงพ่อฤาษีลิงดำ( พระราชพรหมยาน)",
    "name": "บ้านสะแกกรัง รีสอร์ท",
    "rating": 4.1,
    "address": "118/7 ถนน ตำบล อุทัยใหม่ อำเภอเมืองอุทัยธานี",
    "lat": 15.3748676,
    "lng": 100.0342567
  },
  {
    "mu_place": "หลวงพ่อฤาษีลิงดำ( พระราชพรหมยาน)",
    "name": "S Ville",
    "rating": 4.2,
    "address": "295 ตำบล น้ำซึม อำเภอเมืองอุทัยธานี",
    "lat": 15.3716739,
    "lng": 100.0158
  },
  {
    "mu_place": "หลวงพ่อฤาษีลิงดำ( พระราชพรหมยาน)",
    "name": "โรงแรมมนตรีโฮเต็ล",
    "rating": 3.4,
    "address": "309 30 ถ. พหลโยธิน ตำบล บ้านกล้วย อำเภอเมืองชัยนาท",
    "lat": 15.1912907,
    "lng": 100.1326389
  },
  {
    "mu_place": "หลวงพ่อฤาษีลิงดำ( พระราชพรหมยาน)",
    "name": "มายอุทัย โฮเทล",
    "rating": 4.2,
    "address": "123/7 ถนน ซอย รักการดี ตำบล อุทัยใหม่ เมือง",
    "lat": 15.3734921,
    "lng": 100.0214246
  },
  {
    "mu_place": "หลวงพ่อฤาษีลิงดำ( พระราชพรหมยาน)",
    "name": "เฌิณ ชัยนาท",
    "rating": 4,
    "address": "ถนน พหลโยธิน เขาท่าพระ อำเภอเมืองชัยนาท",
    "lat": 15.1957735,
    "lng": 100.1270793
  },
  {
    "mu_place": "หลวงพ่อฤาษีลิงดำ( พระราชพรหมยาน)",
    "name": "Chaophayathara Riverside Hotel",
    "rating": 4,
    "address": "1013 หมู่ 4 บ้านกล้วย เมือง",
    "lat": 15.1664213,
    "lng": 100.132608
  },
  {
    "mu_place": "หลวงพ่อฤาษีลิงดำ( พระราชพรหมยาน)",
    "name": "สกายวิวรีสอร์ท ชัยนาท",
    "rating": 4.9,
    "address": "6597+79 ตำบล เขาท่าพระ อำเภอเมืองชัยนาท",
    "lat": 15.2180915,
    "lng": 100.1635478
  },
  {
    "mu_place": "หลวงพ่อฤาษีลิงดำ( พระราชพรหมยาน)",
    "name": "สุนันท์ บ้านพักริมคลอง Sunan Guesthouse",
    "rating": 4.3,
    "address": "63/4 ม.1 ต.น้ำซึม อ.เมือง จ",
    "lat": 15.3263471,
    "lng": 100.069944
  },
  {
    "mu_place": "หลวงพ่อฤาษีลิงดำ( พระราชพรหมยาน)",
    "name": "Baan U Sabai Poshtel (บ้านอยู่สบาย พอสเทล)",
    "rating": 4.7,
    "address": "188 5 ตำบล หางน้ำสาคร อำเภอมโนรมย์",
    "lat": 15.2972621,
    "lng": 100.1907881
  },
  {
    "mu_place": "หลวงพ่อฤาษีลิงดำ( พระราชพรหมยาน)",
    "name": "ท่าแพซุงโฮมสเตย์ - Tha Pae Sung Homestay",
    "rating": 5,
    "address": "162/3 ถนน ศรีอุทัย ตำบล อุทัยใหม่ อำเภอเมืองอุทัยธานี",
    "lat": 15.3777124,
    "lng": 100.0345587
  },
  {
    "mu_place": "หลวงพ่อฤาษีลิงดำ( พระราชพรหมยาน)",
    "name": "Araya Cottage",
    "rating": 4.7,
    "address": "117 หมู่ 6 อ เมือง จ, ตำบล น้ำซึม อำเภอเมืองอุทัยธานี",
    "lat": 15.3551229,
    "lng": 100.0282102
  },
  {
    "mu_place": "หลวงพ่อฤาษีลิงดำ( พระราชพรหมยาน)",
    "name": "อุทัยธานี รีสอร์ท",
    "rating": 4.5,
    "address": "111 2 ตำบล ท่าโพ อำเภอ หนองขาหย่าง",
    "lat": 15.3669271,
    "lng": 99.9975839
  },
  {
    "mu_place": "หลวงพ่อฤาษีลิงดำ( พระราชพรหมยาน)",
    "name": "บ้านต้นไม้โฮมสเตย์อุทัยธานี",
    "rating": 4.6,
    "address": "222 สะแกกรัง ตำบล สะแกกรัง เมือง",
    "lat": 15.3778328,
    "lng": 100.0446883
  },
  {
    "mu_place": "หลวงพ่อฤาษีลิงดำ( พระราชพรหมยาน)",
    "name": "บ้านก้ามปู อุทัยธานี",
    "rating": 4.3,
    "address": "675 ศรีอุทัย ตำบล อุทัยใหม่ อำเภอเมืองอุทัยธานี",
    "lat": 15.3878169,
    "lng": 100.0284728
  },
  {
    "mu_place": "หลวงพ่อฤาษีลิงดำ( พระราชพรหมยาน)",
    "name": "เรือนไม้สไตล์รีสอร์ท 1",
    "rating": 3.1,
    "address": "129 333 ตำบล อุทัยใหม่ อำเภอเมืองอุทัยธานี",
    "lat": 15.3689007,
    "lng": 100.0138182
  },
  {
    "mu_place": "หลวงพ่อฤาษีลิงดำ( พระราชพรหมยาน)",
    "name": "โรงแรม อุทัยเฮอริเทจ",
    "rating": 4.8,
    "address": "5 ซอย 11 ถนน ศรีอุทัย ตำบล อุทัยใหม่ อำเภอเมืองอุทัยธานี",
    "lat": 15.3788274,
    "lng": 100.0306051
  },
  {
    "mu_place": "หลวงพ่อฤาษีลิงดำ( พระราชพรหมยาน)",
    "name": "Ruanmai Style Resort 2",
    "rating": 4,
    "address": "20 Moo.2, T. Koh Tepo, A, อำเภอเมืองอุทัยธานี",
    "lat": 15.38482,
    "lng": 100.02032
  },
  {
    "mu_place": "หลวงพ่อฤาษีลิงดำ( พระราชพรหมยาน)",
    "name": "สระบัวเดอะเทอเรสโฮมสเตย์",
    "rating": 4.8,
    "address": "8 ซอย สุขเกษม ตำบล อุทัยใหม่ อำเภอเมืองอุทัยธานี",
    "lat": 15.3817181,
    "lng": 100.0265937
  },
  {
    "mu_place": "วัดสายไหม",
    "name": "นิทรา เรสซิเดนซ์",
    "rating": 4.7,
    "address": "462 หมู่ที่ 4 ซ. พหลโยธิน 62 ตำบลคูคต อำเภอลำลูกกา",
    "lat": 13.9418573,
    "lng": 100.6370299
  },
  {
    "mu_place": "วัดสายไหม",
    "name": "Bed By Cruise",
    "rating": 4,
    "address": "169, ท่าทราย, เมือง",
    "lat": 13.8871529,
    "lng": 100.5111063
  },
  {
    "mu_place": "วัดสายไหม",
    "name": "PP@Hotel Rangsit",
    "rating": 4,
    "address": "117 รังสิต-นครนายก 20 ตำบล ประชาธิปัตย์ อำเภอธัญบุรี",
    "lat": 13.9792323,
    "lng": 100.6278031
  },
  {
    "mu_place": "วัดสายไหม",
    "name": "Malizon Hotel & Residences โรงแรมมะลิซ้อน เรสซิเด้นซ์",
    "rating": 4.2,
    "address": "56 ซอย กรุงเทพนนท์ 4 ตำบลบางเขน ตำบลตลาดขวัญ",
    "lat": 13.8371615,
    "lng": 100.5197818
  },
  {
    "mu_place": "วัดสายไหม",
    "name": "โรงแรมฮ็อป อินน์ รังสิต",
    "rating": 4.4,
    "address": "92 2 ถ. พหลโยธิน ตำบล ประชาธิปัตย์ อำเภอธัญบุรี",
    "lat": 13.9859709,
    "lng": 100.6170001
  },
  {
    "mu_place": "วัดสายไหม",
    "name": "Viva Residence",
    "rating": 4,
    "address": "90 ถนน คู้บอน แขวงรามอินทรา เขตคันนายาว",
    "lat": 13.8446463,
    "lng": 100.6637178
  },
  {
    "mu_place": "วัดสายไหม",
    "name": "OYO 519 B Min Airport",
    "rating": 3,
    "address": "3 B Min Airport ซอย รามคำแหง 187 เขตมีนบุรี",
    "lat": 13.7999209,
    "lng": 100.7126281
  },
  {
    "mu_place": "วัดสายไหม",
    "name": "โรงแรมดอนเมือง",
    "rating": 3.9,
    "address": "5 สรณคมน์3 แยก 2 แขวงสีกัน เขตดอนเมือง",
    "lat": 13.9256773,
    "lng": 100.5984586
  },
  {
    "mu_place": "วัดสายไหม",
    "name": "โรงแรม เดอะ เจอร์นีย์ โฮเทล หลักสี่",
    "rating": 4.4,
    "address": "345, 65 ซอย งามวงศ์วาน 47 แยก 44 แขวงทุ่งสองห้อง เขตหลักสี่",
    "lat": 13.8706853,
    "lng": 100.5586534
  },
  {
    "mu_place": "วัดสายไหม",
    "name": "48 Ville Donmueang Airport",
    "rating": 4.1,
    "address": "94/1 ซอย พหลโยธิน 48 แยก 2 แขวงอนุสาวรีย์ เขตบางเขน",
    "lat": 13.8844411,
    "lng": 100.6064665
  },
  {
    "mu_place": "วัดสายไหม",
    "name": "โรงแรม นารา",
    "rating": 4.3,
    "address": "ซอย แจ้งวัฒนะ 13 แขวงทุ่งสองห้อง เขตหลักสี่",
    "lat": 13.8917905,
    "lng": 100.5624943
  },
  {
    "mu_place": "วัดสายไหม",
    "name": "โรงแรมลิโวเทล เอ็กซ์เพรส (รามคำแหง 50)",
    "rating": 3.5,
    "address": "26 ซอย รามคำแหง 50 หัวหมาก เขตบางกะปิ",
    "lat": 13.7597194,
    "lng": 100.6426302
  },
  {
    "mu_place": "วัดสายไหม",
    "name": "The Sky Loft Hotel",
    "rating": 4.1,
    "address": "ซอย คลองหลวง 8 ตำบล คลองหนึ่ง อำเภอคลองหลวง",
    "lat": 14.0079691,
    "lng": 100.6232756
  },
  {
    "mu_place": "วัดสายไหม",
    "name": "โรงแรม บารอน โซเทล ลาดพร้าว 117 - บางกะปิ",
    "rating": 4,
    "address": "77 ซอย ลาดพร้าว 117 แขวงคลองจั่น เขตบางกะปิ",
    "lat": 13.7723808,
    "lng": 100.640731
  },
  {
    "mu_place": "วัดสายไหม",
    "name": "THE Bedroom Ladprao 101",
    "rating": 4.1,
    "address": "99 Ladprao 101 yak 38 Klongchan Bangkapi",
    "lat": 13.7874874,
    "lng": 100.6311393
  },
  {
    "mu_place": "วัดสายไหม",
    "name": "The Home Hotel",
    "rating": 4.1,
    "address": "THE HOME HOTEL 119/1 ซอย รามคำแหง 50 แขวงหัวหมาก เขตบางกะปิ",
    "lat": 13.7548714,
    "lng": 100.6432517
  },
  {
    "mu_place": "วัดสายไหม",
    "name": "Natcha Place Thammasat Rangsit",
    "rating": 3,
    "address": "37/7 ซอยคลองหลวง 35 ตำบล คลองหนึ่ง อำเภอคลองหลวง",
    "lat": 14.0622719,
    "lng": 100.6158384
  },
  {
    "mu_place": "วัดสายไหม",
    "name": "Natcha Place Rangsit Donmuang",
    "rating": 2.7,
    "address": "733/23 Phahonyothin 80 Road Kukot, อำเภอลำลูกกา",
    "lat": 13.9658133,
    "lng": 100.6207712
  },
  {
    "mu_place": "วัดสายไหม",
    "name": "Sena House Lamlukka Klong2",
    "rating": 3.1,
    "address": "39 9 ถนน เสมาฟ้าคราม ตำบลคูคต อำเภอลำลูกกา",
    "lat": 13.9559334,
    "lng": 100.6427727
  },
  {
    "mu_place": "วัดสายไหม",
    "name": "Newman Hotel",
    "rating": 4.3,
    "address": "9/222 ม.10 ตำบล ลาดสวาย อำเภอลำลูกกา",
    "lat": 13.9723804,
    "lng": 100.665665
  },
  {
    "mu_place": "พุทธสถาน จีเต็กลิ้ม",
    "name": "โรงแรมสัปปายะ",
    "rating": 4.5,
    "address": "Unnamed Road ตำบล ดอนเกาะกา อำเภอบางน้ำเปรี้ยว",
    "lat": 13.960935,
    "lng": 101.0565654
  },
  {
    "mu_place": "พุทธสถาน จีเต็กลิ้ม",
    "name": "tt Residence​",
    "rating": 4.3,
    "address": "4 6 ตำบล บางขนาก อำเภอบางน้ำเปรี้ยว",
    "lat": 13.8477661,
    "lng": 101.0821677
  },
  {
    "mu_place": "พุทธสถาน จีเต็กลิ้ม",
    "name": "บ้านชมภูรีสอร์ท",
    "rating": 4.1,
    "address": "102 1 ตำบล ท่าช้าง อำเภอเมืองนครนายก",
    "lat": 14.200863,
    "lng": 101.1983319
  },
  {
    "mu_place": "พุทธสถาน จีเต็กลิ้ม",
    "name": "Deva Garden Resort",
    "rating": 4,
    "address": "ตำบล ไม้เค็ด อำเภอเมืองปราจีนบุรี",
    "lat": 14.1080458,
    "lng": 101.3430626
  },
  {
    "mu_place": "พุทธสถาน จีเต็กลิ้ม",
    "name": "บ้านภูริตา รีสอร์ท (Baan PURITA)",
    "rating": 4,
    "address": "หมู่ที่ 9 6/19 ตำบล บางขนาก อำเภอบางน้ำเปรี้ยว",
    "lat": 13.8480094,
    "lng": 101.0811707
  },
  {
    "mu_place": "พุทธสถาน จีเต็กลิ้ม",
    "name": "ข้าวหอมรีสอร์ท",
    "rating": 4.5,
    "address": "15 Moo1 Tambon Ko wai, Amphoe Pakplee Nakhon Nayok",
    "lat": 14.1695059,
    "lng": 101.255981
  },
  {
    "mu_place": "พุทธสถาน จีเต็กลิ้ม",
    "name": "Arthit-tara",
    "rating": 4.5,
    "address": "78-78 1 ตำบล บางยาง อำเภอ บ้านสร้าง",
    "lat": 13.936511,
    "lng": 101.193875
  },
  {
    "mu_place": "พุทธสถาน จีเต็กลิ้ม",
    "name": "อรุณสวัสดิ์ ริเวอร์วิว รีสอร์ท",
    "rating": 4,
    "address": "81 หมู่ที่ 3 ตำบลบางเดชะ อำเภอเมืองปราจีนบุรี, ปราจีนบุรี",
    "lat": 14.0136614,
    "lng": 101.337359
  },
  {
    "mu_place": "พุทธสถาน จีเต็กลิ้ม",
    "name": "Nernbok Garden",
    "rating": 4.5,
    "address": "122 Moo 1 Nahinlad Parkplee",
    "lat": 14.2073643,
    "lng": 101.3551481
  },
  {
    "mu_place": "พุทธสถาน จีเต็กลิ้ม",
    "name": "Nava Resort ปากพลี นครนายก",
    "rating": 4,
    "address": "157 ถ. สุวรรณศร ตำบล เกาะหวาย อำเภอปากพลี",
    "lat": 14.169882,
    "lng": 101.255836
  },
  {
    "mu_place": "พุทธสถาน จีเต็กลิ้ม",
    "name": "โรงแรมกอบเกื้อพาเลซ (KOB KUEA BOUTIQUE HOTEL)",
    "rating": 3,
    "address": "420 ข/1 ธงไชย ตำบล นครนายก อำเภอเมืองนครนายก",
    "lat": 14.2027728,
    "lng": 101.2141884
  },
  {
    "mu_place": "พุทธสถาน จีเต็กลิ้ม",
    "name": "NT รีสอร์ท",
    "rating": 4,
    "address": "45XP+Q62 ตำบล ดงละคร อำเภอเมืองนครนายก",
    "lat": 14.1496729,
    "lng": 101.1853011
  },
  {
    "mu_place": "พุทธสถาน จีเต็กลิ้ม",
    "name": "โรงแรมศิริ​ รีโซเทล​",
    "rating": 4.4,
    "address": "1-303/51 ตำบล นครนายก เมือง",
    "lat": 14.2070267,
    "lng": 101.2103627
  },
  {
    "mu_place": "พุทธสถาน จีเต็กลิ้ม",
    "name": "โรงแรมหนองเต่า",
    "rating": 2.5,
    "address": "48WV+V7Q ตำบล เนินหอม อำเภอเมืองปราจีนบุรี",
    "lat": 14.1472155,
    "lng": 101.3432288
  },
  {
    "mu_place": "พุทธสถาน จีเต็กลิ้ม",
    "name": "โรงแรมอรุณสวัสดิ์ ริเวอร์วิว รีสอร์ท",
    "rating": 5,
    "address": "หมู่ที่ 1 81 ตำบล บางเดชะ อำเภอเมืองปราจีนบุรี",
    "lat": 14.0062012,
    "lng": 101.3544525
  },
  {
    "mu_place": "พุทธสถาน จีเต็กลิ้ม",
    "name": "Sweet Hotel",
    "rating": 3.6,
    "address": "111 Moo 1, Tambon Rop Muang, Amphoe Mueang, Prachin Buri, 25000",
    "lat": 14.0610997,
    "lng": 101.3616785
  },
  {
    "mu_place": "พุทธสถาน จีเต็กลิ้ม",
    "name": "ป๊อปอาย รีสอร์ท",
    "rating": 4.7,
    "address": "หมู่ที่ 7 111 ตำบล เนินหอม อำเภอเมืองปราจีนบุรี",
    "lat": 14.1468547,
    "lng": 101.3448039
  },
  {
    "mu_place": "พุทธสถาน จีเต็กลิ้ม",
    "name": "สวีทโฮเทล",
    "rating": 3.6,
    "address": "36 หมู่2 ตำบล หน้าเมือง อำเภอเมืองปราจีนบุรี",
    "lat": 14.0612388,
    "lng": 101.3614563
  },
  {
    "mu_place": "พุทธสถาน จีเต็กลิ้ม",
    "name": "เย็นสบายรีสอร์ท",
    "rating": 4.4,
    "address": "ทางหลวงแผ่นดินหมายเลข. 3288 ตำบล นาหินลาด อำเภอปากพลี",
    "lat": 14.1934452,
    "lng": 101.329156
  },
  {
    "mu_place": "พุทธสถาน จีเต็กลิ้ม",
    "name": "บ้านเพื่อน รีสอร์ท",
    "rating": 3.3,
    "address": "Thailand, ถ. สุวรรณศร ตำบล เกาะโพธิ์ อำเภอปากพลี",
    "lat": 14.1735296,
    "lng": 101.2492652
  },
  {
    "mu_place": "ศาลาหลวงปู่ดู่",
    "name": "VELA Riverview",
    "rating": 4.7,
    "address": "168 ตำบล บ่อโพง อำเภอนครหลวง",
    "lat": 14.4024853,
    "lng": 100.5839658
  },
  {
    "mu_place": "ศาลาหลวงปู่ดู่",
    "name": "Sopisa boutique hotel ayutthaya",
    "rating": 4.4,
    "address": "ตำบล นครหลวง อำเภอนครหลวง",
    "lat": 14.4603125,
    "lng": 100.6120625
  },
  {
    "mu_place": "ศาลาหลวงปู่ดู่",
    "name": "Hotel M Rojana Ayutthaya โรงแรมเอ็ม โรจนะ อยุธยา",
    "rating": 4.1,
    "address": "บ้านสร้าง 247-248 ถนน โรจนะ อำเภอบางปะอิน",
    "lat": 14.2844086,
    "lng": 100.6705811
  },
  {
    "mu_place": "ศาลาหลวงปู่ดู่",
    "name": "Tm Land Hotel",
    "rating": 3.7,
    "address": "99 32, Asian Highway 1, ตำบล คานหาม อำเภออุทัย",
    "lat": 14.3210947,
    "lng": 100.6305167
  },
  {
    "mu_place": "ศาลาหลวงปู่ดู่",
    "name": "Hiso potato Resort",
    "rating": 4.1,
    "address": "150 ตำบล ลำไทร อำเภอวังน้อย",
    "lat": 14.1966178,
    "lng": 100.6489312
  },
  {
    "mu_place": "ศาลาหลวงปู่ดู่",
    "name": "โรงแรม แอท อยุธยา",
    "rating": 4.1,
    "address": "69 หมู่7 อำเภอบางปะอิน",
    "lat": 14.3239858,
    "lng": 100.6121659
  },
  {
    "mu_place": "ศาลาหลวงปู่ดู่",
    "name": "Mayuu Ayutthaya Hotel",
    "rating": 4.5,
    "address": "99 หมู่ 7 คลองสวนพลู อำเภอ พระนครศรีอยุธยา",
    "lat": 14.3325613,
    "lng": 100.6035504
  },
  {
    "mu_place": "ศาลาหลวงปู่ดู่",
    "name": "โรงแรม โรสการ์เด้น อยุธยา",
    "rating": 3.7,
    "address": "27 12 ซอย ไผ่ลิง 6 ตำบล ไผ่ลิง อำเภอ พระนครศรีอยุธยา",
    "lat": 14.3545657,
    "lng": 100.6033002
  },
  {
    "mu_place": "ศาลาหลวงปู่ดู่",
    "name": "โรงแรมโต่บักเส็ง อยุธยา",
    "rating": 3.9,
    "address": "99, อำเภอนครหลวง",
    "lat": 14.46012,
    "lng": 100.6019941
  },
  {
    "mu_place": "ศาลาหลวงปู่ดู่",
    "name": "บางปะอินเพลส",
    "rating": 3.6,
    "address": "ตำบล คลองจิก อำเภอบางปะอิน",
    "lat": 14.2025064,
    "lng": 100.5955033
  },
  {
    "mu_place": "ศาลาหลวงปู่ดู่",
    "name": "โรงแรมพร้อมสุข อยุธยา",
    "rating": 3.8,
    "address": "11 44-45 ถนน ปรีดี พนมยงค์ ตำบลหอรัตนไชย อำเภอ พระนครศรีอยุธยา",
    "lat": 14.3504158,
    "lng": 100.5769773
  },
  {
    "mu_place": "ศาลาหลวงปู่ดู่",
    "name": "โรงแรม กรุงศรี ริเวอร์ อยุธยา",
    "rating": 4,
    "address": "27/2 หมู่ที่11 ถ.โรจนะ ตำบล กะมัง อำเภอ พระนครศรีอยุธยา",
    "lat": 14.3530765,
    "lng": 100.5826663
  },
  {
    "mu_place": "ศาลาหลวงปู่ดู่",
    "name": "RUS Hotel&Convention",
    "rating": 4.9,
    "address": "ถ.สายเอเซีย (กรุงเทพฯ - นครสวรรค์ หันตรา, อำเภอ พระนครศรีอยุธยา",
    "lat": 14.3783184,
    "lng": 100.6061531
  },
  {
    "mu_place": "ศาลาหลวงปู่ดู่",
    "name": "Ayothaya Riverside Hotel",
    "rating": 3.2,
    "address": "91/1 Moo 10, Kamong, อำเภอ พระนครศรีอยุธยา",
    "lat": 14.355034,
    "lng": 100.58198
  },
  {
    "mu_place": "ศาลาหลวงปู่ดู่",
    "name": "โรงแรม สวีท อินน์ รีสอร์ท",
    "rating": 3.4,
    "address": "10 ซอย 2 หมู่ 1 ตำบล พุทเลา อำเภอบางปะหัน",
    "lat": 14.4049298,
    "lng": 100.5416407
  },
  {
    "mu_place": "ศาลาหลวงปู่ดู่",
    "name": "โรงแรมโอเชี่ยนโกล์ดการ์ด",
    "rating": 3.8,
    "address": "64, 6 ซอยน้องแดง, ตำบล ธนู อำเภออุทัย",
    "lat": 14.3432106,
    "lng": 100.6072805
  },
  {
    "mu_place": "ศาลาหลวงปู่ดู่",
    "name": "โรงแรมสิปป & silp-pa cafe",
    "rating": 4.3,
    "address": "ตำบล ประตูชัย อำเภอ พระนครศรีอยุธยา",
    "lat": 14.3522693,
    "lng": 100.5745715
  },
  {
    "mu_place": "ศาลาหลวงปู่ดู่",
    "name": "ศรีกรุงดีลักซ์ (Srikrung Deluxe Hotel)",
    "rating": 3.6,
    "address": "ไผ่ลืง 5/6 8",
    "lat": 14.3552692,
    "lng": 100.5911089
  },
  {
    "mu_place": "ศาลาหลวงปู่ดู่",
    "name": "OYO 952 Ocean Gold Card Ayutthaya",
    "rating": 3.8,
    "address": "64 ซอย 6 ตำบล ธนู อำเภอ พระนครศรีอยุธยา",
    "lat": 14.3427345,
    "lng": 100.6072432
  },
  {
    "mu_place": "ศาลาหลวงปู่ดู่",
    "name": "บ้านสบายดี",
    "rating": 3,
    "address": "16 7 ตำบลวัดปูน อำเภอ พระนครศรีอยุธยา",
    "lat": 14.387457,
    "lng": 100.5341454
  },
  {
    "mu_place": "วัดดาวดึงษาราม",
    "name": "Bed By Cruise",
    "rating": 4,
    "address": "169, ท่าทราย, เมือง",
    "lat": 13.8871529,
    "lng": 100.5111063
  },
  {
    "mu_place": "วัดดาวดึงษาราม",
    "name": "Viva Residence",
    "rating": 4,
    "address": "90 ถนน คู้บอน แขวงรามอินทรา เขตคันนายาว",
    "lat": 13.8446463,
    "lng": 100.6637178
  },
  {
    "mu_place": "วัดดาวดึงษาราม",
    "name": "โรงแรมดอนเมือง",
    "rating": 3.9,
    "address": "5 สรณคมน์3 แยก 2 แขวงสีกัน เขตดอนเมือง",
    "lat": 13.9256773,
    "lng": 100.5984586
  },
  {
    "mu_place": "วัดดาวดึงษาราม",
    "name": "The Residence Thepkanjana",
    "rating": 4.3,
    "address": "403 ซอย คลองมะเดื่อ 12 ตำบล คลองมะเดื่อ อำเภอกระทุ่มแบน",
    "lat": 13.6256767,
    "lng": 100.3052499
  },
  {
    "mu_place": "วัดดาวดึงษาราม",
    "name": "48 Ville Donmueang Airport",
    "rating": 4.1,
    "address": "94/1 ซอย พหลโยธิน 48 แยก 2 แขวงอนุสาวรีย์ เขตบางเขน",
    "lat": 13.8844411,
    "lng": 100.6064665
  },
  {
    "mu_place": "วัดดาวดึงษาราม",
    "name": "Pranot Apartment & Spa",
    "rating": 4.4,
    "address": "41/49 ชั้น 2 4 ถ. บางกรวย - ไทรน้อย ตำบล บางกร่าง เมือน",
    "lat": 13.8393983,
    "lng": 100.4550125
  },
  {
    "mu_place": "วัดดาวดึงษาราม",
    "name": "โรงแรมลิโวเทล เอ็กซ์เพรส (รามคำแหง 50)",
    "rating": 3.5,
    "address": "26 ซอย รามคำแหง 50 หัวหมาก เขตบางกะปิ",
    "lat": 13.7597194,
    "lng": 100.6426302
  },
  {
    "mu_place": "วัดดาวดึงษาราม",
    "name": "Malizon Hotel & Residences โรงแรมมะลิซ้อน เรสซิเด้นซ์",
    "rating": 4.2,
    "address": "56 ซอย กรุงเทพนนท์ 4 ตำบลบางเขน ตำบลตลาดขวัญ",
    "lat": 13.8371615,
    "lng": 100.5197818
  },
  {
    "mu_place": "วัดดาวดึงษาราม",
    "name": "THE Bedroom Ladprao 101",
    "rating": 4.1,
    "address": "99 Ladprao 101 yak 38 Klongchan Bangkapi",
    "lat": 13.7874874,
    "lng": 100.6311393
  },
  {
    "mu_place": "วัดดาวดึงษาราม",
    "name": "OYO 427 Chill Apartment",
    "rating": 3.6,
    "address": "Chill Apartment, 46 ซอย เพชรเกษม 67 แยก 4 แขวงหลักสอง เขตบางแค",
    "lat": 13.7072396,
    "lng": 100.3788512
  },
  {
    "mu_place": "วัดดาวดึงษาราม",
    "name": "Boom inn(ID LINE: boominn)",
    "rating": 4.2,
    "address": "88, 2 Soi Thairomklao, ตำบล บางม่วง Bangyai District",
    "lat": 13.8408315,
    "lng": 100.4088324
  },
  {
    "mu_place": "วัดดาวดึงษาราม",
    "name": "เบน เรสซิเดนซ์",
    "rating": 3.9,
    "address": "551/1 ถ. พระราม 2 ซ. 69 แขวงแสมดำ เขตบางขุนเทียน",
    "lat": 13.6401382,
    "lng": 100.4290599
  },
  {
    "mu_place": "วัดดาวดึงษาราม",
    "name": "The Home Hotel",
    "rating": 4.1,
    "address": "THE HOME HOTEL 119/1 ซอย รามคำแหง 50 แขวงหัวหมาก เขตบางกะปิ",
    "lat": 13.7548714,
    "lng": 100.6432517
  },
  {
    "mu_place": "วัดดาวดึงษาราม",
    "name": "โรงแรมนันทรา สุขุมวิท39",
    "rating": 3.2,
    "address": "แขวงคลองตันเหนือ เขตวัฒนา",
    "lat": 13.7311691,
    "lng": 100.5701829
  },
  {
    "mu_place": "วัดดาวดึงษาราม",
    "name": "Platinums",
    "rating": 3.8,
    "address": "102 ถนน พระรามที่ 2 ซอย 54 แยก 4 แขวงแสมดำ เขตบางขุนเทียน",
    "lat": 13.6689383,
    "lng": 100.4322159
  },
  {
    "mu_place": "วัดดาวดึงษาราม",
    "name": "14 รีสอร์ท",
    "rating": 4.1,
    "address": "2/1-3 35/1 ถ. เพชรเกษม แขวงบางหว้า เขตภาษีเจริญ",
    "lat": 13.7114159,
    "lng": 100.4322334
  },
  {
    "mu_place": "วัดดาวดึงษาราม",
    "name": "Livotel Express Hotel Bang Kruai Nonthaburi",
    "rating": 3.7,
    "address": "การไฟฟ้าฝ่ายผลิต 60/111 ซ.กำนันอุทัย, ถ ตำบล บางกรวย อำเภอบางกรวย",
    "lat": 13.8108236,
    "lng": 100.5080327
  },
  {
    "mu_place": "วัดดาวดึงษาราม",
    "name": "โรงแรม บารอน โซเทล ลาดพร้าว 117 - บางกะปิ",
    "rating": 4,
    "address": "77 ซอย ลาดพร้าว 117 แขวงคลองจั่น เขตบางกะปิ",
    "lat": 13.7723808,
    "lng": 100.640731
  },
  {
    "mu_place": "วัดดาวดึงษาราม",
    "name": "โรงแรมรีเจนท์ งามวงศ์วาน",
    "rating": 3.9,
    "address": "9/1-201 ซ. งามวงศ์วาน 9 บางกระสอ อำเภอเมืองนนทบุรี",
    "lat": 13.8597974,
    "lng": 100.5281792
  },
  {
    "mu_place": "วัดดาวดึงษาราม",
    "name": "The Bangkok Major Suite",
    "rating": 3.7,
    "address": "1658 18-21 ซอย พหลโยธิน 30/1 แขวงจันทรเกษม เขตจตุจักร",
    "lat": 13.8311487,
    "lng": 100.5720703
  },
  {
    "mu_place": "วิหารหลวงพ่อสำเร็จศักดิ์สิทธิ์",
    "name": "แกรนด์พฤกษาสิริ สระบุรี",
    "rating": 3.6,
    "address": "51 51 ถ. เทศบาล 1 ตำบล ปากเพรียว อำเภอเมืองสระบุรี",
    "lat": 14.5080277,
    "lng": 100.9099101
  },
  {
    "mu_place": "วิหารหลวงพ่อสำเร็จศักดิ์สิทธิ์",
    "name": "Sopisa boutique hotel ayutthaya",
    "rating": 4.4,
    "address": "ตำบล นครหลวง อำเภอนครหลวง",
    "lat": 14.4603125,
    "lng": 100.6120625
  },
  {
    "mu_place": "วิหารหลวงพ่อสำเร็จศักดิ์สิทธิ์",
    "name": "โรงแรมไซมอนอินน์",
    "rating": 4.1,
    "address": "109 9 ตำบล ปากเพรียว อำเภอเมืองสระบุรี",
    "lat": 14.5145778,
    "lng": 100.9081565
  },
  {
    "mu_place": "วิหารหลวงพ่อสำเร็จศักดิ์สิทธิ์",
    "name": "Hotel M Rojana Ayutthaya โรงแรมเอ็ม โรจนะ อยุธยา",
    "rating": 4.1,
    "address": "บ้านสร้าง 247-248 ถนน โรจนะ อำเภอบางปะอิน",
    "lat": 14.2844086,
    "lng": 100.6705811
  },
  {
    "mu_place": "วิหารหลวงพ่อสำเร็จศักดิ์สิทธิ์",
    "name": "โรงแรม แอท อยุธยา",
    "rating": 4.1,
    "address": "69 หมู่7 อำเภอบางปะอิน",
    "lat": 14.3239858,
    "lng": 100.6121659
  },
  {
    "mu_place": "วิหารหลวงพ่อสำเร็จศักดิ์สิทธิ์",
    "name": "Tm Land Hotel",
    "rating": 3.7,
    "address": "99 32, Asian Highway 1, ตำบล คานหาม อำเภออุทัย",
    "lat": 14.3210947,
    "lng": 100.6305167
  },
  {
    "mu_place": "วิหารหลวงพ่อสำเร็จศักดิ์สิทธิ์",
    "name": "Hotel Chuan Chom The High Resort ชวนชม เดอะ ไฮท์ รีสอร์ท สระบุรี",
    "rating": 4.2,
    "address": "46/5 Tessaban 8 Road, ตำบล ปากเพรียว อำเภอเมืองสระบุรี",
    "lat": 14.5267039,
    "lng": 100.9168559
  },
  {
    "mu_place": "วิหารหลวงพ่อสำเร็จศักดิ์สิทธิ์",
    "name": "ริเวอร์ เรสซิเดนซ์2 สระบุรี",
    "rating": 3.9,
    "address": "109 หมู่ 8 ปากทางเข้า ซอย หมู่บ้านสุขสวัสดิ์ ตำบล ตลิ่งชัน อำเภอเมืองสระบุรี",
    "lat": 14.5387606,
    "lng": 100.9484342
  },
  {
    "mu_place": "วิหารหลวงพ่อสำเร็จศักดิ์สิทธิ์",
    "name": "พาราไดซ์ อินน์ แอนด์ ไดน์นิ่ง",
    "rating": 4.1,
    "address": "59 หมู่ที่ 2 ถ. สุวรรณศร ตำบล บัวลอย อำเภอหนองแค",
    "lat": 14.4124031,
    "lng": 100.8331691
  },
  {
    "mu_place": "วิหารหลวงพ่อสำเร็จศักดิ์สิทธิ์",
    "name": "โรงแรมกู๊ดเรสซิเดนซ์",
    "rating": 4.2,
    "address": "36 ถ. พหลโยธินสายเก่า ตำบล หนองแค อำเภอหนองแค",
    "lat": 14.344525,
    "lng": 100.8576215
  },
  {
    "mu_place": "วิหารหลวงพ่อสำเร็จศักดิ์สิทธิ์",
    "name": "RUS Hotel&Convention",
    "rating": 4.9,
    "address": "ถ.สายเอเซีย (กรุงเทพฯ - นครสวรรค์ หันตรา, อำเภอ พระนครศรีอยุธยา",
    "lat": 14.3783184,
    "lng": 100.6061531
  },
  {
    "mu_place": "วิหารหลวงพ่อสำเร็จศักดิ์สิทธิ์",
    "name": "Glai Gan Place Hotel Saraburi โรงแรมใกล้กันเพลส สระบุรี",
    "rating": 4.2,
    "address": "เลขที่ 66 ซอย 1 ถนนเทศบาล 4 ตำบลปากเพรียว อำเภอเมือง",
    "lat": 14.5352338,
    "lng": 100.9140319
  },
  {
    "mu_place": "วิหารหลวงพ่อสำเร็จศักดิ์สิทธิ์",
    "name": "โรงแรมเมืองเพรียวอินน์",
    "rating": 3.9,
    "address": "12 ถนนเทศบาล 6 อำเภอเมืองสระบุรี",
    "lat": 14.5222877,
    "lng": 100.9360856
  },
  {
    "mu_place": "วิหารหลวงพ่อสำเร็จศักดิ์สิทธิ์",
    "name": "Phurinda Residence Saraburi",
    "rating": 4,
    "address": "42/16, 48/7 9 ถ. พหลโยธินสายเก่า ตำบล หนองแค อำเภอหนองแค",
    "lat": 14.3458065,
    "lng": 100.8595115
  },
  {
    "mu_place": "วิหารหลวงพ่อสำเร็จศักดิ์สิทธิ์",
    "name": "ลานรับลม Laan Rab Lom Home & Cafe'",
    "rating": 4.3,
    "address": "47/16 ถ.พหลโยธินเก่า หนองแค อำเภอหนองแค",
    "lat": 14.3481734,
    "lng": 100.8594374
  },
  {
    "mu_place": "วิหารหลวงพ่อสำเร็จศักดิ์สิทธิ์",
    "name": "The White Garden Premier Saraburi เดอะไวท์การ์เดน สระบุรี",
    "rating": 3.5,
    "address": "เลขที่ 15/5 ถนนบายพาสสระบุรี ฝั่งตะวันออก ตำบล ปากเพรียว อำเภอเมืองสระบุรี",
    "lat": 14.50679,
    "lng": 100.9086052
  },
  {
    "mu_place": "วิหารหลวงพ่อสำเร็จศักดิ์สิทธิ์",
    "name": "โรงแรมโอเชี่ยนโกล์ดการ์ด",
    "rating": 3.8,
    "address": "64, 6 ซอยน้องแดง, ตำบล ธนู อำเภออุทัย",
    "lat": 14.3432106,
    "lng": 100.6072805
  },
  {
    "mu_place": "วิหารหลวงพ่อสำเร็จศักดิ์สิทธิ์",
    "name": "โรงแรมกู๊ดอินน์",
    "rating": 4,
    "address": "36, Tambon Nong Khae, Amphoe Nong Khae, Saraburi, 18140 ‎, หนองแค, อำเภอหนองแค",
    "lat": 14.3446938,
    "lng": 100.857903
  },
  {
    "mu_place": "วิหารหลวงพ่อสำเร็จศักดิ์สิทธิ์",
    "name": "โรงแรมไฮโฮเต็ล (Hi Hotel)",
    "rating": 4.4,
    "address": "3 9 ตำบล ห้วยขมิ้น อำเภอหนองแค",
    "lat": 14.4095344,
    "lng": 100.8898665
  },
  {
    "mu_place": "วิหารหลวงพ่อสำเร็จศักดิ์สิทธิ์",
    "name": "OYO 952 Ocean Gold Card Ayutthaya",
    "rating": 3.8,
    "address": "64 ซอย 6 ตำบล ธนู อำเภอ พระนครศรีอยุธยา",
    "lat": 14.3427345,
    "lng": 100.6072432
  },
  {
    "mu_place": "หลวงพ่อรวย วัดตะโก",
    "name": "VELA Riverview",
    "rating": 4.7,
    "address": "168 ตำบล บ่อโพง อำเภอนครหลวง",
    "lat": 14.4024853,
    "lng": 100.5839658
  },
  {
    "mu_place": "หลวงพ่อรวย วัดตะโก",
    "name": "Sopisa boutique hotel ayutthaya",
    "rating": 4.4,
    "address": "ตำบล นครหลวง อำเภอนครหลวง",
    "lat": 14.4603125,
    "lng": 100.6120625
  },
  {
    "mu_place": "หลวงพ่อรวย วัดตะโก",
    "name": "โรงแรม แอท อยุธยา",
    "rating": 4.1,
    "address": "69 หมู่7 อำเภอบางปะอิน",
    "lat": 14.3239858,
    "lng": 100.6121659
  },
  {
    "mu_place": "หลวงพ่อรวย วัดตะโก",
    "name": "Tm Land Hotel",
    "rating": 3.7,
    "address": "99 32, Asian Highway 1, ตำบล คานหาม อำเภออุทัย",
    "lat": 14.3210947,
    "lng": 100.6305167
  },
  {
    "mu_place": "หลวงพ่อรวย วัดตะโก",
    "name": "Mayuu Ayutthaya Hotel",
    "rating": 4.5,
    "address": "99 หมู่ 7 คลองสวนพลู อำเภอ พระนครศรีอยุธยา",
    "lat": 14.3325613,
    "lng": 100.6035504
  },
  {
    "mu_place": "หลวงพ่อรวย วัดตะโก",
    "name": "โรงแรม โรสการ์เด้น อยุธยา",
    "rating": 3.7,
    "address": "27 12 ซอย ไผ่ลิง 6 ตำบล ไผ่ลิง อำเภอ พระนครศรีอยุธยา",
    "lat": 14.3545657,
    "lng": 100.6033002
  },
  {
    "mu_place": "หลวงพ่อรวย วัดตะโก",
    "name": "พาราไดซ์ อินน์ แอนด์ ไดน์นิ่ง",
    "rating": 4.1,
    "address": "59 หมู่ที่ 2 ถ. สุวรรณศร ตำบล บัวลอย อำเภอหนองแค",
    "lat": 14.4124031,
    "lng": 100.8331691
  },
  {
    "mu_place": "หลวงพ่อรวย วัดตะโก",
    "name": "โรงแรมโต่บักเส็ง อยุธยา",
    "rating": 3.9,
    "address": "99, อำเภอนครหลวง",
    "lat": 14.46012,
    "lng": 100.6019941
  },
  {
    "mu_place": "หลวงพ่อรวย วัดตะโก",
    "name": "โรงแรมพร้อมสุข อยุธยา",
    "rating": 3.8,
    "address": "11 44-45 ถนน ปรีดี พนมยงค์ ตำบลหอรัตนไชย อำเภอ พระนครศรีอยุธยา",
    "lat": 14.3504158,
    "lng": 100.5769773
  },
  {
    "mu_place": "หลวงพ่อรวย วัดตะโก",
    "name": "RUS Hotel&Convention",
    "rating": 4.9,
    "address": "ถ.สายเอเซีย (กรุงเทพฯ - นครสวรรค์ หันตรา, อำเภอ พระนครศรีอยุธยา",
    "lat": 14.3783184,
    "lng": 100.6061531
  },
  {
    "mu_place": "หลวงพ่อรวย วัดตะโก",
    "name": "โรงแรมกู๊ดเรสซิเดนซ์",
    "rating": 4.2,
    "address": "36 ถ. พหลโยธินสายเก่า ตำบล หนองแค อำเภอหนองแค",
    "lat": 14.344525,
    "lng": 100.8576215
  },
  {
    "mu_place": "หลวงพ่อรวย วัดตะโก",
    "name": "โรงแรม กรุงศรี ริเวอร์ อยุธยา",
    "rating": 4,
    "address": "27/2 หมู่ที่11 ถ.โรจนะ ตำบล กะมัง อำเภอ พระนครศรีอยุธยา",
    "lat": 14.3530765,
    "lng": 100.5826663
  },
  {
    "mu_place": "หลวงพ่อรวย วัดตะโก",
    "name": "ลานรับลม Laan Rab Lom Home & Cafe'",
    "rating": 4.3,
    "address": "47/16 ถ.พหลโยธินเก่า หนองแค อำเภอหนองแค",
    "lat": 14.3481734,
    "lng": 100.8594374
  },
  {
    "mu_place": "หลวงพ่อรวย วัดตะโก",
    "name": "Ayothaya Riverside Hotel",
    "rating": 3.2,
    "address": "91/1 Moo 10, Kamong, อำเภอ พระนครศรีอยุธยา",
    "lat": 14.355034,
    "lng": 100.58198
  },
  {
    "mu_place": "หลวงพ่อรวย วัดตะโก",
    "name": "Phurinda Residence Saraburi",
    "rating": 4,
    "address": "42/16, 48/7 9 ถ. พหลโยธินสายเก่า ตำบล หนองแค อำเภอหนองแค",
    "lat": 14.3458065,
    "lng": 100.8595115
  },
  {
    "mu_place": "หลวงพ่อรวย วัดตะโก",
    "name": "โรงแรม สวีท อินน์ รีสอร์ท",
    "rating": 3.4,
    "address": "10 ซอย 2 หมู่ 1 ตำบล พุทเลา อำเภอบางปะหัน",
    "lat": 14.4049298,
    "lng": 100.5416407
  },
  {
    "mu_place": "หลวงพ่อรวย วัดตะโก",
    "name": "โรงแรมโอเชี่ยนโกล์ดการ์ด",
    "rating": 3.8,
    "address": "64, 6 ซอยน้องแดง, ตำบล ธนู อำเภออุทัย",
    "lat": 14.3432106,
    "lng": 100.6072805
  },
  {
    "mu_place": "หลวงพ่อรวย วัดตะโก",
    "name": "โรงแรมสิปป & silp-pa cafe",
    "rating": 4.3,
    "address": "ตำบล ประตูชัย อำเภอ พระนครศรีอยุธยา",
    "lat": 14.3522693,
    "lng": 100.5745715
  },
  {
    "mu_place": "หลวงพ่อรวย วัดตะโก",
    "name": "โรงแรมไฮโฮเต็ล (Hi Hotel)",
    "rating": 4.4,
    "address": "3 9 ตำบล ห้วยขมิ้น อำเภอหนองแค",
    "lat": 14.4095344,
    "lng": 100.8898665
  },
  {
    "mu_place": "หลวงพ่อรวย วัดตะโก",
    "name": "โรงแรมกู๊ดอินน์",
    "rating": 4,
    "address": "36, Tambon Nong Khae, Amphoe Nong Khae, Saraburi, 18140 ‎, หนองแค, อำเภอหนองแค",
    "lat": 14.3446938,
    "lng": 100.857903
  },
  {
    "mu_place": "ศาลเจ้าหน่าจาซาไท้จื้อ อ่างศิลา",
    "name": "โรงแรม เดอะ ซี บางแสน",
    "rating": 3.4,
    "address": "1 บางแสนล่าง ซอย 2 ตำบลแสนสุข อำเภอเมืองชลบุรี",
    "lat": 13.2823829,
    "lng": 100.9163497
  },
  {
    "mu_place": "ศาลเจ้าหน่าจาซาไท้จื้อ อ่างศิลา",
    "name": "รตะธารา รีสอร์ท ratathara resort",
    "rating": 4.1,
    "address": "6 ตำบล ท่าข้าม อำเภอบางปะกง",
    "lat": 13.4680969,
    "lng": 100.9814947
  },
  {
    "mu_place": "ศาลเจ้าหน่าจาซาไท้จื้อ อ่างศิลา",
    "name": "B2 Amata Nakorn Premier Hotel / บีทู อมตะนคร พรีเมียร์",
    "rating": 4.3,
    "address": "61/11, ตำบล ดอนหัวฬอ อำเภอเมืองชลบุรี",
    "lat": 13.4155241,
    "lng": 101.0434785
  },
  {
    "mu_place": "ศาลเจ้าหน่าจาซาไท้จื้อ อ่างศิลา",
    "name": "Seabreeze",
    "rating": 3.3,
    "address": "48 ถนน บางแสนล่าง ซอย 12/1 ตำบลแสนสุข อำเภอเมืองชลบุรี",
    "lat": 13.2709252,
    "lng": 100.9229556
  },
  {
    "mu_place": "ศาลเจ้าหน่าจาซาไท้จื้อ อ่างศิลา",
    "name": "โคโค่ บีช รีสอร์ท บางแสน",
    "rating": 4.1,
    "address": "20/9 ถนน บางแสนล่าง 14/3 ตำบลแสนสุข อำเภอเมืองชลบุรี",
    "lat": 13.2811213,
    "lng": 100.9171941
  },
  {
    "mu_place": "ศาลเจ้าหน่าจาซาไท้จื้อ อ่างศิลา",
    "name": "โรงแรมบางแสน เฮอริเทจ",
    "rating": 4.1,
    "address": "50 54 บางแสนสาย 1 ตำบลแสนสุข อำเภอเมืองชลบุรี",
    "lat": 13.292228,
    "lng": 100.9088717
  },
  {
    "mu_place": "ศาลเจ้าหน่าจาซาไท้จื้อ อ่างศิลา",
    "name": "โรงแรม เบิร์ดบางแสน",
    "rating": 3.5,
    "address": "189 ถนน ลงหาดบางแสน สาย1 ตำบลแสนสุข อำเภอ เมืองชลบุรี",
    "lat": 13.2996127,
    "lng": 100.9009285
  },
  {
    "mu_place": "ศาลเจ้าหน่าจาซาไท้จื้อ อ่างศิลา",
    "name": "บีทู ศรีราชา พรีเมียร์",
    "rating": 4.1,
    "address": "347/8 Moo.2, อำเภอศรีราชา",
    "lat": 13.149704,
    "lng": 100.9434098
  },
  {
    "mu_place": "ศาลเจ้าหน่าจาซาไท้จื้อ อ่างศิลา",
    "name": "OYO 350 Mae Saeng Place",
    "rating": 4.2,
    "address": "252 หมู่ที่ 2 ถ. สุขุมวิท ตำบล บางพระ อำเภอศรีราชา",
    "lat": 13.222948,
    "lng": 100.9393113
  },
  {
    "mu_place": "ศาลเจ้าหน่าจาซาไท้จื้อ อ่างศิลา",
    "name": "โรงแรมบีอาร์ โรงแรมบางแสน",
    "rating": 3.5,
    "address": "ซอย 3 ชัยนิมิต ตำบลแสนสุข อำเภอเมืองชลบุรี",
    "lat": 13.2888025,
    "lng": 100.9265117
  },
  {
    "mu_place": "ศาลเจ้าหน่าจาซาไท้จื้อ อ่างศิลา",
    "name": "KARIN HOTEL & SERVICED APARTMENT",
    "rating": 4.3,
    "address": "อำเภอศรีราชา ถนน เจิมจอมพล 4 Jermjompol Rd., Sriracha,",
    "lat": 13.1785829,
    "lng": 100.9284371
  },
  {
    "mu_place": "ศาลเจ้าหน่าจาซาไท้จื้อ อ่างศิลา",
    "name": "S2 Hotel",
    "rating": 3.6,
    "address": "68 ถนน บางแสน สาย 1 ซอย1 ตำบลแสนสุข อำเภอเมืองชลบุรี",
    "lat": 13.2988838,
    "lng": 100.9018829
  },
  {
    "mu_place": "ศาลเจ้าหน่าจาซาไท้จื้อ อ่างศิลา",
    "name": "Sea Sand Trees Bangsaen",
    "rating": 4,
    "address": "108 21 ถนน บางแสนล่าง ตำบลแสนสุข อำเภอเมืองชลบุรี",
    "lat": 13.2717168,
    "lng": 100.9225883
  },
  {
    "mu_place": "ศาลเจ้าหน่าจาซาไท้จื้อ อ่างศิลา",
    "name": "OYO 477 Sriracha Hotel And Spa",
    "rating": 3.3,
    "address": "3, Bangphra Sriracha, อำเภอเมืองชลบุรี",
    "lat": 13.188932,
    "lng": 100.9325772
  },
  {
    "mu_place": "ศาลเจ้าหน่าจาซาไท้จื้อ อ่างศิลา",
    "name": "Kroque Boutique & Bistro โรงแรมครก บูติค แอนด์ บิสโตร",
    "rating": 4,
    "address": "33, 3 ตำบล อ่างศิลา อำเภอเมืองชลบุรี",
    "lat": 13.3337432,
    "lng": 100.9239911
  },
  {
    "mu_place": "ศาลเจ้าหน่าจาซาไท้จื้อ อ่างศิลา",
    "name": "โรงแรมเจแอนด์วายลอดจ์",
    "rating": 3.8,
    "address": "479/19-20 หมู่ 1 ตำบล หนองไม้แดง อำเภอเมืองชลบุรี",
    "lat": 13.4144187,
    "lng": 100.9984909
  },
  {
    "mu_place": "ศาลเจ้าหน่าจาซาไท้จื้อ อ่างศิลา",
    "name": "เดอะลอฟต์ ซีไซด์ ศรีราชา",
    "rating": 4,
    "address": "18 ถนน เจิมจอมพล อำเภอศรีราชา",
    "lat": 13.1786425,
    "lng": 100.9278795
  },
  {
    "mu_place": "ศาลเจ้าหน่าจาซาไท้จื้อ อ่างศิลา",
    "name": "Rattanachol Hotel",
    "rating": 4.3,
    "address": "678/17 ถ. สุขุมวิท ตำบล บางปลาสร้อย อำเภอ เมืองชลบุรี",
    "lat": 13.3676603,
    "lng": 100.9918754
  },
  {
    "mu_place": "ศาลเจ้าหน่าจาซาไท้จื้อ อ่างศิลา",
    "name": "Porestva Hotel",
    "rating": 4.5,
    "address": "95 หมู่ที่ 10 ตำบล บางพระ อำเภอศรีราชา",
    "lat": 13.2102324,
    "lng": 100.9444307
  },
  {
    "mu_place": "ศาลเจ้าหน่าจาซาไท้จื้อ อ่างศิลา",
    "name": "Hotel Nikko Amata City Chonburi",
    "rating": 4.6,
    "address": "Chon Buri, เมือง 700/333 Thailand อำเภอเมืองชลบุรี",
    "lat": 13.4198774,
    "lng": 101.0050316
  },
  {
    "mu_place": "อนุสาวรีย์ พระนางเลือดขาว แม่เจ้าอยู่หัว",
    "name": "Phuengluang Resort",
    "rating": 3.5,
    "address": "151 Moo 3, Nakhonsri-Songkha Road, อำเภอ เฉลิมพระเกียรติ",
    "lat": 8.141498,
    "lng": 100.068695
  },
  {
    "mu_place": "อนุสาวรีย์ พระนางเลือดขาว แม่เจ้าอยู่หัว",
    "name": "บ้านไร่ชายเขา ฟาร์มสเตย์",
    "rating": 4.6,
    "address": "92 ตำบล เขาพระบาท อำเภอ เชียรใหญ่",
    "lat": 8.0463864,
    "lng": 100.1875569
  },
  {
    "mu_place": "อนุสาวรีย์ พระนางเลือดขาว แม่เจ้าอยู่หัว",
    "name": "บ้านริมน้ำโฮมเสตย์หัวไทร",
    "rating": 4.2,
    "address": "49/ 2 75/2 ตำบล เกาะเพชร อำเภอ หัวไทร",
    "lat": 8.1094674,
    "lng": 100.2707386
  },
  {
    "mu_place": "อนุสาวรีย์ พระนางเลือดขาว แม่เจ้าอยู่หัว",
    "name": "เรือนไทย ใจสุขเอ๋ย",
    "rating": 4.6,
    "address": "131 อำเภอ เชียรใหญ่",
    "lat": 8.1807543,
    "lng": 100.14533
  },
  {
    "mu_place": "อนุสาวรีย์ พระนางเลือดขาว แม่เจ้าอยู่หัว",
    "name": "โรงแรมบ้านตูนรีสอร์ท",
    "rating": 4.2,
    "address": "2 8 ตำบล บ้านตูล อำเภอ ชะอวด",
    "lat": 8.0361259,
    "lng": 99.9698373
  },
  {
    "mu_place": "อนุสาวรีย์ พระนางเลือดขาว แม่เจ้าอยู่หัว",
    "name": "โรงแรมดอนแครีสอร์ท",
    "rating": 3.4,
    "address": "บ้านดอนแค ตำบล ทรายขาว อำเภอ หัวไทร",
    "lat": 8.0596613,
    "lng": 100.2265781
  },
  {
    "mu_place": "อนุสาวรีย์ พระนางเลือดขาว แม่เจ้าอยู่หัว",
    "name": "ชูใหม่ ริเวอร์ไซด์ รีสอร์ท",
    "rating": 4.1,
    "address": "123 ม.10 ตำบล ท้องลำเจียก อำเภอ เชียรใหญ่",
    "lat": 8.1149835,
    "lng": 100.1213546
  },
  {
    "mu_place": "อนุสาวรีย์ พระนางเลือดขาว แม่เจ้าอยู่หัว",
    "name": "จงเจริญ เกสเฮาส์",
    "rating": 4,
    "address": "249 ม .11 ต สวนหลวง อ เฉลิมพระเกียรติ",
    "lat": 8.1140572,
    "lng": 100.0937322
  },
  {
    "mu_place": "อนุสาวรีย์ พระนางเลือดขาว แม่เจ้าอยู่หัว",
    "name": "โรงแรมบ่อล้อรีสอร์ท",
    "rating": 3.9,
    "address": "10250 Highway 408, ตำบล สวนหลวง อำเภอ เฉลิมพระเกียรติ",
    "lat": 8.1205392,
    "lng": 100.0887635
  },
  {
    "mu_place": "อนุสาวรีย์ พระนางเลือดขาว แม่เจ้าอยู่หัว",
    "name": "โรงแรมเฟื่องฟ้าชะอวด",
    "rating": 3.7,
    "address": "X2F2+MFJ ตำบล ชะอวด อำเภอ ชะอวด",
    "lat": 7.974207499999999,
    "lng": 100.0011439
  },
  {
    "mu_place": "อนุสาวรีย์ พระนางเลือดขาว แม่เจ้าอยู่หัว",
    "name": "oasis motel chauat",
    "rating": 4.5,
    "address": "360/14 ท่าประจะ อำเภอ ชะอวด",
    "lat": 7.962758500000001,
    "lng": 99.9794422
  },
  {
    "mu_place": "อนุสาวรีย์ พระนางเลือดขาว แม่เจ้าอยู่หัว",
    "name": "คลองเชียร รีสอร์ท",
    "rating": 4.1,
    "address": "หมู่3 ถ.ชูหวาน ต.เชียรใหญ่ อ ตำบล เชียรใหญ่ อำเภอ เชียรใหญ่",
    "lat": 8.1706773,
    "lng": 100.1488808
  },
  {
    "mu_place": "อนุสาวรีย์ พระนางเลือดขาว แม่เจ้าอยู่หัว",
    "name": "Home Stay Riverside at HauSai",
    "rating": 4.6,
    "address": "49/2 T.Koh Petch, Hua Saii, Nakhon Sri thammarat Ban Phru Nua",
    "lat": 8.109348299999999,
    "lng": 100.2706174
  },
  {
    "mu_place": "อนุสาวรีย์ พระนางเลือดขาว แม่เจ้าอยู่หัว",
    "name": "JP รีสอร์ท",
    "rating": 4.3,
    "address": "62HC+8CG 408 ตำบล ทางพูน อำเภอ เฉลิมพระเกียรติ",
    "lat": 8.2283215,
    "lng": 100.0210628
  },
  {
    "mu_place": "อนุสาวรีย์ พระนางเลือดขาว แม่เจ้าอยู่หัว",
    "name": "ผึ้งหลวงรีสอร์ท",
    "rating": 4.5,
    "address": "151 หมู่ที่3 ตำบล สวนหลวง อำเภอ เฉลิมพระเกียรติ",
    "lat": 8.1413301,
    "lng": 100.068321
  },
  {
    "mu_place": "อนุสาวรีย์ พระนางเลือดขาว แม่เจ้าอยู่หัว",
    "name": "ココナッツ ヴァレー",
    "rating": 3.3,
    "address": "35/2 Mu.4 Bangnob ตำบล หัวไทร อำเภอ หัวไทร",
    "lat": 8.1094223,
    "lng": 100.2495037
  },
  {
    "mu_place": "วัดทุ่งเศรษฐี ราม2",
    "name": "Floral Shire Resort (Suvarnabhumi Airport)",
    "rating": 3.5,
    "address": "56 Soi 42, แขวงลาดกระบัง เขตลาดกระบัง",
    "lat": 13.717292,
    "lng": 100.7650371
  },
  {
    "mu_place": "วัดทุ่งเศรษฐี ราม2",
    "name": "โรงแรมบ้านปากน้ำ",
    "rating": 4.2,
    "address": "427 ถนน สายลวด ตำบลปากน้ำ เมือง",
    "lat": 13.5804569,
    "lng": 100.6022121
  },
  {
    "mu_place": "วัดทุ่งเศรษฐี ราม2",
    "name": "Bed By Cruise",
    "rating": 4,
    "address": "169, ท่าทราย, เมือง",
    "lat": 13.8871529,
    "lng": 100.5111063
  },
  {
    "mu_place": "วัดทุ่งเศรษฐี ราม2",
    "name": "Malizon Hotel & Residences โรงแรมมะลิซ้อน เรสซิเด้นซ์",
    "rating": 4.2,
    "address": "56 ซอย กรุงเทพนนท์ 4 ตำบลบางเขน ตำบลตลาดขวัญ",
    "lat": 13.8371615,
    "lng": 100.5197818
  },
  {
    "mu_place": "วัดทุ่งเศรษฐี ราม2",
    "name": "OYO 519 B Min Airport",
    "rating": 3,
    "address": "3 B Min Airport ซอย รามคำแหง 187 เขตมีนบุรี",
    "lat": 13.7999209,
    "lng": 100.7126281
  },
  {
    "mu_place": "วัดทุ่งเศรษฐี ราม2",
    "name": "Viva Residence",
    "rating": 4,
    "address": "90 ถนน คู้บอน แขวงรามอินทรา เขตคันนายาว",
    "lat": 13.8446463,
    "lng": 100.6637178
  },
  {
    "mu_place": "วัดทุ่งเศรษฐี ราม2",
    "name": "โรงแรมดิไอคอนิค สุวรรณภูมิ",
    "rating": 3.5,
    "address": "268 M .4, ตำบล บางบ่อ อำเภอบางบ่อ",
    "lat": 13.6003919,
    "lng": 100.8439196
  },
  {
    "mu_place": "วัดทุ่งเศรษฐี ราม2",
    "name": "โรงแรมลิโวเทล เอ็กซ์เพรส (รามคำแหง 50)",
    "rating": 3.5,
    "address": "26 ซอย รามคำแหง 50 หัวหมาก เขตบางกะปิ",
    "lat": 13.7597194,
    "lng": 100.6426302
  },
  {
    "mu_place": "วัดทุ่งเศรษฐี ราม2",
    "name": "โรงแรมดอนเมือง",
    "rating": 3.9,
    "address": "5 สรณคมน์3 แยก 2 แขวงสีกัน เขตดอนเมือง",
    "lat": 13.9256773,
    "lng": 100.5984586
  },
  {
    "mu_place": "วัดทุ่งเศรษฐี ราม2",
    "name": "48 Ville Donmueang Airport",
    "rating": 4.1,
    "address": "94/1 ซอย พหลโยธิน 48 แยก 2 แขวงอนุสาวรีย์ เขตบางเขน",
    "lat": 13.8844411,
    "lng": 100.6064665
  },
  {
    "mu_place": "วัดทุ่งเศรษฐี ราม2",
    "name": "โรงแรมทับทิมสยาม สุวรรณภูมิ",
    "rating": 4.2,
    "address": "125/272 ถ.วัดศรีวารีน้อย, ตำบลบางโฉลง อำเภอบางพลี",
    "lat": 13.621679,
    "lng": 100.7628466
  },
  {
    "mu_place": "วัดทุ่งเศรษฐี ราม2",
    "name": "โรงแรม บารอน โซเทล ลาดพร้าว 117 - บางกะปิ",
    "rating": 4,
    "address": "77 ซอย ลาดพร้าว 117 แขวงคลองจั่น เขตบางกะปิ",
    "lat": 13.7723808,
    "lng": 100.640731
  },
  {
    "mu_place": "วัดทุ่งเศรษฐี ราม2",
    "name": "Sweety Resort",
    "rating": 4,
    "address": "888/888 Moo 14, ซอย หมู่บ้านอนันดาบีชไลฟ์ อำเภอบางพลี",
    "lat": 13.6440035,
    "lng": 100.7040709
  },
  {
    "mu_place": "วัดทุ่งเศรษฐี ราม2",
    "name": "โรงแรมซิลเวอร์โกลด์ การ์เด้นท์ สุวรรณภูมิ แอร์พอร์ต",
    "rating": 3.8,
    "address": "PQCW+F3R ถ. หลวงแพ่ง แขวงทับยาว เขตลาดกระบัง",
    "lat": 13.7212273,
    "lng": 100.7951773
  },
  {
    "mu_place": "วัดทุ่งเศรษฐี ราม2",
    "name": "โรงแรมนันทรา สุขุมวิท39",
    "rating": 3.2,
    "address": "แขวงคลองตันเหนือ เขตวัฒนา",
    "lat": 13.7311691,
    "lng": 100.5701829
  },
  {
    "mu_place": "วัดทุ่งเศรษฐี ราม2",
    "name": "THE Bedroom Ladprao 101",
    "rating": 4.1,
    "address": "99 Ladprao 101 yak 38 Klongchan Bangkapi",
    "lat": 13.7874874,
    "lng": 100.6311393
  },
  {
    "mu_place": "วัดทุ่งเศรษฐี ราม2",
    "name": "The Home Hotel",
    "rating": 4.1,
    "address": "THE HOME HOTEL 119/1 ซอย รามคำแหง 50 แขวงหัวหมาก เขตบางกะปิ",
    "lat": 13.7548714,
    "lng": 100.6432517
  },
  {
    "mu_place": "วัดทุ่งเศรษฐี ราม2",
    "name": "โรงแรม แกรนด์ พินนาเคิล",
    "rating": 3.8,
    "address": "1666/1 5 ซอย ลาดกระบัง 11 แขวงลาดกระบัง เขตลาดกระบัง",
    "lat": 13.7222995,
    "lng": 100.7716793
  },
  {
    "mu_place": "วัดทุ่งเศรษฐี ราม2",
    "name": "สินสิริ 2 ลาดพร้าว 98/1",
    "rating": 4,
    "address": "13 ซอย ลาดพร้าว 98/1 แขวงวังทองหลาง เขตวังทองหลาง",
    "lat": 13.7830986,
    "lng": 100.6130945
  },
  {
    "mu_place": "วัดทุ่งเศรษฐี ราม2",
    "name": "RoomQuest Bangkok Don Mueang Airport 1",
    "rating": 2.3,
    "address": "2 สรงประภา 26 สีกัน, เขตดอนเมือง",
    "lat": 13.9280844,
    "lng": 100.5851314
  },
  {
    "mu_place": "วัดเขาบันไดอิฐ",
    "name": "Casuarina Resort",
    "rating": 3.8,
    "address": "ตำบล ปึกเตียน อำเภอท่ายาง",
    "lat": 12.9260617,
    "lng": 100.026209
  },
  {
    "mu_place": "วัดเขาบันไดอิฐ",
    "name": "The Cozy Hotel(โรงเเรม เดอะโคซี่ เพชรบุรี)",
    "rating": 4.7,
    "address": "66, 45 Moo6 ซอย ศุภโยคอุทิศ Ban-Mo, อำเภอเมืองเพชรบุรี",
    "lat": 13.0991073,
    "lng": 99.9383411
  },
  {
    "mu_place": "วัดเขาบันไดอิฐ",
    "name": "โรงแรมไดแอน",
    "rating": 3.6,
    "address": "59/3 ม.2 ถ.เพชรบุรี-หาดเจ้า โพไร่หวาน อำเภอ เมืองเพชรบุรี",
    "lat": 13.0809705,
    "lng": 99.9627568
  },
  {
    "mu_place": "วัดเขาบันไดอิฐ",
    "name": "SAVE ZONE HOTEL โรงแรมเซฟโซน",
    "rating": 4.5,
    "address": "497 บ้านหม้อ 3 ถ. เพชรเกษม ตำบล บ้านหม้อ อำเภอเมืองเพชรบุรี",
    "lat": 13.1068469,
    "lng": 99.9334512
  },
  {
    "mu_place": "วัดเขาบันไดอิฐ",
    "name": "โรงแรมซุปเปอร์ไฮเวย์",
    "rating": 4.6,
    "address": "159 ถ. เพชรเกษม ตำบล สมอพลือ อำเภอบ้านลาด",
    "lat": 13.0686817,
    "lng": 99.9468297
  },
  {
    "mu_place": "วัดเขาบันไดอิฐ",
    "name": "Alinda Resort",
    "rating": 4.3,
    "address": "111 หมู่ ที่ 2 ถ. เพชรเกษม ตำบล บ้านหม้อ อำเภอเมืองเพชรบุรี",
    "lat": 13.0934087,
    "lng": 99.94129009999999
  },
  {
    "mu_place": "วัดเขาบันไดอิฐ",
    "name": "On Green Resort Phetchaburi",
    "rating": 4.3,
    "address": "433 ตำบล ท่ายาง อำเภอท่ายาง",
    "lat": 12.9552793,
    "lng": 99.9068222
  },
  {
    "mu_place": "วัดเขาบันไดอิฐ",
    "name": "Chedi View Hostel & Rooftop Bar",
    "rating": 4.5,
    "address": "303 Thanon Ban-Dai-It Tambon Khlong-Kra-Saeng Amphoe Mueang-Phetchaburi",
    "lat": 13.1039789,
    "lng": 99.9412493
  },
  {
    "mu_place": "วัดเขาบันไดอิฐ",
    "name": "โรงแรม ซัน",
    "rating": 3.8,
    "address": "43/33 หมู่ 5 ถ. เพชรเกษม ตำบล บ้านหม้อ อำเภอเมืองเพชรบุรี",
    "lat": 13.1078412,
    "lng": 99.9340299
  },
  {
    "mu_place": "วัดเขาบันไดอิฐ",
    "name": "NK Place",
    "rating": 4.9,
    "address": "88/9 ถ. เพชรเกษม ตำบล เขาย้อย อำเภอเขาย้อย",
    "lat": 13.26898,
    "lng": 99.82157869999999
  },
  {
    "mu_place": "วัดเขาบันไดอิฐ",
    "name": "ลิตเติ้ลโฮม เพชรบุรี - โรงแรมรีสอร์ท",
    "rating": 4.5,
    "address": "621 บ้านหม้อ ตำบล บ้านหม้อ เมือง",
    "lat": 13.1020435,
    "lng": 99.9319694
  },
  {
    "mu_place": "วัดเขาบันไดอิฐ",
    "name": "โรงแรม เดอะพีช เพชรบุรี // The Peach Hotel Phetchaburi",
    "rating": 0,
    "address": "168 8 ตำบล บ้านหม้อ อำเภอเมืองเพชรบุรี",
    "lat": 13.0879865,
    "lng": 99.9405681
  },
  {
    "mu_place": "วัดเขาบันไดอิฐ",
    "name": "โรงแรมรอยัลไดมอน จ.เพชรบุรี",
    "rating": 3.9,
    "address": "555 ม.1 เพชรเกษม ตำบล ไร่ส้ม อำเภอเมืองเพชรบุรี",
    "lat": 13.1115347,
    "lng": 99.93257419999999
  },
  {
    "mu_place": "วัดเขาบันไดอิฐ",
    "name": "เพชรสุดาเฮ้าส์",
    "rating": 4.1,
    "address": "90 1 ตำบล ต้นมะม่วง อำเภอเมืองเพชรบุรี",
    "lat": 13.0776787,
    "lng": 99.9495376
  },
  {
    "mu_place": "วัดเขาบันไดอิฐ",
    "name": "DAAD FAH home and cafe ดาด-ฟ้า โฮม แอนด์ คาเฟ่",
    "rating": 4.7,
    "address": "58/1 Kiriratthaya1, ตำบล ธงชัย อำเภอเมืองเพชรบุรี",
    "lat": 13.1140242,
    "lng": 99.9370177
  },
  {
    "mu_place": "วัดเขาบันไดอิฐ",
    "name": "บอสตันโฮเทลเพชรบุรี",
    "rating": 4.7,
    "address": "98 6 ตำบล บ้านหม้อ อำเภอเมืองเพชรบุรี",
    "lat": 13.092348,
    "lng": 99.9421345
  },
  {
    "mu_place": "วัดเขาบันไดอิฐ",
    "name": "บ้านเคียงวัง เพลส",
    "rating": 4.3,
    "address": "11/1 หมู่6 ตำบล ต้นมะม่วง อำเภอเมืองเพชรบุรี",
    "lat": 13.0844214,
    "lng": 99.9472536
  },
  {
    "mu_place": "วัดเขาบันไดอิฐ",
    "name": "Dream D Residence Phetchaburi",
    "rating": 4,
    "address": "138 T.Tonmamuang, A. Muang, Phetchaburi, อำเภอ เมือง",
    "lat": 13.0782151,
    "lng": 99.9488251
  },
  {
    "mu_place": "วัดเขาบันไดอิฐ",
    "name": "OYO 628 Dao Krajang",
    "rating": 3.3,
    "address": "577, ตำบล ไร่ส้ม Hua Hin",
    "lat": 13.116591,
    "lng": 99.92619309999999
  },
  {
    "mu_place": "วัดเขาบันไดอิฐ",
    "name": "คีรีบูติค โฮเทล",
    "rating": 4.1,
    "address": "ตำบล คลองกระแซง อำเภอเมืองเพชรบุรี",
    "lat": 13.1052738,
    "lng": 99.9360449
  },
  {
    "mu_place": "วัดป่าสว่างธรรม",
    "name": "หนองหาน แกรนด์ โฮเทล แอนด์ รีสอร์ท",
    "rating": 4.3,
    "address": "319 หมู่ 12 ถนนนิตโย (กม.28 อุดรธานี-สกลนคร) ตำบล หนองหาน อำเภอหนองหาน",
    "lat": 17.3653297,
    "lng": 103.0440317
  },
  {
    "mu_place": "วัดป่าสว่างธรรม",
    "name": "555 รีสอร์ท",
    "rating": 4.6,
    "address": "555 ซอย ชัยเจริญ 6 ตำบล โนนสูง อำเภอเมืองอุดรธานี",
    "lat": 17.3012403,
    "lng": 102.8544455
  },
  {
    "mu_place": "วัดป่าสว่างธรรม",
    "name": "Isan Golf & Adventure Hotel",
    "rating": 4.9,
    "address": "17°29'19.1357''N 102°57'23.2099''E ตำบล สร้างแป้น อำเภอ เพ็ญ",
    "lat": 17.488552,
    "lng": 102.9564565
  },
  {
    "mu_place": "วัดป่าสว่างธรรม",
    "name": "โรงแรมดีดีเพลส Dee Dee Place Hotel",
    "rating": 4.1,
    "address": "88, 9RHR+J25 8 22 เทศบาลตำบลหนองบัว อำเภอเมืองอุดรธานี",
    "lat": 17.378938,
    "lng": 102.8400164
  },
  {
    "mu_place": "วัดป่าสว่างธรรม",
    "name": "B.H.C.HOTEL INFINITY",
    "rating": 5,
    "address": "222หมู่7 บ้านถ่อนนาเพลิน ตำบล นาทราย นาทราย อำเภอ พิบูลย์รักษ์",
    "lat": 17.617787,
    "lng": 103.1374589
  },
  {
    "mu_place": "วัดป่าสว่างธรรม",
    "name": "อุดรไทยเฮาส์ โทมัสรีสอร์ท",
    "rating": 4.5,
    "address": "หมู่ที่ 2 119/10 อำเภอเมืองอุดรธานี",
    "lat": 17.380248,
    "lng": 102.8424707
  },
  {
    "mu_place": "วัดป่าสว่างธรรม",
    "name": "บ้านสวนรีสอร์ท หนองลีหูสามพร้าว",
    "rating": 3.1,
    "address": "476 หมู่11 ต.สามพร้าว บ้านหนองลีหู อำเภอเมืองอุดรธานี",
    "lat": 17.433693,
    "lng": 102.841766
  },
  {
    "mu_place": "วัดป่าสว่างธรรม",
    "name": "Moai Homeplace",
    "rating": 3.7,
    "address": "327 Moo 7, Nitto Rd., Nong Han",
    "lat": 17.3637186,
    "lng": 103.0617121
  },
  {
    "mu_place": "วัดป่าสว่างธรรม",
    "name": "ตุ้มโฮมรีสอร์ท Toomhome Resort Udonthani",
    "rating": 4.2,
    "address": "302 หมู่ที่ 11 ตำบล หนองนาคำ อำเภอเมืองอุดรธานี",
    "lat": 17.391269,
    "lng": 102.8608405
  },
  {
    "mu_place": "วัดป่าสว่างธรรม",
    "name": "โชคดี รีสอร์ท",
    "rating": 4.4,
    "address": "83W4+RPH ตำบล หนองหาน อำเภอหนองหาน",
    "lat": 17.3470614,
    "lng": 103.0568598
  },
  {
    "mu_place": "วัดป่าสว่างธรรม",
    "name": "Moai Resort โมอาย รีสอร์ท",
    "rating": 3.9,
    "address": "9376+3Q7 Unnamed Road ตำบล หนองหาน อำเภอหนองหาน",
    "lat": 17.3626728,
    "lng": 103.0619201
  },
  {
    "mu_place": "วัดป่าสว่างธรรม",
    "name": "ศุภฤทธิ์ รีสอร์ท 3 (อเวนิว)......Suparit - Resort 3 (avenue)",
    "rating": 3.2,
    "address": "41330, 397 ‎Moo8, ตำบล โนนสูง อำเภอเมืองอุดรธานี",
    "lat": 17.3049099,
    "lng": 102.8477018
  },
  {
    "mu_place": "วัดป่าสว่างธรรม",
    "name": "แสนสราญรีสอร์ท",
    "rating": 3.6,
    "address": "155 หมู่ 11 บ้านหนองหาน ต.หนองหาน อำเภอหนองหาน",
    "lat": 17.3572942,
    "lng": 103.1328618
  },
  {
    "mu_place": "วัดป่าสว่างธรรม",
    "name": "Dee'dee Resort",
    "rating": 4.1,
    "address": "9V2R+9JX ตำบล หนองนาคำ อำเภอเมืองอุดรธานี",
    "lat": 17.3509953,
    "lng": 102.8916121
  },
  {
    "mu_place": "วัดป่าสว่างธรรม",
    "name": "NIDA Rooms Non Sung 312",
    "rating": 5,
    "address": "312 M7, Udon Thani",
    "lat": 17.303305,
    "lng": 102.857666
  },
  {
    "mu_place": "วัดป่าสว่างธรรม",
    "name": "ฮักแพงรีสอร์ท",
    "rating": 4.1,
    "address": "C57M+VG9 ตำบล หนองเม็ก อำเภอหนองหาน",
    "lat": 17.4146559,
    "lng": 103.1838737
  },
  {
    "mu_place": "วัดป่าสว่างธรรม",
    "name": "ตวงทองรีสอร์ท",
    "rating": 2.9,
    "address": "9476+FHC ตำบล หนองหาน อำเภอหนองหาน",
    "lat": 17.3636973,
    "lng": 103.1113857
  },
  {
    "mu_place": "วัดป่าสว่างธรรม",
    "name": "@อรชรเฮ้า",
    "rating": 5,
    "address": "เลขที่ 18/4 หมู่ 3 อำเภอเมืองอุดรธานี",
    "lat": 17.3681316,
    "lng": 102.8443832
  },
  {
    "mu_place": "วัดป่าสว่างธรรม",
    "name": "อัมรินทร์รีสอร์ทสาขา2 ที่พักอุดรธานี",
    "rating": 4.9,
    "address": "339 ตำบล โนนสูง เมือง",
    "lat": 17.3017978,
    "lng": 102.8607204
  },
  {
    "mu_place": "วัดป่าสว่างธรรม",
    "name": "อัมรินทร์รีสอร์ท ที่พักอุดรธานี",
    "rating": 4,
    "address": "182 ถ. มิตรภาพ ตำบล โนนสูง อำเภอเมืองอุดรธานี",
    "lat": 17.3023679,
    "lng": 102.857015
  },
  {
    "mu_place": "วัดศรีดอนมูล",
    "name": "B2 Premier Hotel & Resort / บีทู พรีเมียร์ รีสอร์ท",
    "rating": 4.5,
    "address": "163 ถนนคลองชลประทาน ตำบลสุเทพ อำเภอเมืองเชียงใหม่",
    "lat": 18.7731806,
    "lng": 98.9511296
  },
  {
    "mu_place": "วัดศรีดอนมูล",
    "name": "Pantip Boutique Hotel",
    "rating": 4.5,
    "address": "42 ซอย 1 ตำบล เหมืองง่า อำเภอเมืองลำพูน",
    "lat": 18.5958655,
    "lng": 99.02439629999999
  },
  {
    "mu_place": "วัดศรีดอนมูล",
    "name": "B2 Resort Hotel / บีทู รีสอร์ท",
    "rating": 4.5,
    "address": "142 ถนนวงแหวนรอบ 2 ตำบล สันผีเสื้อ เมือง",
    "lat": 18.8459059,
    "lng": 98.9939498
  },
  {
    "mu_place": "วัดศรีดอนมูล",
    "name": "โรงแรม ดอนจั่นแกรนด์",
    "rating": 4.4,
    "address": "56/2 หมู่ 4 ท่าศาลา, เมือง",
    "lat": 18.761287,
    "lng": 99.033851
  },
  {
    "mu_place": "วัดศรีดอนมูล",
    "name": "OYO 421 Dnk Baan Suan",
    "rating": 3.9,
    "address": "53/17 ถ.จิตตวงค์พันธ์รังสรรค์ ในเมือง เมือง",
    "lat": 18.5857718,
    "lng": 99.01688639999999
  },
  {
    "mu_place": "วัดศรีดอนมูล",
    "name": "Sleep Airport Hotel Chiang Mai",
    "rating": 3.8,
    "address": "33 21-22 ซอย บ้านใหม่สามัคคี 14 ตำบล แม่เหียะ อำเภอเมืองเชียงใหม่",
    "lat": 18.7558101,
    "lng": 98.9677441
  },
  {
    "mu_place": "วัดศรีดอนมูล",
    "name": "โรงแรมมาละไม หางดง",
    "rating": 3.9,
    "address": "263/4 ซอย บ้านช้างคำน้อย 2 หมู่ 4 ตำบลหางดง อำเภอหางดง",
    "lat": 18.6915274,
    "lng": 98.9235813
  },
  {
    "mu_place": "วัดศรีดอนมูล",
    "name": "Faikham Boutique ฝ้ายคำ บูธีค เชียงใหม่",
    "rating": 3.8,
    "address": "หมู่ที่ 3 เลขที่18 ตำบลสันกลาง อำเภอสันกำแพง",
    "lat": 18.777693,
    "lng": 99.05146909999999
  },
  {
    "mu_place": "วัดศรีดอนมูล",
    "name": "B2 Black Business Hotel / บีทู แบล็ค",
    "rating": 4.5,
    "address": "149/19 หมู่ที่ 1 ถนนเลียบคลอง ถนน ชลประทาน อำเภอเมืองเชียงใหม่",
    "lat": 18.8204972,
    "lng": 98.9638523
  },
  {
    "mu_place": "วัดศรีดอนมูล",
    "name": "B2 Mahidol Boutique & Budget Hotel / บีทู มหิดล",
    "rating": 4.5,
    "address": "125/1 หมู่ที่ 5 ถนน มหิดล ตำบลหนองหอย อำเภอเมืองเชียงใหม่",
    "lat": 18.7594662,
    "lng": 99.0170351
  },
  {
    "mu_place": "วัดศรีดอนมูล",
    "name": "Him Doi House @ Doisaket ฮิมดอยเฮ้าส์ ดอยสะเก็ด",
    "rating": 4.1,
    "address": "31/1, ตำบล เชิงดอย อำเภอดอยสะเก็ด",
    "lat": 18.8744768,
    "lng": 99.1341739
  },
  {
    "mu_place": "วัดศรีดอนมูล",
    "name": "North Inn Town",
    "rating": 4.4,
    "address": "10 2 ถ. ป่าตันงาม ตำบลป่าตัน อำเภอเมืองเชียงใหม่",
    "lat": 18.8060298,
    "lng": 98.9940178
  },
  {
    "mu_place": "วัดศรีดอนมูล",
    "name": "B2 Santitham Boutique & Budget Hotel / บีทู สันติธรรม",
    "rating": 4.5,
    "address": "43 ถนนเทพรักษ์ ถนน ช้างเผือก อำเภอเมืองเชียงใหม่",
    "lat": 18.8041543,
    "lng": 98.9734446
  },
  {
    "mu_place": "วัดศรีดอนมูล",
    "name": "โรงแรมเชียงใหม่ฮิลล์",
    "rating": 3.7,
    "address": "211 ถ. ห้วยแก้ว ตำบลสุเทพ เมือง",
    "lat": 18.803983,
    "lng": 98.9620638
  },
  {
    "mu_place": "วัดศรีดอนมูล",
    "name": "B2 Santitham (Wat Jed Yod) Boutique & Budget Hotel / บีทู สันติธรรม (วัดเจ็ดยอด)",
    "rating": 4.5,
    "address": "47/3 ถนน ศิรินธร ถนน ช้างเผือก อำเภอเมืองเชียงใหม่",
    "lat": 18.8089282,
    "lng": 98.9790452
  },
  {
    "mu_place": "วัดศรีดอนมูล",
    "name": "B2 Riverside Colonial Hotel / บีทู ริเวอรด์ ไซด์ โคโลเนียล",
    "rating": 4.5,
    "address": "9 ถนน เจริญราษฎร์ ตำบลวัดเกต อำเภอเมืองเชียงใหม่",
    "lat": 18.7908826,
    "lng": 99.0034297
  },
  {
    "mu_place": "วัดศรีดอนมูล",
    "name": "โรงแรมเก็ตสลีป เชียงใหม่",
    "rating": 4.1,
    "address": "128 หมู่ที่ 1 ถ. ห้วยแก้ว ตำบลช้างเผือก อำเภอเมืองเชียงใหม่",
    "lat": 18.8125846,
    "lng": 98.9558553
  },
  {
    "mu_place": "วัดศรีดอนมูล",
    "name": "Inspirehouse Hotel Chiangmai",
    "rating": 3.7,
    "address": "63 ถนน รัตนโกสินทร์ T. WATGATE A. MUANG",
    "lat": 18.8013679,
    "lng": 99.0100914
  },
  {
    "mu_place": "วัดศรีดอนมูล",
    "name": "Loyy Hotel",
    "rating": 4.4,
    "address": "64 2 ถนน ลอยเคราะห์ ตำบลช้างคลาน อำเภอเมืองเชียงใหม่",
    "lat": 18.7841496,
    "lng": 98.9969347
  },
  {
    "mu_place": "วัดศรีดอนมูล",
    "name": "B2 Green Boutique & Budget Hotel / บีทู กรีน",
    "rating": 4.6,
    "address": "24 ถนน เสริมสุข ช้างเผือก อำเภอเมืองเชียงใหม่",
    "lat": 18.7999555,
    "lng": 98.9760429
  },
  {
    "mu_place": "วัดพระธาตุดอยสะเก็ด",
    "name": "B2 Premier Hotel & Resort / บีทู พรีเมียร์ รีสอร์ท",
    "rating": 4.5,
    "address": "163 ถนนคลองชลประทาน ตำบลสุเทพ อำเภอเมืองเชียงใหม่",
    "lat": 18.7731806,
    "lng": 98.9511296
  },
  {
    "mu_place": "วัดพระธาตุดอยสะเก็ด",
    "name": "โรงแรม ดอนจั่นแกรนด์",
    "rating": 4.4,
    "address": "56/2 หมู่ 4 ท่าศาลา, เมือง",
    "lat": 18.761287,
    "lng": 99.033851
  },
  {
    "mu_place": "วัดพระธาตุดอยสะเก็ด",
    "name": "Sleep Airport Hotel Chiang Mai",
    "rating": 3.8,
    "address": "33 21-22 ซอย บ้านใหม่สามัคคี 14 ตำบล แม่เหียะ อำเภอเมืองเชียงใหม่",
    "lat": 18.7558101,
    "lng": 98.9677441
  },
  {
    "mu_place": "วัดพระธาตุดอยสะเก็ด",
    "name": "B2 Resort Hotel / บีทู รีสอร์ท",
    "rating": 4.5,
    "address": "142 ถนนวงแหวนรอบ 2 ตำบล สันผีเสื้อ เมือง",
    "lat": 18.8459059,
    "lng": 98.9939498
  },
  {
    "mu_place": "วัดพระธาตุดอยสะเก็ด",
    "name": "At Chiang Mai Hotel",
    "rating": 4.4,
    "address": "77 1 ถนนราชวิถี ตำบลศรีภูมิ อำเภอเมืองเชียงใหม่",
    "lat": 18.790498,
    "lng": 98.98907460000001
  },
  {
    "mu_place": "วัดพระธาตุดอยสะเก็ด",
    "name": "Faikham Boutique ฝ้ายคำ บูธีค เชียงใหม่",
    "rating": 3.8,
    "address": "หมู่ที่ 3 เลขที่18 ตำบลสันกลาง อำเภอสันกำแพง",
    "lat": 18.777693,
    "lng": 99.05146909999999
  },
  {
    "mu_place": "วัดพระธาตุดอยสะเก็ด",
    "name": "B2 Black Business Hotel / บีทู แบล็ค",
    "rating": 4.5,
    "address": "149/19 หมู่ที่ 1 ถนนเลียบคลอง ถนน ชลประทาน อำเภอเมืองเชียงใหม่",
    "lat": 18.8204972,
    "lng": 98.9638523
  },
  {
    "mu_place": "วัดพระธาตุดอยสะเก็ด",
    "name": "B2 Mahidol Boutique & Budget Hotel / บีทู มหิดล",
    "rating": 4.5,
    "address": "125/1 หมู่ที่ 5 ถนน มหิดล ตำบลหนองหอย อำเภอเมืองเชียงใหม่",
    "lat": 18.7594662,
    "lng": 99.0170351
  },
  {
    "mu_place": "วัดพระธาตุดอยสะเก็ด",
    "name": "North Inn Town",
    "rating": 4.4,
    "address": "10 2 ถ. ป่าตันงาม ตำบลป่าตัน อำเภอเมืองเชียงใหม่",
    "lat": 18.8060298,
    "lng": 98.9940178
  },
  {
    "mu_place": "วัดพระธาตุดอยสะเก็ด",
    "name": "B2 Santitham Boutique & Budget Hotel / บีทู สันติธรรม",
    "rating": 4.5,
    "address": "43 ถนนเทพรักษ์ ถนน ช้างเผือก อำเภอเมืองเชียงใหม่",
    "lat": 18.8041543,
    "lng": 98.9734446
  },
  {
    "mu_place": "วัดพระธาตุดอยสะเก็ด",
    "name": "B2 Riverside Colonial Hotel / บีทู ริเวอรด์ ไซด์ โคโลเนียล",
    "rating": 4.5,
    "address": "9 ถนน เจริญราษฎร์ ตำบลวัดเกต อำเภอเมืองเชียงใหม่",
    "lat": 18.7908826,
    "lng": 99.0034297
  },
  {
    "mu_place": "วัดพระธาตุดอยสะเก็ด",
    "name": "โรงแรมเชียงใหม่ฮิลล์",
    "rating": 3.7,
    "address": "211 ถ. ห้วยแก้ว ตำบลสุเทพ เมือง",
    "lat": 18.803983,
    "lng": 98.9620638
  },
  {
    "mu_place": "วัดพระธาตุดอยสะเก็ด",
    "name": "Him Doi House @ Doisaket ฮิมดอยเฮ้าส์ ดอยสะเก็ด",
    "rating": 4.1,
    "address": "31/1, ตำบล เชิงดอย อำเภอดอยสะเก็ด",
    "lat": 18.8744768,
    "lng": 99.1341739
  },
  {
    "mu_place": "วัดพระธาตุดอยสะเก็ด",
    "name": "Inspirehouse Hotel Chiangmai",
    "rating": 3.7,
    "address": "63 ถนน รัตนโกสินทร์ T. WATGATE A. MUANG",
    "lat": 18.8013679,
    "lng": 99.0100914
  },
  {
    "mu_place": "วัดพระธาตุดอยสะเก็ด",
    "name": "โรงแรมเก็ตสลีป เชียงใหม่",
    "rating": 4.1,
    "address": "128 หมู่ที่ 1 ถ. ห้วยแก้ว ตำบลช้างเผือก อำเภอเมืองเชียงใหม่",
    "lat": 18.8125846,
    "lng": 98.9558553
  },
  {
    "mu_place": "วัดพระธาตุดอยสะเก็ด",
    "name": "B2 Khamtieng Boutique & Budget Hote / บีทู คำเที่ยง บูติค แอนด์ บัดเจท",
    "rating": 4.5,
    "address": "2 1 ถ. ป่าตันงาม ตำบลช้างเผือก อำเภอเมืองเชียงใหม่",
    "lat": 18.8113485,
    "lng": 98.996709
  },
  {
    "mu_place": "วัดพระธาตุดอยสะเก็ด",
    "name": "Loyy Hotel",
    "rating": 4.4,
    "address": "64 2 ถนน ลอยเคราะห์ ตำบลช้างคลาน อำเภอเมืองเชียงใหม่",
    "lat": 18.7841496,
    "lng": 98.9969347
  },
  {
    "mu_place": "วัดพระธาตุดอยสะเก็ด",
    "name": "B2 Green Boutique & Budget Hotel / บีทู กรีน",
    "rating": 4.6,
    "address": "24 ถนน เสริมสุข ช้างเผือก อำเภอเมืองเชียงใหม่",
    "lat": 18.7999555,
    "lng": 98.9760429
  },
  {
    "mu_place": "วัดพระธาตุดอยสะเก็ด",
    "name": "CM Night Bazaar Boutique Hotel (โรงแรมซีเอ็มไนท์บาซาร์บูทีค)",
    "rating": 3.8,
    "address": "41/6 6 ถนน ลอยเคราะห์ ตำบลช้างคลาน อำเภอเมืองเชียงใหม่",
    "lat": 18.7829225,
    "lng": 99.00177629999999
  },
  {
    "mu_place": "วัดพระธาตุดอยสะเก็ด",
    "name": "STAY MAYB",
    "rating": 4,
    "address": "22/22 Chonlapratan Road Changpuek, อำเภอเมืองเชียงใหม่",
    "lat": 18.8404972,
    "lng": 98.98101129999999
  },
  {
    "mu_place": "วัดเขาตาเงาะอุดมพร(หลวงปู่จื่อ)",
    "name": "บ้านบุญแสวง รีสอร์ท",
    "rating": 4.1,
    "address": "477 ม.9 ถนนเทศบาล 5 ตำบล หนองบัวระเหว อำเภอ หนองบัวระเหว",
    "lat": 15.7492692,
    "lng": 101.7624651
  },
  {
    "mu_place": "วัดเขาตาเงาะอุดมพร(หลวงปู่จื่อ)",
    "name": "Marina Palms Resort",
    "rating": 4.3,
    "address": "267 Ban Non Jan Ban Non Jan, อำเภอจัตุรัส",
    "lat": 15.6536983,
    "lng": 101.9367745
  },
  {
    "mu_place": "วัดเขาตาเงาะอุดมพร(หลวงปู่จื่อ)",
    "name": "โรงแรม โคออป อินน์",
    "rating": 3.7,
    "address": "ตำบล โนนแดง อำเภอ บ้านเขว้า",
    "lat": 15.7845861,
    "lng": 101.9146859
  },
  {
    "mu_place": "วัดเขาตาเงาะอุดมพร(หลวงปู่จื่อ)",
    "name": "โรงแรมสุขใจรีสอร์ท",
    "rating": 4.1,
    "address": "2170 ตำบล บ้านกอก อำเภอจัตุรัส",
    "lat": 15.5908015,
    "lng": 101.8556111
  },
  {
    "mu_place": "วัดเขาตาเงาะอุดมพร(หลวงปู่จื่อ)",
    "name": "โรงแรม การ์เด้นฮิลล์",
    "rating": 4.1,
    "address": "318 หมู่ 5 ถนนชัยภูมิ-บ้านเขว้า ตำบล ชีลอง อำเภอเมืองชัยภูมิ",
    "lat": 15.7855531,
    "lng": 101.9707689
  },
  {
    "mu_place": "วัดเขาตาเงาะอุดมพร(หลวงปู่จื่อ)",
    "name": "เฟรช แอนด์ เฟรม รีสอร์ท",
    "rating": 3.7,
    "address": "JJQ6+536 ตำบล ซับใหญ่ อำเภอ ซับใหญ่",
    "lat": 15.6379079,
    "lng": 101.6101369
  },
  {
    "mu_place": "วัดเขาตาเงาะอุดมพร(หลวงปู่จื่อ)",
    "name": "ที่พักซับใหญ่ จ.ชัยภูมิ ห้องพักเฟรชแอนด์เฟรม",
    "rating": 4.5,
    "address": "JJQ6+26G ตำบล ซับใหญ่ อำเภอ ซับใหญ่",
    "lat": 15.6375156,
    "lng": 101.6105899
  },
  {
    "mu_place": "วัดปากคลองมะขามเฒ่า - หลวงปู่ศุข",
    "name": "Chao Phraya Home",
    "rating": 4.2,
    "address": "30 Moo 7 Asia Road, Tumbon ตำบล น้ำทรง Amphoe Payuhakeeree",
    "lat": 15.4234177,
    "lng": 100.1309295
  },
  {
    "mu_place": "วัดปากคลองมะขามเฒ่า - หลวงปู่ศุข",
    "name": "โรงแรม ซีทูยู อุทัยธานี C2U Hotel Uthai-Thani",
    "rating": 3.9,
    "address": "88 ตำบล ท่าโพ อำเภอ หนองขาหย่าง",
    "lat": 15.3635937,
    "lng": 99.98394379999999
  },
  {
    "mu_place": "วัดปากคลองมะขามเฒ่า - หลวงปู่ศุข",
    "name": "บ้านสะแกกรัง รีสอร์ท",
    "rating": 4.1,
    "address": "118/7 ถนน ตำบล อุทัยใหม่ อำเภอเมืองอุทัยธานี",
    "lat": 15.3748676,
    "lng": 100.0342567
  },
  {
    "mu_place": "วัดปากคลองมะขามเฒ่า - หลวงปู่ศุข",
    "name": "S Ville",
    "rating": 4.2,
    "address": "295 ตำบล น้ำซึม อำเภอเมืองอุทัยธานี",
    "lat": 15.3716739,
    "lng": 100.0158
  },
  {
    "mu_place": "วัดปากคลองมะขามเฒ่า - หลวงปู่ศุข",
    "name": "โรงแรมมนตรีโฮเต็ล",
    "rating": 3.4,
    "address": "309 30 ถ. พหลโยธิน ตำบล บ้านกล้วย อำเภอเมืองชัยนาท",
    "lat": 15.1912907,
    "lng": 100.1326389
  },
  {
    "mu_place": "วัดปากคลองมะขามเฒ่า - หลวงปู่ศุข",
    "name": "มายอุทัย โฮเทล",
    "rating": 4.2,
    "address": "123/7 ถนน ซอย รักการดี ตำบล อุทัยใหม่ เมือง",
    "lat": 15.3734921,
    "lng": 100.0214246
  },
  {
    "mu_place": "วัดปากคลองมะขามเฒ่า - หลวงปู่ศุข",
    "name": "เฌิณ ชัยนาท",
    "rating": 4,
    "address": "ถนน พหลโยธิน เขาท่าพระ อำเภอเมืองชัยนาท",
    "lat": 15.1957735,
    "lng": 100.1270793
  },
  {
    "mu_place": "วัดปากคลองมะขามเฒ่า - หลวงปู่ศุข",
    "name": "Chaophayathara Riverside Hotel",
    "rating": 4,
    "address": "1013 หมู่ 4 บ้านกล้วย เมือง",
    "lat": 15.1664213,
    "lng": 100.132608
  },
  {
    "mu_place": "วัดปากคลองมะขามเฒ่า - หลวงปู่ศุข",
    "name": "สกายวิวรีสอร์ท ชัยนาท",
    "rating": 4.9,
    "address": "6597+79 ตำบล เขาท่าพระ อำเภอเมืองชัยนาท",
    "lat": 15.2180915,
    "lng": 100.1635478
  },
  {
    "mu_place": "วัดปากคลองมะขามเฒ่า - หลวงปู่ศุข",
    "name": "สุนันท์ บ้านพักริมคลอง Sunan Guesthouse",
    "rating": 4.3,
    "address": "63/4 ม.1 ต.น้ำซึม อ.เมือง จ",
    "lat": 15.3263471,
    "lng": 100.069944
  },
  {
    "mu_place": "วัดปากคลองมะขามเฒ่า - หลวงปู่ศุข",
    "name": "Baan U Sabai Poshtel (บ้านอยู่สบาย พอสเทล)",
    "rating": 4.7,
    "address": "188 5 ตำบล หางน้ำสาคร อำเภอมโนรมย์",
    "lat": 15.2972621,
    "lng": 100.1907881
  },
  {
    "mu_place": "วัดปากคลองมะขามเฒ่า - หลวงปู่ศุข",
    "name": "ท่าแพซุงโฮมสเตย์ - Tha Pae Sung Homestay",
    "rating": 5,
    "address": "162/3 ถนน ศรีอุทัย ตำบล อุทัยใหม่ อำเภอเมืองอุทัยธานี",
    "lat": 15.3777124,
    "lng": 100.0345587
  },
  {
    "mu_place": "วัดปากคลองมะขามเฒ่า - หลวงปู่ศุข",
    "name": "Araya Cottage",
    "rating": 4.7,
    "address": "117 หมู่ 6 อ เมือง จ, ตำบล น้ำซึม อำเภอเมืองอุทัยธานี",
    "lat": 15.3551229,
    "lng": 100.0282102
  },
  {
    "mu_place": "วัดปากคลองมะขามเฒ่า - หลวงปู่ศุข",
    "name": "อุทัยธานี รีสอร์ท",
    "rating": 4.5,
    "address": "111 2 ตำบล ท่าโพ อำเภอ หนองขาหย่าง",
    "lat": 15.3669271,
    "lng": 99.9975839
  },
  {
    "mu_place": "วัดปากคลองมะขามเฒ่า - หลวงปู่ศุข",
    "name": "บ้านต้นไม้โฮมสเตย์อุทัยธานี",
    "rating": 4.6,
    "address": "222 สะแกกรัง ตำบล สะแกกรัง เมือง",
    "lat": 15.3778328,
    "lng": 100.0446883
  },
  {
    "mu_place": "วัดปากคลองมะขามเฒ่า - หลวงปู่ศุข",
    "name": "บ้านก้ามปู อุทัยธานี",
    "rating": 4.3,
    "address": "675 ศรีอุทัย ตำบล อุทัยใหม่ อำเภอเมืองอุทัยธานี",
    "lat": 15.3878169,
    "lng": 100.0284728
  },
  {
    "mu_place": "วัดปากคลองมะขามเฒ่า - หลวงปู่ศุข",
    "name": "เรือนไม้สไตล์รีสอร์ท 1",
    "rating": 3.1,
    "address": "129 333 ตำบล อุทัยใหม่ อำเภอเมืองอุทัยธานี",
    "lat": 15.3689007,
    "lng": 100.0138182
  },
  {
    "mu_place": "วัดปากคลองมะขามเฒ่า - หลวงปู่ศุข",
    "name": "โรงแรม อุทัยเฮอริเทจ",
    "rating": 4.8,
    "address": "5 ซอย 11 ถนน ศรีอุทัย ตำบล อุทัยใหม่ อำเภอเมืองอุทัยธานี",
    "lat": 15.3788274,
    "lng": 100.0306051
  },
  {
    "mu_place": "วัดปากคลองมะขามเฒ่า - หลวงปู่ศุข",
    "name": "Ruanmai Style Resort 2",
    "rating": 4,
    "address": "20 Moo.2, T. Koh Tepo, A, อำเภอเมืองอุทัยธานี",
    "lat": 15.38482,
    "lng": 100.02032
  },
  {
    "mu_place": "วัดปากคลองมะขามเฒ่า - หลวงปู่ศุข",
    "name": "สระบัวเดอะเทอเรสโฮมสเตย์",
    "rating": 4.8,
    "address": "8 ซอย สุขเกษม ตำบล อุทัยใหม่ อำเภอเมืองอุทัยธานี",
    "lat": 15.3817181,
    "lng": 100.0265937
  },
  {
    "mu_place": "หลวงปู่ทิม พระเกจิแห่งดินแดนบูรพา วัดละหารไร่",
    "name": "Secret hotel",
    "rating": 4.3,
    "address": "สุขุมวิท 48 ตำบลเนินพระ อำเภอเมืองระยอง",
    "lat": 12.7023097,
    "lng": 101.1758169
  },
  {
    "mu_place": "หลวงปู่ทิม พระเกจิแห่งดินแดนบูรพา วัดละหารไร่",
    "name": "Platinum Hotel",
    "rating": 4.6,
    "address": "50/140 หมู่3 ต.มาบยางพร ตำบล มาบยางพร อำเภอปลวกแดง",
    "lat": 12.9915873,
    "lng": 101.1332256
  },
  {
    "mu_place": "หลวงปู่ทิม พระเกจิแห่งดินแดนบูรพา วัดละหารไร่",
    "name": "Star 3 Residence",
    "rating": 4,
    "address": "Star 3 Hotel & Residence, 111, 113 Ratchachumphon Road, Tambon Choengnoen, อำเภอเมืองระยอง",
    "lat": 12.6870745,
    "lng": 101.2712384
  },
  {
    "mu_place": "หลวงปู่ทิม พระเกจิแห่งดินแดนบูรพา วัดละหารไร่",
    "name": "i Boutique Hotel",
    "rating": 4.3,
    "address": "555/34 Moo6, Pluakdaeng, อำเภอปลวกแดง",
    "lat": 12.960817,
    "lng": 101.2073104
  },
  {
    "mu_place": "หลวงปู่ทิม พระเกจิแห่งดินแดนบูรพา วัดละหารไร่",
    "name": "The Square Hotel",
    "rating": 3.7,
    "address": "หมู่ที่ 5 99/19 ตำบล มาบข่า อำเภอนิคมพัฒนา",
    "lat": 12.7889205,
    "lng": 101.1811531
  },
  {
    "mu_place": "หลวงปู่ทิม พระเกจิแห่งดินแดนบูรพา วัดละหารไร่",
    "name": "The Contrast i Hotel",
    "rating": 4.3,
    "address": "955/100 หมู่ 4 ปลวกแดง อำเภอปลวกแดง",
    "lat": 12.9799365,
    "lng": 101.2043471
  },
  {
    "mu_place": "หลวงปู่ทิม พระเกจิแห่งดินแดนบูรพา วัดละหารไร่",
    "name": "PLAAI Play Hotel, Rayong",
    "rating": 4.2,
    "address": "78/1 ถนน หลังวัดป่า ตำบล ท่าประดู่ อำเภอเมืองระยอง",
    "lat": 12.6833079,
    "lng": 101.2806531
  },
  {
    "mu_place": "หลวงปู่ทิม พระเกจิแห่งดินแดนบูรพา วัดละหารไร่",
    "name": "ริเวอร์ฮิวล์ รีสอร์ท (Riverhills Resort)",
    "rating": 4.5,
    "address": "731, ตำบล แม่น้ำคู้ อำเภอปลวกแดง",
    "lat": 12.929592,
    "lng": 101.2480986
  },
  {
    "mu_place": "หลวงปู่ทิม พระเกจิแห่งดินแดนบูรพา วัดละหารไร่",
    "name": "ฮับ เดอ ลีฟ แอท ระยอง",
    "rating": 4.1,
    "address": "93/39 M. 7 Soi Sang Chan 1, Sangchan - Neramit Road, Nean Phra Sub-district Muang Rayong",
    "lat": 12.678965,
    "lng": 101.218639
  },
  {
    "mu_place": "หลวงปู่ทิม พระเกจิแห่งดินแดนบูรพา วัดละหารไร่",
    "name": "Arcadia Resort",
    "rating": 4.1,
    "address": "9999 ซอย มาบยางพร 28 ตำบล มาบยางพร อำเภอปลวกแดง",
    "lat": 13.0179219,
    "lng": 101.1356214
  },
  {
    "mu_place": "หลวงปู่ทิม พระเกจิแห่งดินแดนบูรพา วัดละหารไร่",
    "name": "ไอ-โฮม เรสซิเด้นซ์ แอนด์ โฮเทล",
    "rating": 4,
    "address": "36/16 ซอย, ซอย มาบยางพร 25 ตำบล มาบยางพร อำเภอปลวกแดง",
    "lat": 12.9882646,
    "lng": 101.1317155
  },
  {
    "mu_place": "หลวงปู่ทิม พระเกจิแห่งดินแดนบูรพา วัดละหารไร่",
    "name": "PLAAI Plus Hotel",
    "rating": 4.4,
    "address": "361 ถนน สุขุมวิท ตำบลเนินพระ อำเภอเมืองระยอง",
    "lat": 12.6816454,
    "lng": 101.2531788
  },
  {
    "mu_place": "หลวงปู่ทิม พระเกจิแห่งดินแดนบูรพา วัดละหารไร่",
    "name": "THE EnCony",
    "rating": 4.5,
    "address": "XCWX+H9G Valley, ตำบล ป่ายุบใน อำเภอวังจันทร์",
    "lat": 12.99671,
    "lng": 101.4485201
  },
  {
    "mu_place": "หลวงปู่ทิม พระเกจิแห่งดินแดนบูรพา วัดละหารไร่",
    "name": "โรงแรมพลายไพร์ม",
    "rating": 4.5,
    "address": "590 ถ. สุขุมวิท ตำบลเนินพระ อำเภอเมืองระยอง",
    "lat": 12.6833669,
    "lng": 101.2512253
  },
  {
    "mu_place": "หลวงปู่ทิม พระเกจิแห่งดินแดนบูรพา วัดละหารไร่",
    "name": "Holiday Inn & Suites Rayong City Centre, an IHG Hotel",
    "rating": 4.5,
    "address": "554, 5 ถ. สุขุมวิท ตำบลเนินพระ Amphur Muang",
    "lat": 12.6834354,
    "lng": 101.2500591
  },
  {
    "mu_place": "หลวงปู่ทิม พระเกจิแห่งดินแดนบูรพา วัดละหารไร่",
    "name": "Madina Hotel",
    "rating": 4.2,
    "address": "41 Rimnum Rd., T. Thapadu, A อำเภอเมืองระยอง",
    "lat": 12.6743099,
    "lng": 101.2818308
  },
  {
    "mu_place": "หลวงปู่ทิม พระเกจิแห่งดินแดนบูรพา วัดละหารไร่",
    "name": "Hotel Fuse",
    "rating": 4.7,
    "address": "188 88 ตำบลทับมา อำเภอเมืองระยอง",
    "lat": 12.6981217,
    "lng": 101.2156145
  },
  {
    "mu_place": "หลวงปู่ทิม พระเกจิแห่งดินแดนบูรพา วัดละหารไร่",
    "name": "โรงแรมบีทู ระยอง บูติก แอนด์ บัดเจท",
    "rating": 4.2,
    "address": "1, 6 ถนน ราษฎร์บำรุง ซอย 12 ตำบลเนินพระ อำเภอเมืองระยอง",
    "lat": 12.6779619,
    "lng": 101.2442746
  },
  {
    "mu_place": "หลวงปู่ทิม พระเกจิแห่งดินแดนบูรพา วัดละหารไร่",
    "name": "INTERPARK Hotel & Residence Rayong (Daily-monthly)",
    "rating": 4.3,
    "address": "414/239 moo4, Eastern Seaboard Rd.,, ตำบล ปลวกแดง อำเภอปลวกแดง",
    "lat": 13.020976,
    "lng": 101.150856
  },
  {
    "mu_place": "หลวงปู่ทิม พระเกจิแห่งดินแดนบูรพา วัดละหารไร่",
    "name": "Somjainuk Resort 2",
    "rating": 4.1,
    "address": "288 Moo 2 T.Mabyangporn, Pluak Daeng",
    "lat": 12.9717725,
    "lng": 101.1694399
  },
  {
    "mu_place": "วัดสุทัศนเทพวรารามราชวรมหาวิหาร",
    "name": "The Kinn Bangkok โรงแรมเดอะคินน์",
    "rating": 4.1,
    "address": "578 ถนน พระราม 9 ซ. 26 แขวงบางกะปิ เขตห้วยขวาง",
    "lat": 13.7526483,
    "lng": 100.58856
  },
  {
    "mu_place": "วัดสุทัศนเทพวรารามราชวรมหาวิหาร",
    "name": "Malizon Hotel & Residences โรงแรมมะลิซ้อน เรสซิเด้นซ์",
    "rating": 4.2,
    "address": "56 ซอย กรุงเทพนนท์ 4 ตำบลบางเขน ตำบลตลาดขวัญ",
    "lat": 13.8371615,
    "lng": 100.5197818
  },
  {
    "mu_place": "วัดสุทัศนเทพวรารามราชวรมหาวิหาร",
    "name": "Viva Residence",
    "rating": 4,
    "address": "90 ถนน คู้บอน แขวงรามอินทรา เขตคันนายาว",
    "lat": 13.8446463,
    "lng": 100.6637178
  },
  {
    "mu_place": "วัดสุทัศนเทพวรารามราชวรมหาวิหาร",
    "name": "Platinums",
    "rating": 3.8,
    "address": "102 ถนน พระรามที่ 2 ซอย 54 แยก 4 แขวงแสมดำ เขตบางขุนเทียน",
    "lat": 13.6689383,
    "lng": 100.4322159
  },
  {
    "mu_place": "วัดสุทัศนเทพวรารามราชวรมหาวิหาร",
    "name": "เบน เรสซิเดนซ์",
    "rating": 3.9,
    "address": "551/1 ถ. พระราม 2 ซ. 69 แขวงแสมดำ เขตบางขุนเทียน",
    "lat": 13.6401382,
    "lng": 100.4290599
  },
  {
    "mu_place": "วัดสุทัศนเทพวรารามราชวรมหาวิหาร",
    "name": "LAF hotel",
    "rating": 4.5,
    "address": "3 พหลโยธิน 5 แขวงพญาไท เขตพญาไท",
    "lat": 13.7769509,
    "lng": 100.5433783
  },
  {
    "mu_place": "วัดสุทัศนเทพวรารามราชวรมหาวิหาร",
    "name": "48 Ville Donmueang Airport",
    "rating": 4.1,
    "address": "94/1 ซอย พหลโยธิน 48 แยก 2 แขวงอนุสาวรีย์ เขตบางเขน",
    "lat": 13.8844411,
    "lng": 100.6064665
  },
  {
    "mu_place": "วัดสุทัศนเทพวรารามราชวรมหาวิหาร",
    "name": "Livotel Express Hotel Bang Kruai Nonthaburi",
    "rating": 3.7,
    "address": "การไฟฟ้าฝ่ายผลิต 60/111 ซ.กำนันอุทัย, ถ ตำบล บางกรวย อำเภอบางกรวย",
    "lat": 13.8108236,
    "lng": 100.5080327
  },
  {
    "mu_place": "วัดสุทัศนเทพวรารามราชวรมหาวิหาร",
    "name": "Bed By Cruise",
    "rating": 4,
    "address": "169, ท่าทราย, เมือง",
    "lat": 13.8871529,
    "lng": 100.5111063
  },
  {
    "mu_place": "วัดสุทัศนเทพวรารามราชวรมหาวิหาร",
    "name": "Fullrich Residence",
    "rating": 3.5,
    "address": "RJ32+8H6 ถนนนาคนิวาส แขวงลาดพร้าว เขตลาดพร้าว",
    "lat": 13.8033372,
    "lng": 100.6013473
  },
  {
    "mu_place": "วัดสุทัศนเทพวรารามราชวรมหาวิหาร",
    "name": "ลดาวัลย์ วิลล่า",
    "rating": 3.7,
    "address": "77 1 ซอย พุทธบูชา 39 แขวงบางมด เขตทุ่งครุ",
    "lat": 13.6527378,
    "lng": 100.4826527
  },
  {
    "mu_place": "วัดสุทัศนเทพวรารามราชวรมหาวิหาร",
    "name": "THE Bedroom Ladprao 101",
    "rating": 4.1,
    "address": "99 Ladprao 101 yak 38 Klongchan Bangkapi",
    "lat": 13.7874874,
    "lng": 100.6311393
  },
  {
    "mu_place": "วัดสุทัศนเทพวรารามราชวรมหาวิหาร",
    "name": "โรงแรม สวีทลอฟ ดอนเมือง",
    "rating": 3.7,
    "address": "40 ซอย สรงประภา 30 แขวงสีกัน เขตดอนเมือง",
    "lat": 13.9292526,
    "lng": 100.58428
  },
  {
    "mu_place": "วัดสุทัศนเทพวรารามราชวรมหาวิหาร",
    "name": "โรงแรมดอนเมือง",
    "rating": 3.9,
    "address": "5 สรณคมน์3 แยก 2 แขวงสีกัน เขตดอนเมือง",
    "lat": 13.9256773,
    "lng": 100.5984586
  },
  {
    "mu_place": "วัดสุทัศนเทพวรารามราชวรมหาวิหาร",
    "name": "โรงแรม บารอน โซเทล ลาดพร้าว 117 - บางกะปิ",
    "rating": 4,
    "address": "77 ซอย ลาดพร้าว 117 แขวงคลองจั่น เขตบางกะปิ",
    "lat": 13.7723808,
    "lng": 100.640731
  },
  {
    "mu_place": "วัดสุทัศนเทพวรารามราชวรมหาวิหาร",
    "name": "โรงแรมอาร์ดี",
    "rating": 3.7,
    "address": "โรงแรมอาร์ดี 10/13-16 ถ. อรุณอมรินทร์ แขวงอรุณอมรินทร์ เขตบางกอกน้อย",
    "lat": 13.7636788,
    "lng": 100.4831877
  },
  {
    "mu_place": "วัดสุทัศนเทพวรารามราชวรมหาวิหาร",
    "name": "OYO 427 Chill Apartment",
    "rating": 3.6,
    "address": "Chill Apartment, 46 ซอย เพชรเกษม 67 แยก 4 แขวงหลักสอง เขตบางแค",
    "lat": 13.7072396,
    "lng": 100.3788512
  },
  {
    "mu_place": "วัดสุทัศนเทพวรารามราชวรมหาวิหาร",
    "name": "14 Avenue",
    "rating": 3.4,
    "address": "1 ถ. พระราม ๒ แขวงบางมด เขตจอมทอง",
    "lat": 13.6821899,
    "lng": 100.4751307
  },
  {
    "mu_place": "วัดสุทัศนเทพวรารามราชวรมหาวิหาร",
    "name": "Capital O 411 Grandview Condo 15",
    "rating": 3.5,
    "address": "189/9 Lat Phrao 15 Junction 1-3, Bangkok",
    "lat": 13.8122171,
    "lng": 100.5701554
  },
  {
    "mu_place": "วัดสุทัศนเทพวรารามราชวรมหาวิหาร",
    "name": "โรงแรมไนซ์ พาเลซ",
    "rating": 3.5,
    "address": "72/54 ซอย อินทามระ 1/1 แขวงสามเสนใน เขตพญาไท",
    "lat": 13.7898098,
    "lng": 100.5519221
  },
  {
    "mu_place": "วัดพุน้อย",
    "name": "Sa-Bai-Buri สะ-บาย-บุรี",
    "rating": 4.4,
    "address": "87/2 ม 3, ตำบล หนองม่วง อำเภอ หนองม่วง",
    "lat": 15.2368754,
    "lng": 100.6546867
  },
  {
    "mu_place": "วัดพุน้อย",
    "name": "บ้านในสวนรีสอร์ท",
    "rating": 4.5,
    "address": "299 หมู่ที่ 8 ตำบล จันเสน อำเภอตาคลี",
    "lat": 15.1294745,
    "lng": 100.4657331
  },
  {
    "mu_place": "วัดพุน้อย",
    "name": "ปิ่นทองตากฟ้า รีสอร์ท",
    "rating": 4,
    "address": "หมู่ที่ 3 80 ตำบล สุขสำราญ อำเภอ ตากฟ้า",
    "lat": 15.3579388,
    "lng": 100.5034547
  },
  {
    "mu_place": "วัดพุน้อย",
    "name": "ลพบุรี สวนบัว รีสอรท์",
    "rating": 4.8,
    "address": "4GHR+W95 3354 ตำบล หนองกระเบียน อำเภอ บ้านหมี่",
    "lat": 15.1297749,
    "lng": 100.5409912
  },
  {
    "mu_place": "วัดพุน้อย",
    "name": "รีสอร์ทบ้านสวนนัทธมน ช่องแค ตาคลี นครสวรรค์",
    "rating": 4.2,
    "address": "องค์การบริหารส่วนจังหวัด 2004 ตำบล ช่องแค อำเภอตาคลี",
    "lat": 15.189974,
    "lng": 100.4077616
  },
  {
    "mu_place": "วัดพุน้อย",
    "name": "รุ้งทองรีสอร์ท",
    "rating": 4.3,
    "address": "6J9C+X2J ตำบล ชอนม่วง อำเภอ บ้านหมี่",
    "lat": 15.219959,
    "lng": 100.6200183
  },
  {
    "mu_place": "วัดพุน้อย",
    "name": "อิงช่องแคคันทรี่รีสอร์ท",
    "rating": 4.1,
    "address": "11 ตำบล สร้อยทอง อำเภอตาคลี",
    "lat": 15.1402144,
    "lng": 100.4010172
  },
  {
    "mu_place": "วัดพุน้อย",
    "name": "ไออุ่น รีสอร์ท ตากฟ้า",
    "rating": 3.9,
    "address": "9F2X+JH4 Unnamed Road ตำบล พุนกยูง อำเภอ ตากฟ้า",
    "lat": 15.3515117,
    "lng": 100.4989666
  },
  {
    "mu_place": "วัดพุน้อย",
    "name": "ธนาวดีรีสอร์ท",
    "rating": 4.7,
    "address": "8HG9+9X2 ตำบล ลำพยนต์ อำเภอ ตากฟ้า",
    "lat": 15.3258982,
    "lng": 100.5699046
  },
  {
    "mu_place": "วัดพุน้อย",
    "name": "บ้านชอนกาเหว่ารีสอร์ท",
    "rating": 4.4,
    "address": "6J4M+2XQ 2219 ตำบล ชอนม่วง อำเภอ บ้านหมี่",
    "lat": 15.2050788,
    "lng": 100.6349745
  },
  {
    "mu_place": "วัดพุน้อย",
    "name": "ปัทมารีสอร์ท",
    "rating": 4.4,
    "address": "156 ม.6 บ้านหนองเสมา บ่อทอง อำเภอ หนองม่วง",
    "lat": 15.2513134,
    "lng": 100.6505522
  },
  {
    "mu_place": "วัดพุน้อย",
    "name": "สีสันรีสอร์ท",
    "rating": 3.8,
    "address": "6MR3+75V ตำบล หนองม่วง อำเภอ หนองม่วง",
    "lat": 15.2407497,
    "lng": 100.6529165
  },
  {
    "mu_place": "วัดพุน้อย",
    "name": "Good View Erawan Resort",
    "rating": 5,
    "address": "150/1 Moo 4, Tha Kradan Ban Tha Thong Mon อำเภอ ศรีสวัสดิ์",
    "lat": 15.3526628,
    "lng": 100.5053093
  },
  {
    "mu_place": "วัดพุน้อย",
    "name": "ลูกพระกาฬโฮมสเตย์",
    "rating": 4.4,
    "address": "94 อำเภอ โคกสำโรง",
    "lat": 15.1214826,
    "lng": 100.696428
  },
  {
    "mu_place": "วัดโฆสิตาราม (หลวงพ่อกวย)",
    "name": "เดิมบางวิลล่า รีสอร์ท",
    "rating": 4.4,
    "address": "ตำบล เดิมบาง อำเภอเดิมบางนางบวช",
    "lat": 14.8951709,
    "lng": 100.0832751
  },
  {
    "mu_place": "วัดโฆสิตาราม (หลวงพ่อกวย)",
    "name": "ท่างามซิตี้รีสอร์ท",
    "rating": 3.7,
    "address": "ซิตี้ รีสอร์ท ฿600ต่อคืน, 19/2 หมู่ 11, ตำบล ท่างาม อำเภออินทร์บุรี",
    "lat": 15.0528878,
    "lng": 100.3442094
  },
  {
    "mu_place": "วัดโฆสิตาราม (หลวงพ่อกวย)",
    "name": "โรงแรมในสวนอินน์ (Nai Suan Inn)",
    "rating": 4.2,
    "address": "28 หมู่ 10 ถนน ชัยนาท-สุพรรณบุรี เดิมบาง อำเภอเดิมบางนางบวช",
    "lat": 14.8873241,
    "lng": 100.0890836
  },
  {
    "mu_place": "วัดโฆสิตาราม (หลวงพ่อกวย)",
    "name": "บ้านสวนเปรมณัฐตรา รีสอร์ท",
    "rating": 4.6,
    "address": "12 ตำบล แพรกศรีราชา อำเภอ สรรคบุรี",
    "lat": 15.0541664,
    "lng": 100.1516
  },
  {
    "mu_place": "วัดโฆสิตาราม (หลวงพ่อกวย)",
    "name": "ท่าช้างวินเทจ",
    "rating": 4.2,
    "address": "95/1 m. 7 t. doembang, doembangnangbuad Supanburi, Suphan Buri, Thailand ตำบล เดิมบาง อำเภอเดิมบางนางบวช",
    "lat": 14.87719,
    "lng": 100.0821028
  },
  {
    "mu_place": "วัดโฆสิตาราม (หลวงพ่อกวย)",
    "name": "Sumali Villa",
    "rating": 4.1,
    "address": "29 ซอย หมู่ 1 Tambon Chakrasri, Amphoe Muang",
    "lat": 14.8533926,
    "lng": 100.3846449
  },
  {
    "mu_place": "วัดโฆสิตาราม (หลวงพ่อกวย)",
    "name": "พันพิศาข์ รีสอร์ท",
    "rating": 4.3,
    "address": "4 9 ตำบล สามชุก อำเภอสามชุก",
    "lat": 14.780001,
    "lng": 100.0862178
  },
  {
    "mu_place": "วัดโฆสิตาราม (หลวงพ่อกวย)",
    "name": "The Bunny river",
    "rating": 3.7,
    "address": "V3VM+6P3 ตำบล เดิมบาง อำเภอเดิมบางนางบวช",
    "lat": 14.8929908,
    "lng": 100.0843402
  },
  {
    "mu_place": "วัดโฆสิตาราม (หลวงพ่อกวย)",
    "name": "Sinatra’s Resort",
    "rating": 5,
    "address": "W3GJ+8HJ 3216 ตำบล ปากน้ำ อำเภอเดิมบางนางบวช",
    "lat": 14.9258725,
    "lng": 100.0815544
  },
  {
    "mu_place": "วัดโฆสิตาราม (หลวงพ่อกวย)",
    "name": "อิงแม่ลา รีสอร์ท",
    "rating": 4.1,
    "address": "19 9 ตำบล ทับยา อำเภออินทร์บุรี",
    "lat": 14.9402583,
    "lng": 100.342602
  },
  {
    "mu_place": "วัดโฆสิตาราม (หลวงพ่อกวย)",
    "name": "สร้อยทองบุรี รีสอร์ท",
    "rating": 3.8,
    "address": "493Q+Q8F ตำบล สร้อยทอง อำเภอตาคลี",
    "lat": 15.104432,
    "lng": 100.388286
  },
  {
    "mu_place": "วัดโฆสิตาราม (หลวงพ่อกวย)",
    "name": "โรงแรมการ์เด้นอินทร์",
    "rating": 4.3,
    "address": "98 ตำบล ท่างาม อำเภออินทร์บุรี",
    "lat": 15.0198471,
    "lng": 100.3409697
  },
  {
    "mu_place": "วัดโฆสิตาราม (หลวงพ่อกวย)",
    "name": "โรงแรมแกรนด์ฮิลล์",
    "rating": 3.8,
    "address": "เลขที่ 129 ตำบล นางบวช อำเภอเดิมบางนางบวช",
    "lat": 14.8299544,
    "lng": 100.1135898
  },
  {
    "mu_place": "วัดโฆสิตาราม (หลวงพ่อกวย)",
    "name": "โรงแรม นางบวช รีสอร์ท",
    "rating": 3.7,
    "address": "R468+XWQ ตำบล นางบวช อำเภอเดิมบางนางบวช",
    "lat": 14.8125327,
    "lng": 100.1173549
  },
  {
    "mu_place": "วัดโฆสิตาราม (หลวงพ่อกวย)",
    "name": "ทุ่งนา รีสอร์ท",
    "rating": 4.9,
    "address": "112 อำเภอสรรพยา",
    "lat": 15.1300429,
    "lng": 100.2635179
  },
  {
    "mu_place": "วัดโฆสิตาราม (หลวงพ่อกวย)",
    "name": "โรงแรมสุขนคร",
    "rating": 3.4,
    "address": "120 หม่ 9 ตำบล เขาพระ อำเภอเดิมบางนางบวช",
    "lat": 14.8636096,
    "lng": 100.0789338
  },
  {
    "mu_place": "วัดโฆสิตาราม (หลวงพ่อกวย)",
    "name": "The Room Residence Singburi",
    "rating": 3.6,
    "address": "V9VV+826 ตำบล ต้นโพธิ์ อำเภอเมืองสิงห์บุรี",
    "lat": 14.8932811,
    "lng": 100.3925269
  },
  {
    "mu_place": "วัดโฆสิตาราม (หลวงพ่อกวย)",
    "name": "ชมพูรีสอรท",
    "rating": 3.9,
    "address": "47J7+6GP ตำบล หาดอาษา อำเภอสรรพยา",
    "lat": 15.1305543,
    "lng": 100.2637266
  },
  {
    "mu_place": "วัดโฆสิตาราม (หลวงพ่อกวย)",
    "name": "เศรษฐี พิชัย การ์เด้น&รีสอร์ท",
    "rating": 4.1,
    "address": "16 ม.4 กม.115 - 116 AH2 ตำบลโพนางดำออก อำเภอสรรพยา",
    "lat": 15.1097625,
    "lng": 100.2852049
  },
  {
    "mu_place": "วัดโฆสิตาราม (หลวงพ่อกวย)",
    "name": "โรงแรมไมตรี",
    "rating": 3.2,
    "address": "24QW+RXG ตำบล แพรกศรีราชา อำเภอ สรรคบุรี",
    "lat": 15.0395502,
    "lng": 100.1474668
  },
  {
    "mu_place": "วัดไร่แตงทอง",
    "name": "เวสท์ วิว วิลล่า รีสอร์ท กาญจนบุรี",
    "rating": 4.2,
    "address": "Wangkanai 111/3 ตำบล วังขนาย อำเภอท่าม่วง",
    "lat": 13.9704959,
    "lng": 99.6657836
  },
  {
    "mu_place": "วัดไร่แตงทอง",
    "name": "At Sleep",
    "rating": 4.1,
    "address": "Rotfai Tawan Tok, หนองปากโลง อำเภอเมืองนครปฐม",
    "lat": 13.8240694,
    "lng": 100.0354233
  },
  {
    "mu_place": "วัดไร่แตงทอง",
    "name": "บ้านโป่งเซ็นเตอร์เพลส",
    "rating": 4.2,
    "address": "185 แสงชูโต ต.บ้านโป่ง อำเภอบ้านโป่ง",
    "lat": 13.8145396,
    "lng": 99.8730463
  },
  {
    "mu_place": "วัดไร่แตงทอง",
    "name": "เดอะปาล์ม รีสอร์ท กำแพงแสน 24 ชม.",
    "rating": 4.3,
    "address": "99 9 ตำบล รางพิกุล อำเภอกำแพงแสน",
    "lat": 14.0118832,
    "lng": 99.9447452
  },
  {
    "mu_place": "วัดไร่แตงทอง",
    "name": "White House Hotel Suphanburi",
    "rating": 4.5,
    "address": "99/1 ม.3 ต ตำบล ทุ่งคอก อำเภอสองพี่น้อง",
    "lat": 14.1611298,
    "lng": 99.9631627
  },
  {
    "mu_place": "วัดไร่แตงทอง",
    "name": "มีทู กำแพงแสน",
    "rating": 3.5,
    "address": "199 ม.9 กำแพงแสน อำเภอกำแพงแสน",
    "lat": 14.0221964,
    "lng": 99.99428119999999
  },
  {
    "mu_place": "วัดไร่แตงทอง",
    "name": "โรงแรมกอดหมอน",
    "rating": 4.1,
    "address": "169 ถ. มาลัยแมน ตำบลลำพยา อำเภอเมืองนครปฐม",
    "lat": 13.820829,
    "lng": 100.0358646
  },
  {
    "mu_place": "วัดไร่แตงทอง",
    "name": "ชบาแก้ว รีสอร์ท",
    "rating": 3.7,
    "address": "เลขที่ 29/19 ม.2 ซ.เทศบาล 24, ถ.แสงชูโต, ต.ท่ามะกา อ.ท่ามะกา จ.กาญจนบุรี, 71120",
    "lat": 13.9257753,
    "lng": 99.76514879999999
  },
  {
    "mu_place": "วัดไร่แตงทอง",
    "name": "Tungdindum Resort",
    "rating": 3,
    "address": "177 Moo7, Tambon Ban yang, Mueang Nakhon Pathom",
    "lat": 13.8629734,
    "lng": 99.92156130000001
  },
  {
    "mu_place": "วัดไร่แตงทอง",
    "name": "Nine River Hotel",
    "rating": 4.3,
    "address": "469 Rimnam Rd, T, อำเภอบ้านโป่ง",
    "lat": 13.8216548,
    "lng": 99.86593359999999
  },
  {
    "mu_place": "วัดไร่แตงทอง",
    "name": "โรงแรมบ้านคำปั่น",
    "rating": 4.7,
    "address": "ถนนคำปั่น ตำบล ปากแรต อำเภอบ้านโป่ง",
    "lat": 13.8389982,
    "lng": 99.86721089999999
  },
  {
    "mu_place": "วัดไร่แตงทอง",
    "name": "Me 2 Kamphangsaen",
    "rating": 2.3,
    "address": "ตำบล กำแพงแสน อำเภอกำแพงแสน",
    "lat": 14.0223431,
    "lng": 99.99418969999999
  },
  {
    "mu_place": "วัดไร่แตงทอง",
    "name": "Feliz rooms",
    "rating": 3.5,
    "address": "กำแพงสน ตำบล กำแพงแสน อำเภอกำแพงแสน",
    "lat": 14.0215333,
    "lng": 99.99196959999999
  },
  {
    "mu_place": "วัดไร่แตงทอง",
    "name": "ธัญยธรณ์รีสอร์ท",
    "rating": 4.4,
    "address": "การไฟฟ้าส่วนภูมิภาคกำแพงแสน, 482/1 หมู่ 1 ซอย, ตำบลทุ่งกระพังโหม อำเภอกำแพงแสน",
    "lat": 13.9958995,
    "lng": 99.9925224
  },
  {
    "mu_place": "วัดไร่แตงทอง",
    "name": "บ้านสวนชมจันทร์ กำแพงแสน",
    "rating": 4.5,
    "address": "Unnamed Road ตำบลห้วยขวาง อำเภอกำแพงแสน",
    "lat": 13.9137424,
    "lng": 100.0351694
  },
  {
    "mu_place": "วัดไร่แตงทอง",
    "name": "Baankhunnine Bed & Breakfast",
    "rating": 4,
    "address": "16/1-2 ถนนค่ายหลวง ตำบลบ้านโป่ง อำเภอบ้านโป่ง",
    "lat": 13.8149289,
    "lng": 99.8687342
  },
  {
    "mu_place": "วัดไร่แตงทอง",
    "name": "โรงแรมบ้านโป่งอินน์",
    "rating": 3.9,
    "address": "21 ถนน บ้านปากแรต ตำบล ปากแรต อำเภอบ้านโป่ง",
    "lat": 13.826894,
    "lng": 99.86985179999999
  },
  {
    "mu_place": "วัดไร่แตงทอง",
    "name": "หอพักบ้านแสนสุข นครปฐม",
    "rating": 4.1,
    "address": "110 หมู่ 7 หนองปากโลง อำเภอเมืองนครปฐม",
    "lat": 13.833683,
    "lng": 100.0258958
  },
  {
    "mu_place": "วัดไร่แตงทอง",
    "name": "อยู่สบาย รีสอร์ท @บ้านโป่ง",
    "rating": 4.8,
    "address": "147 หมู่ 16 ตำบล ปากแรต อำเภอบ้านโป่ง",
    "lat": 13.8300823,
    "lng": 99.8978618
  },
  {
    "mu_place": "วัดไร่แตงทอง",
    "name": "Seven Home เซเว่นโฮม",
    "rating": 4,
    "address": "9 ถ. มาลัยแมน หนองปากโลง อำเภอเมืองนครปฐม",
    "lat": 13.8341163,
    "lng": 100.0331078
  },
  {
    "mu_place": "วัดหนองเรือ",
    "name": "View Dao Jandhra",
    "rating": 3,
    "address": "666 m.7, Tha Ta Kieb",
    "lat": 13.350743,
    "lng": 101.721085
  },
  {
    "mu_place": "วัดหนองเรือ",
    "name": "โฟกัส บ้านพัก",
    "rating": 4.3,
    "address": "9MJX+7QP ตำบล คลองตะเกรา อำเภอท่าตะเกียบ",
    "lat": 13.3807205,
    "lng": 101.6994433
  },
  {
    "mu_place": "วัดหนองเรือ",
    "name": "Ban Suan Kaset Resort",
    "rating": 5,
    "address": "219 Moo 6 T.Tha Kradan, A., Sanam Chaikhet",
    "lat": 13.612748,
    "lng": 101.73053
  },
  {
    "mu_place": "วัดหนองเรือ",
    "name": "กระทิงคันทรีวิว",
    "rating": 4,
    "address": "9MVQ+GP5 ตำบล คลองตะเกรา อำเภอท่าตะเกียบ",
    "lat": 13.3937527,
    "lng": 101.6893506
  },
  {
    "mu_place": "วัดโสธรวรารามวรวิหาร",
    "name": "Good Nine Hotel (กู๊ดไนน์โฮเทล)",
    "rating": 4.3,
    "address": "68 หมู่ที่ 6 บางนาตราด กม.32 ขาเข้ากทม, ตำบล บ้านระกาศ อำเภอบางบ่อ",
    "lat": 13.5767728,
    "lng": 100.8875664
  },
  {
    "mu_place": "วัดโสธรวรารามวรวิหาร",
    "name": "Heaven Hotel Chachoengsao",
    "rating": 4.5,
    "address": "259, 1 ถนน บางปะกง - ฉะเชิงเทรา ตำบล หน้าเมือง Mueang",
    "lat": 13.6718202,
    "lng": 101.0528764
  },
  {
    "mu_place": "วัดโสธรวรารามวรวิหาร",
    "name": "T Vintage Hotel",
    "rating": 4.1,
    "address": "86, 6 ตำบล ท่าทองหลาง อำเภอบางคล้า",
    "lat": 13.7090315,
    "lng": 101.2095127
  },
  {
    "mu_place": "วัดโสธรวรารามวรวิหาร",
    "name": "Sunee View Hotel",
    "rating": 4.3,
    "address": "58/59 Soi 7, Thepkhunakon rd. , Muang Chachoengsao, Chachoengsao Chachoengsao",
    "lat": 13.6682042,
    "lng": 101.0594513
  },
  {
    "mu_place": "วัดโสธรวรารามวรวิหาร",
    "name": "OYO 396 Wises Hotel",
    "rating": 4.2,
    "address": "672 ถนน บางปะกง - ฉะเชิงเทรา ตำบล หน้าเมือง อำเภอเมืองฉะเชิงเทรา",
    "lat": 13.6818286,
    "lng": 101.0527772
  },
  {
    "mu_place": "วัดโสธรวรารามวรวิหาร",
    "name": "ทรีเฮ้าส์ ฉะเชิงเทรา",
    "rating": 3.9,
    "address": "48/32 Soi 20 New Srisothon rd.Tambon Na Muang, Muang Chachoengsao",
    "lat": 13.6770259,
    "lng": 101.0679185
  },
  {
    "mu_place": "วัดโสธรวรารามวรวิหาร",
    "name": "tt Residence​",
    "rating": 4.3,
    "address": "4 6 ตำบล บางขนาก อำเภอบางน้ำเปรี้ยว",
    "lat": 13.8477661,
    "lng": 101.0821677
  },
  {
    "mu_place": "วัดโสธรวรารามวรวิหาร",
    "name": "บางวัว การ์เด้น รีสอร์ท",
    "rating": 4.3,
    "address": "9 ตำบล บางวัว อำเภอบางปะกง",
    "lat": 13.5608256,
    "lng": 100.9589716
  },
  {
    "mu_place": "วัดโสธรวรารามวรวิหาร",
    "name": "เกษร บูติค",
    "rating": 4.1,
    "address": "147/6 ถนน หน้าเมือง ตำบล หน้าเมือง อำเภอ เมืองฉะเชิงเทรา",
    "lat": 13.6763093,
    "lng": 101.0838947
  },
  {
    "mu_place": "วัดโสธรวรารามวรวิหาร",
    "name": "Ban Nai Tuek Hotel & Restaurant โรงแรมบ้านนายถึกและร้านอาหาร",
    "rating": 4.4,
    "address": "28 Moo2, Tumbon Klongna, Chachoengsao",
    "lat": 13.6399708,
    "lng": 101.0929765
  },
  {
    "mu_place": "วัดโสธรวรารามวรวิหาร",
    "name": "Wises Hotel โรงแรมวิเศษโฮเต็ล",
    "rating": 4.2,
    "address": "672/7 ถนน บางปะกง - ฉะเชิงเทรา ตำบล หน้าเมือง อำเภอเมืองฉะเชิงเทรา",
    "lat": 13.681841,
    "lng": 101.0527758
  },
  {
    "mu_place": "วัดโสธรวรารามวรวิหาร",
    "name": "OYO 428 Pha Mansion",
    "rating": 3,
    "address": "56/6/1 M.14 chachoengsao-bangnampriao rd",
    "lat": 13.7132458,
    "lng": 101.0917573
  },
  {
    "mu_place": "วัดโสธรวรารามวรวิหาร",
    "name": "V-VERVE HOTEL",
    "rating": 3.4,
    "address": "9 7-9 ถนน บางปะกง - ฉะเชิงเทรา ตำบล หน้าเมือง อำเภอเมืองฉะเชิงเทรา",
    "lat": 13.6929825,
    "lng": 101.0556411
  },
  {
    "mu_place": "วัดโสธรวรารามวรวิหาร",
    "name": "บ้านภูริตา รีสอร์ท (Baan PURITA)",
    "rating": 4,
    "address": "หมู่ที่ 9 6/19 ตำบล บางขนาก อำเภอบางน้ำเปรี้ยว",
    "lat": 13.8480094,
    "lng": 101.0811707
  },
  {
    "mu_place": "วัดโสธรวรารามวรวิหาร",
    "name": "เย็นจิต รีสอร์ท",
    "rating": 4.3,
    "address": "247/40, ถนนมหาจักรพรรดิ์ หน้าเมือง อำเภอ เมืองฉะเชิงเทรา",
    "lat": 13.6927246,
    "lng": 101.0609285
  },
  {
    "mu_place": "วัดโสธรวรารามวรวิหาร",
    "name": "The Brown House Hotel",
    "rating": 4.4,
    "address": "558 ถนนศุภกิจ ตำบล หน้าเมือง อำเภอเมืองฉะเชิงเทรา",
    "lat": 13.6970665,
    "lng": 101.0899762
  },
  {
    "mu_place": "วัดโสธรวรารามวรวิหาร",
    "name": "พรเจริญเพลส",
    "rating": 4.1,
    "address": "319/9 ถ. ศุขประยูร ตำบล หน้าเมือง อำเภอเมืองฉะเชิงเทรา",
    "lat": 13.668026,
    "lng": 101.0894684
  },
  {
    "mu_place": "วัดโสธรวรารามวรวิหาร",
    "name": "The powerin resort",
    "rating": 5,
    "address": "อำเภอบางน้ำเปรี้ยว ต.โพรงอากาศ",
    "lat": 13.8141536,
    "lng": 101.0598617
  },
  {
    "mu_place": "วัดโสธรวรารามวรวิหาร",
    "name": "Sunrise Lagoon Hotel and Golf",
    "rating": 4,
    "address": "20/10 Village no.5 Load no.304, Tha Thonglang, Bangkla Chachoengsao",
    "lat": 13.6777781,
    "lng": 101.237943
  },
  {
    "mu_place": "วัดโสธรวรารามวรวิหาร",
    "name": "BB House Paedriw",
    "rating": 4.8,
    "address": "ตำบล หน้าเมือง อำเภอเมืองฉะเชิงเทรา",
    "lat": 13.6724703,
    "lng": 101.0520376
  },
  {
    "mu_place": "หลวงพ่อพระใส",
    "name": "โรงแรม อมันตา",
    "rating": 4.4,
    "address": "999 1 ซอย แก้ววรวุฒิ ตำบลในเมือง อำเภอเมืองหนองคาย",
    "lat": 17.8806091,
    "lng": 102.7351257
  },
  {
    "mu_place": "หลวงพ่อพระใส",
    "name": "โรงแรม ไวท์อินน์ หนองคาย/ White Inn Nongkhai Hotel",
    "rating": 4.1,
    "address": "นิตะพัตน์ ตำบลในเมือง อำเภอเมืองหนองคาย",
    "lat": 17.8806232,
    "lng": 102.7476607
  },
  {
    "mu_place": "หลวงพ่อพระใส",
    "name": "Iyara Hotel Nongkhai",
    "rating": 4.4,
    "address": "72 Moo10 ถ. มิตรภาพ Tambon Phochai Mueng",
    "lat": 17.8712658,
    "lng": 102.7439379
  },
  {
    "mu_place": "หลวงพ่อพระใส",
    "name": "Tanzeno Hotel",
    "rating": 4.2,
    "address": "ถ. มิตรภาพ ตำบล มีชัย อำเภอเมืองหนองคาย",
    "lat": 17.8667621,
    "lng": 102.7240222
  },
  {
    "mu_place": "หลวงพ่อพระใส",
    "name": "โรงแรมสบายโพสเทล Sabai​ Poshtel",
    "rating": 4.1,
    "address": "โรงแรมสบายพสเทล และร้านอาหารสกายบาร์ 77 7 ตำบล มีชัย อำเภอเมืองหนองคาย",
    "lat": 17.8788794,
    "lng": 102.7247121
  },
  {
    "mu_place": "หลวงพ่อพระใส",
    "name": "V Hotel Vientiane",
    "rating": 3.3,
    "address": "Rue Nokeokoummane Mixay Village",
    "lat": 17.9634984,
    "lng": 102.6050858
  },
  {
    "mu_place": "หลวงพ่อพระใส",
    "name": "โรงแรมช่อฟ้า แกลเลอรี่ หนองคาย - Sofa Gallery Hotel",
    "rating": 4.2,
    "address": "24 หมู่ 2 ถนน ซอย แก้ววรวุฒิ อำเภอเมืองหนองคาย",
    "lat": 17.8784935,
    "lng": 102.7236217
  },
  {
    "mu_place": "หลวงพ่อพระใส",
    "name": "โรงแรมฮ็อป อินน์ หนองคาย Hop INN Nong Khai",
    "rating": 4.2,
    "address": "889 ตำบลในเมือง อำเภอเมืองหนองคาย",
    "lat": 17.8774417,
    "lng": 102.7439609
  },
  {
    "mu_place": "หลวงพ่อพระใส",
    "name": "Royal Jomanee Hotel",
    "rating": 3.5,
    "address": "220 หมู่ 1 ถนนพนังชลประทาน, ตำบลกวนวัน, เมือง",
    "lat": 17.8727494,
    "lng": 102.7068518
  },
  {
    "mu_place": "หลวงพ่อพระใส",
    "name": "Crystal Nongkhai Hotel",
    "rating": 4.1,
    "address": "456 ซอยดอนโพธิ์ 1, ถนนพนังชลประทาน ตำบลมีชัย, อำเภอเมือง",
    "lat": 17.8751949,
    "lng": 102.7412966
  },
  {
    "mu_place": "หลวงพ่อพระใส",
    "name": "กลางเมือง แอท หนองคาย",
    "rating": 3.9,
    "address": "823 ถนนบรรเทิงจิต ตำบลในเมือง อำเภอเมืองหนองคาย",
    "lat": 17.8830182,
    "lng": 102.746458
  },
  {
    "mu_place": "หลวงพ่อพระใส",
    "name": "โรงแรม บุศยรินทร์",
    "rating": 4.1,
    "address": "355, 491/9 ถนน สายเดิม ตำบล โพธิ์ชัย อำเภอเมืองหนองคาย",
    "lat": 17.8758168,
    "lng": 102.7540541
  },
  {
    "mu_place": "หลวงพ่อพระใส",
    "name": "โรงแรมอัศวรรณ",
    "rating": 4.1,
    "address": "9 หมู่ 10 ตำบล โพธิ์ชัย อำเภอเมืองหนองคาย",
    "lat": 17.8729582,
    "lng": 102.742938
  },
  {
    "mu_place": "หลวงพ่อพระใส",
    "name": "Pantawee Hotel Branch 2",
    "rating": 3.4,
    "address": "469 ถนน ซอย หายโศก ตำบลในเมือง อำเภอเมืองหนองคาย",
    "lat": 17.881762,
    "lng": 102.7447751
  },
  {
    "mu_place": "หลวงพ่อพระใส",
    "name": "โรงแรมรอยัลนาคาราและคอนเวนชั่นเซ็นเตอร์ หนองคาย",
    "rating": 4.1,
    "address": "VPCJ+6FR ถ. มิตรภาพ ตำบล มีชัย อำเภอเมืองหนองคาย",
    "lat": 17.87144,
    "lng": 102.7325791
  },
  {
    "mu_place": "หลวงพ่อพระใส",
    "name": "ST Vegas Resort",
    "rating": 4.4,
    "address": "Thadeua Road, Thanaleng",
    "lat": 17.8856001,
    "lng": 102.7111424
  },
  {
    "mu_place": "หลวงพ่อพระใส",
    "name": "โรงแรมบ้านสวนวินเทจ - Ban Suan Vintage Hotel",
    "rating": 4.8,
    "address": "341 หมู่ 12 ตำบล กองนาง อำเภอ ท่าบ่อ",
    "lat": 17.8709012,
    "lng": 102.5778046
  },
  {
    "mu_place": "หลวงพ่อพระใส",
    "name": "One Vientiane Hotel",
    "rating": 4.3,
    "address": "XJ82+VRF, Souphanouvong Ave, Vientiane",
    "lat": 17.9671984,
    "lng": 102.6020426
  },
  {
    "mu_place": "หลวงพ่อพระใส",
    "name": "วานา เวลเนส รีสอร์ท",
    "rating": 4.1,
    "address": "222/2 เมือง เมือง",
    "lat": 17.8998618,
    "lng": 102.7762842
  },
  {
    "mu_place": "หลวงพ่อพระใส",
    "name": "Patuxay Place Hotel",
    "rating": 4.5,
    "address": "Vientiane",
    "lat": 17.9734095,
    "lng": 102.6164098
  },
  {
    "mu_place": "วัดสวนขัน (พ่อท่านคล้ายวาจาสิทธิ์)",
    "name": "Baan Rom Lom Yen",
    "rating": 4.4,
    "address": "129 Moo 5, Kathun, Phipun, Nakorn Si Thamarat Kathun",
    "lat": 8.578517699999999,
    "lng": 99.5682095
  },
  {
    "mu_place": "วัดสวนขัน (พ่อท่านคล้ายวาจาสิทธิ์)",
    "name": "Lake Camp Cafe’ Camping",
    "rating": 4.4,
    "address": "129 ตำบล เขาพระ อำเภอ พิปูน",
    "lat": 8.6049177,
    "lng": 99.6052912
  },
  {
    "mu_place": "วัดสวนขัน (พ่อท่านคล้ายวาจาสิทธิ์)",
    "name": "D'Endless Resotel",
    "rating": 4.4,
    "address": "88 8 ตำบล เขาแก้ว อำเภอ ลานสกา",
    "lat": 8.357665599999999,
    "lng": 99.7280636
  },
  {
    "mu_place": "วัดสวนขัน (พ่อท่านคล้ายวาจาสิทธิ์)",
    "name": "Baan Yaychoey บ้านยายเชย คีรีวง",
    "rating": 4.2,
    "address": "368/2 Moo 9 Baan Yaychoey, Soi 4002, Kamlon, Lam Saka, Nakhon Si Thammarat Kiriwong",
    "lat": 8.434313699999999,
    "lng": 99.77794449999999
  },
  {
    "mu_place": "วัดสวนขัน (พ่อท่านคล้ายวาจาสิทธิ์)",
    "name": "Passion Resort Kiriwong : แพสชั่น รีสอร์ต คีรีวง",
    "rating": 4,
    "address": "CQMM+PFR นศ.4070 ตำบล กำโลน อำเภอ ลานสกา",
    "lat": 8.4343975,
    "lng": 99.78360529999999
  },
  {
    "mu_place": "วัดสวนขัน (พ่อท่านคล้ายวาจาสิทธิ์)",
    "name": "Greenspace Living / Vacation Home Rental",
    "rating": 4.2,
    "address": "Greenspace living หมู่14 น้ำตกท่าแพ ตำบล ช้างกลาง อำเภอ ช้างกลาง",
    "lat": 8.3597456,
    "lng": 99.68455449999999
  },
  {
    "mu_place": "วัดสวนขัน (พ่อท่านคล้ายวาจาสิทธิ์)",
    "name": "Kiriwong Charming Resort",
    "rating": 4,
    "address": "9/1 M.10 T.Kamloan , Lansaka Nakorn si thamarat",
    "lat": 8.4313826,
    "lng": 99.782935
  },
  {
    "mu_place": "วัดสวนขัน (พ่อท่านคล้ายวาจาสิทธิ์)",
    "name": "Copter 360 Cafe & Resort",
    "rating": 4.7,
    "address": "8MJ5+RP ตำบล ช้างกลาง อำเภอ ช้างกลาง",
    "lat": 8.331554600000002,
    "lng": 99.6580077
  },
  {
    "mu_place": "วัดสวนขัน (พ่อท่านคล้ายวาจาสิทธิ์)",
    "name": "โรงแรมไชน่าปาร์ค รีสอร์ท จันดี",
    "rating": 3.2,
    "address": "168 4195 ตำบล จันดี อำเภอ ฉวาง",
    "lat": 8.3990092,
    "lng": 99.5666425
  },
  {
    "mu_place": "วัดสวนขัน (พ่อท่านคล้ายวาจาสิทธิ์)",
    "name": "นันชณารีสอร์ท Nanchana Resort",
    "rating": 3.9,
    "address": "85 หมู่9 ทุ่งสง อำเภอ นาบอน",
    "lat": 8.303673,
    "lng": 99.5092919
  },
  {
    "mu_place": "วัดสวนขัน (พ่อท่านคล้ายวาจาสิทธิ์)",
    "name": "Baan Tonnam Khiriwong Lan Saka - บ้านต้นน้ำ คีรีวง ลานสกา",
    "rating": 4.5,
    "address": "ตำบล กำโลน อำเภอ ลานสกา",
    "lat": 8.44465,
    "lng": 99.75915379999999
  },
  {
    "mu_place": "วัดสวนขัน (พ่อท่านคล้ายวาจาสิทธิ์)",
    "name": "โรงแรมริมธารา",
    "rating": 4.5,
    "address": "93 ตำบล กำโลน อำเภอ ลานสกา",
    "lat": 8.434354299999999,
    "lng": 99.77458440000001
  },
  {
    "mu_place": "วัดสวนขัน (พ่อท่านคล้ายวาจาสิทธิ์)",
    "name": "Seuahwan Boutique Homestay",
    "rating": 4.4,
    "address": "121 ม .5 ต กำ โลน อ ลาน สกา ตำบล กำโลน อำเภอ ลานสกา",
    "lat": 8.432284899999999,
    "lng": 99.7800736
  },
  {
    "mu_place": "วัดสวนขัน (พ่อท่านคล้ายวาจาสิทธิ์)",
    "name": "คีรีวงบ้านลูกไม้Homestay/กลุ่มลูกไม้",
    "rating": 4.6,
    "address": "33 3 ตำบล กำโลน อำเภอ ลานสกา",
    "lat": 8.4376796,
    "lng": 99.7793914
  },
  {
    "mu_place": "วัดสวนขัน (พ่อท่านคล้ายวาจาสิทธิ์)",
    "name": "โรงแรมควนกลางอินน์",
    "rating": 4.1,
    "address": "8F89+VMC ตำบล ปริก อำเภอ ทุ่งใหญ่",
    "lat": 8.3171803,
    "lng": 99.46914509999999
  },
  {
    "mu_place": "วัดสวนขัน (พ่อท่านคล้ายวาจาสิทธิ์)",
    "name": "โรงแรมจินเฮง",
    "rating": 3.6,
    "address": "9HM2+398 ตำบล จันดี อำเภอ ฉวาง",
    "lat": 8.382660699999999,
    "lng": 99.5509506
  },
  {
    "mu_place": "วัดสวนขัน (พ่อท่านคล้ายวาจาสิทธิ์)",
    "name": "house in the mountains - บ้านในอ้อมกอดเขา",
    "rating": 4.7,
    "address": "115 7 ตำบล กำโลน อำเภอ ลานสกา",
    "lat": 8.433978999999999,
    "lng": 99.7843755
  },
  {
    "mu_place": "วัดสวนขัน (พ่อท่านคล้ายวาจาสิทธิ์)",
    "name": "โรงแรมกรีนวิวรีสอร์ทลานสกา",
    "rating": 4.3,
    "address": "9P4V+MX8 ตำบล เขาแก้ว อำเภอ ลานสกา",
    "lat": 8.3566565,
    "lng": 99.7449446
  },
  {
    "mu_place": "วัดสวนขัน (พ่อท่านคล้ายวาจาสิทธิ์)",
    "name": "Chandee Hotel",
    "rating": 0,
    "address": "83-84 Moo4, Tambon Chandi, Amphoe Chawang, Nakhon Si Thammarat, 80150",
    "lat": 8.395302,
    "lng": 99.57295099999999
  },
  {
    "mu_place": "วัดสวนขัน (พ่อท่านคล้ายวาจาสิทธิ์)",
    "name": "บ้านสวนรีสอร์ท",
    "rating": 4.8,
    "address": "บ้าน สวน รีสอร์ท, ตำบล เขาแก้ว อำเภอ ลานสกา",
    "lat": 8.361091700000001,
    "lng": 99.77839759999999
  },
  {
    "mu_place": "วัดอรุณราชวรารามราชวรมหาวิหาร",
    "name": "Bed By Cruise",
    "rating": 4,
    "address": "169, ท่าทราย, เมือง",
    "lat": 13.8871529,
    "lng": 100.5111063
  },
  {
    "mu_place": "วัดอรุณราชวรารามราชวรมหาวิหาร",
    "name": "Malizon Hotel & Residences โรงแรมมะลิซ้อน เรสซิเด้นซ์",
    "rating": 4.2,
    "address": "56 ซอย กรุงเทพนนท์ 4 ตำบลบางเขน ตำบลตลาดขวัญ",
    "lat": 13.8371615,
    "lng": 100.5197818
  },
  {
    "mu_place": "วัดอรุณราชวรารามราชวรมหาวิหาร",
    "name": "Viva Residence",
    "rating": 4,
    "address": "90 ถนน คู้บอน แขวงรามอินทรา เขตคันนายาว",
    "lat": 13.8446463,
    "lng": 100.6637178
  },
  {
    "mu_place": "วัดอรุณราชวรารามราชวรมหาวิหาร",
    "name": "โรงแรมดอนเมือง",
    "rating": 3.9,
    "address": "5 สรณคมน์3 แยก 2 แขวงสีกัน เขตดอนเมือง",
    "lat": 13.9256773,
    "lng": 100.5984586
  },
  {
    "mu_place": "วัดอรุณราชวรารามราชวรมหาวิหาร",
    "name": "48 Ville Donmueang Airport",
    "rating": 4.1,
    "address": "94/1 ซอย พหลโยธิน 48 แยก 2 แขวงอนุสาวรีย์ เขตบางเขน",
    "lat": 13.8844411,
    "lng": 100.6064665
  },
  {
    "mu_place": "วัดอรุณราชวรารามราชวรมหาวิหาร",
    "name": "The Residence Thepkanjana",
    "rating": 4.3,
    "address": "403 ซอย คลองมะเดื่อ 12 ตำบล คลองมะเดื่อ อำเภอกระทุ่มแบน",
    "lat": 13.6256767,
    "lng": 100.3052499
  },
  {
    "mu_place": "วัดอรุณราชวรารามราชวรมหาวิหาร",
    "name": "Pranot Apartment & Spa",
    "rating": 4.4,
    "address": "41/49 ชั้น 2 4 ถ. บางกรวย - ไทรน้อย ตำบล บางกร่าง เมือน",
    "lat": 13.8393983,
    "lng": 100.4550125
  },
  {
    "mu_place": "วัดอรุณราชวรารามราชวรมหาวิหาร",
    "name": "OYO 427 Chill Apartment",
    "rating": 3.6,
    "address": "Chill Apartment, 46 ซอย เพชรเกษม 67 แยก 4 แขวงหลักสอง เขตบางแค",
    "lat": 13.7072396,
    "lng": 100.3788512
  },
  {
    "mu_place": "วัดอรุณราชวรารามราชวรมหาวิหาร",
    "name": "โรงแรมลิโวเทล เอ็กซ์เพรส (รามคำแหง 50)",
    "rating": 3.5,
    "address": "26 ซอย รามคำแหง 50 หัวหมาก เขตบางกะปิ",
    "lat": 13.7597194,
    "lng": 100.6426302
  },
  {
    "mu_place": "วัดอรุณราชวรารามราชวรมหาวิหาร",
    "name": "โรงแรมเอมเฮาส์ กรุงเทพ",
    "rating": 4.2,
    "address": "95 99 ถ. เจริญนคร แขวงคลองต้นไทร เขตคลองสาน",
    "lat": 13.7220347,
    "lng": 100.5054127
  },
  {
    "mu_place": "วัดอรุณราชวรารามราชวรมหาวิหาร",
    "name": "เบน เรสซิเดนซ์",
    "rating": 3.9,
    "address": "551/1 ถ. พระราม 2 ซ. 69 แขวงแสมดำ เขตบางขุนเทียน",
    "lat": 13.6401382,
    "lng": 100.4290599
  },
  {
    "mu_place": "วัดอรุณราชวรารามราชวรมหาวิหาร",
    "name": "Platinums",
    "rating": 3.8,
    "address": "102 ถนน พระรามที่ 2 ซอย 54 แยก 4 แขวงแสมดำ เขตบางขุนเทียน",
    "lat": 13.6689383,
    "lng": 100.4322159
  },
  {
    "mu_place": "วัดอรุณราชวรารามราชวรมหาวิหาร",
    "name": "The Home Hotel",
    "rating": 4.1,
    "address": "THE HOME HOTEL 119/1 ซอย รามคำแหง 50 แขวงหัวหมาก เขตบางกะปิ",
    "lat": 13.7548714,
    "lng": 100.6432517
  },
  {
    "mu_place": "วัดอรุณราชวรารามราชวรมหาวิหาร",
    "name": "โรงแรม บารอน โซเทล ลาดพร้าว 117 - บางกะปิ",
    "rating": 4,
    "address": "77 ซอย ลาดพร้าว 117 แขวงคลองจั่น เขตบางกะปิ",
    "lat": 13.7723808,
    "lng": 100.640731
  },
  {
    "mu_place": "วัดอรุณราชวรารามราชวรมหาวิหาร",
    "name": "Boom inn(ID LINE: boominn)",
    "rating": 4.2,
    "address": "88, 2 Soi Thairomklao, ตำบล บางม่วง Bangyai District",
    "lat": 13.8408315,
    "lng": 100.4088324
  },
  {
    "mu_place": "วัดอรุณราชวรารามราชวรมหาวิหาร",
    "name": "THE Bedroom Ladprao 101",
    "rating": 4.1,
    "address": "99 Ladprao 101 yak 38 Klongchan Bangkapi",
    "lat": 13.7874874,
    "lng": 100.6311393
  },
  {
    "mu_place": "วัดอรุณราชวรารามราชวรมหาวิหาร",
    "name": "สินสิริ 2 ลาดพร้าว 98/1",
    "rating": 4,
    "address": "13 ซอย ลาดพร้าว 98/1 แขวงวังทองหลาง เขตวังทองหลาง",
    "lat": 13.7830986,
    "lng": 100.6130945
  },
  {
    "mu_place": "วัดอรุณราชวรารามราชวรมหาวิหาร",
    "name": "โรงแรมริมน้ำ สุขสวัสดิ์ 70",
    "rating": 3.4,
    "address": "78 61 ถนน สุขสวัสดิ์ 70 ลัดหลวง อำเภอพระประแดง",
    "lat": 13.6408725,
    "lng": 100.5205619
  },
  {
    "mu_place": "วัดอรุณราชวรารามราชวรมหาวิหาร",
    "name": "โรงแรมนันทรา สุขุมวิท39",
    "rating": 3.2,
    "address": "แขวงคลองตันเหนือ เขตวัฒนา",
    "lat": 13.7311691,
    "lng": 100.5701829
  },
  {
    "mu_place": "วัดอรุณราชวรารามราชวรมหาวิหาร",
    "name": "14 รีสอร์ท",
    "rating": 4.1,
    "address": "2/1-3 35/1 ถ. เพชรเกษม แขวงบางหว้า เขตภาษีเจริญ",
    "lat": 13.7114159,
    "lng": 100.4322334
  },
  {
    "mu_place": "พระพิฆเนศ เทพแห่งความสำเร็จ วัดดอกจั่น(สถานที่เลี้ยงเด็กกำพร้า)",
    "name": "B2 Premier Hotel & Resort / บีทู พรีเมียร์ รีสอร์ท",
    "rating": 4.5,
    "address": "163 ถนนคลองชลประทาน ตำบลสุเทพ อำเภอเมืองเชียงใหม่",
    "lat": 18.7731806,
    "lng": 98.9511296
  },
  {
    "mu_place": "พระพิฆเนศ เทพแห่งความสำเร็จ วัดดอกจั่น(สถานที่เลี้ยงเด็กกำพร้า)",
    "name": "โรงแรม ดอนจั่นแกรนด์",
    "rating": 4.4,
    "address": "56/2 หมู่ 4 ท่าศาลา, เมือง",
    "lat": 18.761287,
    "lng": 99.033851
  },
  {
    "mu_place": "พระพิฆเนศ เทพแห่งความสำเร็จ วัดดอกจั่น(สถานที่เลี้ยงเด็กกำพร้า)",
    "name": "Pantip Boutique Hotel",
    "rating": 4.5,
    "address": "42 ซอย 1 ตำบล เหมืองง่า อำเภอเมืองลำพูน",
    "lat": 18.5958655,
    "lng": 99.02439629999999
  },
  {
    "mu_place": "พระพิฆเนศ เทพแห่งความสำเร็จ วัดดอกจั่น(สถานที่เลี้ยงเด็กกำพร้า)",
    "name": "B2 Resort Hotel / บีทู รีสอร์ท",
    "rating": 4.5,
    "address": "142 ถนนวงแหวนรอบ 2 ตำบล สันผีเสื้อ เมือง",
    "lat": 18.8459059,
    "lng": 98.9939498
  },
  {
    "mu_place": "พระพิฆเนศ เทพแห่งความสำเร็จ วัดดอกจั่น(สถานที่เลี้ยงเด็กกำพร้า)",
    "name": "Sleep Airport Hotel Chiang Mai",
    "rating": 3.8,
    "address": "33 21-22 ซอย บ้านใหม่สามัคคี 14 ตำบล แม่เหียะ อำเภอเมืองเชียงใหม่",
    "lat": 18.7558101,
    "lng": 98.9677441
  },
  {
    "mu_place": "พระพิฆเนศ เทพแห่งความสำเร็จ วัดดอกจั่น(สถานที่เลี้ยงเด็กกำพร้า)",
    "name": "OYO 421 Dnk Baan Suan",
    "rating": 3.9,
    "address": "53/17 ถ.จิตตวงค์พันธ์รังสรรค์ ในเมือง เมือง",
    "lat": 18.5857718,
    "lng": 99.01688639999999
  },
  {
    "mu_place": "พระพิฆเนศ เทพแห่งความสำเร็จ วัดดอกจั่น(สถานที่เลี้ยงเด็กกำพร้า)",
    "name": "Faikham Boutique ฝ้ายคำ บูธีค เชียงใหม่",
    "rating": 3.8,
    "address": "หมู่ที่ 3 เลขที่18 ตำบลสันกลาง อำเภอสันกำแพง",
    "lat": 18.777693,
    "lng": 99.05146909999999
  },
  {
    "mu_place": "พระพิฆเนศ เทพแห่งความสำเร็จ วัดดอกจั่น(สถานที่เลี้ยงเด็กกำพร้า)",
    "name": "B2 Black Business Hotel / บีทู แบล็ค",
    "rating": 4.5,
    "address": "149/19 หมู่ที่ 1 ถนนเลียบคลอง ถนน ชลประทาน อำเภอเมืองเชียงใหม่",
    "lat": 18.8204972,
    "lng": 98.9638523
  },
  {
    "mu_place": "พระพิฆเนศ เทพแห่งความสำเร็จ วัดดอกจั่น(สถานที่เลี้ยงเด็กกำพร้า)",
    "name": "โรงแรมมาละไม หางดง",
    "rating": 3.9,
    "address": "263/4 ซอย บ้านช้างคำน้อย 2 หมู่ 4 ตำบลหางดง อำเภอหางดง",
    "lat": 18.6915274,
    "lng": 98.9235813
  },
  {
    "mu_place": "พระพิฆเนศ เทพแห่งความสำเร็จ วัดดอกจั่น(สถานที่เลี้ยงเด็กกำพร้า)",
    "name": "B2 Mahidol Boutique & Budget Hotel / บีทู มหิดล",
    "rating": 4.5,
    "address": "125/1 หมู่ที่ 5 ถนน มหิดล ตำบลหนองหอย อำเภอเมืองเชียงใหม่",
    "lat": 18.7594662,
    "lng": 99.0170351
  },
  {
    "mu_place": "พระพิฆเนศ เทพแห่งความสำเร็จ วัดดอกจั่น(สถานที่เลี้ยงเด็กกำพร้า)",
    "name": "North Inn Town",
    "rating": 4.4,
    "address": "10 2 ถ. ป่าตันงาม ตำบลป่าตัน อำเภอเมืองเชียงใหม่",
    "lat": 18.8060298,
    "lng": 98.9940178
  },
  {
    "mu_place": "พระพิฆเนศ เทพแห่งความสำเร็จ วัดดอกจั่น(สถานที่เลี้ยงเด็กกำพร้า)",
    "name": "โรงแรมเชียงใหม่ฮิลล์",
    "rating": 3.7,
    "address": "211 ถ. ห้วยแก้ว ตำบลสุเทพ เมือง",
    "lat": 18.803983,
    "lng": 98.9620638
  },
  {
    "mu_place": "พระพิฆเนศ เทพแห่งความสำเร็จ วัดดอกจั่น(สถานที่เลี้ยงเด็กกำพร้า)",
    "name": "B2 Santitham Boutique & Budget Hotel / บีทู สันติธรรม",
    "rating": 4.5,
    "address": "43 ถนนเทพรักษ์ ถนน ช้างเผือก อำเภอเมืองเชียงใหม่",
    "lat": 18.8041543,
    "lng": 98.9734446
  },
  {
    "mu_place": "พระพิฆเนศ เทพแห่งความสำเร็จ วัดดอกจั่น(สถานที่เลี้ยงเด็กกำพร้า)",
    "name": "B2 Riverside Colonial Hotel / บีทู ริเวอรด์ ไซด์ โคโลเนียล",
    "rating": 4.5,
    "address": "9 ถนน เจริญราษฎร์ ตำบลวัดเกต อำเภอเมืองเชียงใหม่",
    "lat": 18.7908826,
    "lng": 99.0034297
  },
  {
    "mu_place": "พระพิฆเนศ เทพแห่งความสำเร็จ วัดดอกจั่น(สถานที่เลี้ยงเด็กกำพร้า)",
    "name": "Inspirehouse Hotel Chiangmai",
    "rating": 3.7,
    "address": "63 ถนน รัตนโกสินทร์ T. WATGATE A. MUANG",
    "lat": 18.8013679,
    "lng": 99.0100914
  },
  {
    "mu_place": "พระพิฆเนศ เทพแห่งความสำเร็จ วัดดอกจั่น(สถานที่เลี้ยงเด็กกำพร้า)",
    "name": "Loyy Hotel",
    "rating": 4.4,
    "address": "64 2 ถนน ลอยเคราะห์ ตำบลช้างคลาน อำเภอเมืองเชียงใหม่",
    "lat": 18.7841496,
    "lng": 98.9969347
  },
  {
    "mu_place": "พระพิฆเนศ เทพแห่งความสำเร็จ วัดดอกจั่น(สถานที่เลี้ยงเด็กกำพร้า)",
    "name": "B2 Green Boutique & Budget Hotel / บีทู กรีน",
    "rating": 4.6,
    "address": "24 ถนน เสริมสุข ช้างเผือก อำเภอเมืองเชียงใหม่",
    "lat": 18.7999555,
    "lng": 98.9760429
  },
  {
    "mu_place": "พระพิฆเนศ เทพแห่งความสำเร็จ วัดดอกจั่น(สถานที่เลี้ยงเด็กกำพร้า)",
    "name": "Him Doi House @ Doisaket ฮิมดอยเฮ้าส์ ดอยสะเก็ด",
    "rating": 4.1,
    "address": "31/1, ตำบล เชิงดอย อำเภอดอยสะเก็ด",
    "lat": 18.8744768,
    "lng": 99.1341739
  },
  {
    "mu_place": "พระพิฆเนศ เทพแห่งความสำเร็จ วัดดอกจั่น(สถานที่เลี้ยงเด็กกำพร้า)",
    "name": "CM Night Bazaar Boutique Hotel (โรงแรมซีเอ็มไนท์บาซาร์บูทีค)",
    "rating": 3.8,
    "address": "41/6 6 ถนน ลอยเคราะห์ ตำบลช้างคลาน อำเภอเมืองเชียงใหม่",
    "lat": 18.7829225,
    "lng": 99.00177629999999
  },
  {
    "mu_place": "พระพิฆเนศ เทพแห่งความสำเร็จ วัดดอกจั่น(สถานที่เลี้ยงเด็กกำพร้า)",
    "name": "B2 Khamtieng Boutique & Budget Hote / บีทู คำเที่ยง บูติค แอนด์ บัดเจท",
    "rating": 4.5,
    "address": "2 1 ถ. ป่าตันงาม ตำบลช้างเผือก อำเภอเมืองเชียงใหม่",
    "lat": 18.8113485,
    "lng": 98.996709
  },
  {
    "mu_place": "วัดนางพระยา",
    "name": "Beloft Hotel โรงแรมบีลอฟท์โฮเทล",
    "rating": 4.2,
    "address": "5/19 ถนนกะโรม 40 ซอยกะโรม อำเภอเมืองนครศรีธรรมราช",
    "lat": 8.4349092,
    "lng": 99.9295154
  },
  {
    "mu_place": "วัดนางพระยา",
    "name": "โรงแรมเดอะ เทอเรส - The Terrace Hotel",
    "rating": 4.2,
    "address": "109/17 หมู่ 5 ถ. อ้อมค่ายวชิราวุธ ตำบล ปากพูน อำเภอเมืองนครศรีธรรมราช",
    "lat": 8.4633469,
    "lng": 99.9648454
  },
  {
    "mu_place": "วัดนางพระยา",
    "name": "โรงแรม เดอะ ออริจินอล ออเรนจ์",
    "rating": 4.1,
    "address": "6 37-40 ถ. พัฒนาการคูขวาง ตำบล ในเมือง อำเภอเมืองนครศรีธรรมราช",
    "lat": 8.399901999999999,
    "lng": 99.9792107
  },
  {
    "mu_place": "วัดนางพระยา",
    "name": "The Signature Nakhon Hotel : เดอะซิกเนเจอร์นคร โฮเทล",
    "rating": 4.5,
    "address": "2/114-115 73 ถ. พัฒนาการคูขวาง ในเมือง เมือง",
    "lat": 8.3900189,
    "lng": 99.9789731
  },
  {
    "mu_place": "วัดนางพระยา",
    "name": "โรงแรมเดอะพีค บูติค",
    "rating": 4,
    "address": "ตำบล นาสาร อำเภอ พระพรหม นาสาร อำเภอ พระพรหม",
    "lat": 8.3780321,
    "lng": 99.9617839
  },
  {
    "mu_place": "วัดนางพระยา",
    "name": "สมายล์พาร์ค Smile Park Hotel",
    "rating": 4.5,
    "address": "หมู่ที5 589 ถ. อ้อมค่ายวชิราวุธ ตำบล ปากพูน อำเภอเมืองนครศรีธรรมราช",
    "lat": 8.469284,
    "lng": 99.96456409999999
  },
  {
    "mu_place": "วัดนางพระยา",
    "name": "Navakitel Design Hotel",
    "rating": 4.4,
    "address": "10 Saphan Yao Road, ตำบล โพธิ์เสด็จ Muang",
    "lat": 8.4335177,
    "lng": 99.95115799999999
  },
  {
    "mu_place": "วัดนางพระยา",
    "name": "B3 Hotel",
    "rating": 4,
    "address": "6/16, ถนน ท่าโพธิ์ ตำบล ท่างิ้ว อำเภอเมืองนครศรีธรรมราช",
    "lat": 8.5003805,
    "lng": 99.93107739999999
  },
  {
    "mu_place": "วัดนางพระยา",
    "name": "โรงแรมบีทู นครศรีธรรมราช พรีเมียร์",
    "rating": 3.9,
    "address": "1584 23 ถนน ศรีปราชญ์ ตำบล ท่าวัง อำเภอเมืองนครศรีธรรมราช",
    "lat": 8.4420328,
    "lng": 99.9624711
  },
  {
    "mu_place": "วัดนางพระยา",
    "name": "โรงแรม ชฎา@นคร",
    "rating": 4,
    "address": "569 หมู่ที่ 1 ถ. อ้อมค่ายวชิราวุธ ตำบล ปากพูน อำเภอเมืองนครศรีธรรมราช",
    "lat": 8.4919738,
    "lng": 99.959948
  },
  {
    "mu_place": "วัดนางพระยา",
    "name": "Chul Boutique Villa จุล บูทิค วิลล่า",
    "rating": 4.8,
    "address": "เลขที่ 125 หมู่ 4 ถนน ปากนคร ตำบล ท่าซัก เมืองฯ",
    "lat": 8.4429611,
    "lng": 99.9818829
  },
  {
    "mu_place": "วัดนางพระยา",
    "name": "โรงแรมแกรนด์ฟอร์จูน นครศรีธรรมราช",
    "rating": 4.5,
    "address": "359 ถ. พัฒนาการคูขวาง ในเมือง อำเภอเมืองนครศรีธรรมราช",
    "lat": 8.3969372,
    "lng": 99.9767115
  },
  {
    "mu_place": "วัดนางพระยา",
    "name": "โรงแรม เอ็มดีแกรนด์",
    "rating": 3.9,
    "address": "88 17 ถ. พัฒนาการคูขวาง ตำบล ท่าวัง อำเภอเมืองนครศรีธรรมราช",
    "lat": 8.439973199999999,
    "lng": 99.9706247
  },
  {
    "mu_place": "วัดนางพระยา",
    "name": "โรงแรม The Inka Hotel",
    "rating": 4.4,
    "address": "ถนนจำเริญวิถี คลัง, เมือง",
    "lat": 8.4377175,
    "lng": 99.9610041
  },
  {
    "mu_place": "วัดนางพระยา",
    "name": "Radina Residence",
    "rating": 4.3,
    "address": "26 14 หมู่ที่ 3 ถนน เอเชีย ตำบล นาทราย อำเภอเมืองนครศรีธรรมราช",
    "lat": 8.459861499999999,
    "lng": 99.9239322
  },
  {
    "mu_place": "วัดนางพระยา",
    "name": "English Resotel",
    "rating": 4.7,
    "address": "88/8 Makam Chum Rd, ตำบล นาเคียน Mueng",
    "lat": 8.4483243,
    "lng": 99.9524448
  },
  {
    "mu_place": "วัดนางพระยา",
    "name": "โรงแรมพริกหอมการ์เด้น",
    "rating": 3.7,
    "address": "54 Pattanakarn - Khukwang Road ตำบล ในเมือง อำเภอเมืองนครศรีธรรมราช",
    "lat": 8.417345,
    "lng": 99.9757614
  },
  {
    "mu_place": "วัดนางพระยา",
    "name": "โรงแรม เดอะทวิน โลตัส",
    "rating": 4.2,
    "address": "6 ถ. พัฒนาการคูขวาง ตำบล ในเมือง อำเภอเมืองนครศรีธรรมราช",
    "lat": 8.3988654,
    "lng": 99.97791869999999
  },
  {
    "mu_place": "วัดนางพระยา",
    "name": "โรงแรมแกรนด์ปาร์ค",
    "rating": 4,
    "address": "1204 79 ถนน ปากนคร Tambon Klang, อำเภอเมืองนครศรีธรรมราช",
    "lat": 8.4393824,
    "lng": 99.9644074
  },
  {
    "mu_place": "วัดนางพระยา",
    "name": "The Plug hotel @ i-Biz Avenue",
    "rating": 4.4,
    "address": "245/1-4 ถ.พัฒนาการคูขวาง ต.ในเมือง ในเมือง เมือง",
    "lat": 8.426696699999999,
    "lng": 99.970783
  },
  {
    "mu_place": "วัดพระศรีรัตนมหาธาตุวรมหาวิหาร (วัดใหญ่)",
    "name": "Beloft Hotel โรงแรมบีลอฟท์โฮเทล",
    "rating": 4.2,
    "address": "5/19 ถนนกะโรม 40 ซอยกะโรม อำเภอเมืองนครศรีธรรมราช",
    "lat": 8.4349092,
    "lng": 99.9295154
  },
  {
    "mu_place": "วัดพระศรีรัตนมหาธาตุวรมหาวิหาร (วัดใหญ่)",
    "name": "โรงแรม เดอะ ออริจินอล ออเรนจ์",
    "rating": 4.1,
    "address": "6 37-40 ถ. พัฒนาการคูขวาง ตำบล ในเมือง อำเภอเมืองนครศรีธรรมราช",
    "lat": 8.399901999999999,
    "lng": 99.9792107
  },
  {
    "mu_place": "วัดพระศรีรัตนมหาธาตุวรมหาวิหาร (วัดใหญ่)",
    "name": "โรงแรมเดอะ เทอเรส - The Terrace Hotel",
    "rating": 4.2,
    "address": "109/17 หมู่ 5 ถ. อ้อมค่ายวชิราวุธ ตำบล ปากพูน อำเภอเมืองนครศรีธรรมราช",
    "lat": 8.4633469,
    "lng": 99.9648454
  },
  {
    "mu_place": "วัดพระศรีรัตนมหาธาตุวรมหาวิหาร (วัดใหญ่)",
    "name": "โรงแรมเดอะพีค บูติค",
    "rating": 4,
    "address": "ตำบล นาสาร อำเภอ พระพรหม นาสาร อำเภอ พระพรหม",
    "lat": 8.3780321,
    "lng": 99.9617839
  },
  {
    "mu_place": "วัดพระศรีรัตนมหาธาตุวรมหาวิหาร (วัดใหญ่)",
    "name": "Navakitel Design Hotel",
    "rating": 4.4,
    "address": "10 Saphan Yao Road, ตำบล โพธิ์เสด็จ Muang",
    "lat": 8.4335177,
    "lng": 99.95115799999999
  },
  {
    "mu_place": "วัดพระศรีรัตนมหาธาตุวรมหาวิหาร (วัดใหญ่)",
    "name": "B3 Hotel",
    "rating": 4,
    "address": "6/16, ถนน ท่าโพธิ์ ตำบล ท่างิ้ว อำเภอเมืองนครศรีธรรมราช",
    "lat": 8.5003805,
    "lng": 99.93107739999999
  },
  {
    "mu_place": "วัดพระศรีรัตนมหาธาตุวรมหาวิหาร (วัดใหญ่)",
    "name": "สมายล์พาร์ค Smile Park Hotel",
    "rating": 4.5,
    "address": "หมู่ที5 589 ถ. อ้อมค่ายวชิราวุธ ตำบล ปากพูน อำเภอเมืองนครศรีธรรมราช",
    "lat": 8.469284,
    "lng": 99.96456409999999
  },
  {
    "mu_place": "วัดพระศรีรัตนมหาธาตุวรมหาวิหาร (วัดใหญ่)",
    "name": "The Signature Nakhon Hotel : เดอะซิกเนเจอร์นคร โฮเทล",
    "rating": 4.5,
    "address": "2/114-115 73 ถ. พัฒนาการคูขวาง ในเมือง เมือง",
    "lat": 8.3900189,
    "lng": 99.9789731
  },
  {
    "mu_place": "วัดพระศรีรัตนมหาธาตุวรมหาวิหาร (วัดใหญ่)",
    "name": "โรงแรม ชฎา@นคร",
    "rating": 4,
    "address": "569 หมู่ที่ 1 ถ. อ้อมค่ายวชิราวุธ ตำบล ปากพูน อำเภอเมืองนครศรีธรรมราช",
    "lat": 8.4919738,
    "lng": 99.959948
  },
  {
    "mu_place": "วัดพระศรีรัตนมหาธาตุวรมหาวิหาร (วัดใหญ่)",
    "name": "โรงแรมบีทู นครศรีธรรมราช พรีเมียร์",
    "rating": 3.9,
    "address": "1584 23 ถนน ศรีปราชญ์ ตำบล ท่าวัง อำเภอเมืองนครศรีธรรมราช",
    "lat": 8.4420328,
    "lng": 99.9624711
  },
  {
    "mu_place": "วัดพระศรีรัตนมหาธาตุวรมหาวิหาร (วัดใหญ่)",
    "name": "Chul Boutique Villa จุล บูทิค วิลล่า",
    "rating": 4.8,
    "address": "เลขที่ 125 หมู่ 4 ถนน ปากนคร ตำบล ท่าซัก เมืองฯ",
    "lat": 8.4429611,
    "lng": 99.9818829
  },
  {
    "mu_place": "วัดพระศรีรัตนมหาธาตุวรมหาวิหาร (วัดใหญ่)",
    "name": "โรงแรมแกรนด์ฟอร์จูน นครศรีธรรมราช",
    "rating": 4.5,
    "address": "359 ถ. พัฒนาการคูขวาง ในเมือง อำเภอเมืองนครศรีธรรมราช",
    "lat": 8.3969372,
    "lng": 99.9767115
  },
  {
    "mu_place": "วัดพระศรีรัตนมหาธาตุวรมหาวิหาร (วัดใหญ่)",
    "name": "โรงแรม เอ็มดีแกรนด์",
    "rating": 3.9,
    "address": "88 17 ถ. พัฒนาการคูขวาง ตำบล ท่าวัง อำเภอเมืองนครศรีธรรมราช",
    "lat": 8.439973199999999,
    "lng": 99.9706247
  },
  {
    "mu_place": "วัดพระศรีรัตนมหาธาตุวรมหาวิหาร (วัดใหญ่)",
    "name": "Radina Residence",
    "rating": 4.3,
    "address": "26 14 หมู่ที่ 3 ถนน เอเชีย ตำบล นาทราย อำเภอเมืองนครศรีธรรมราช",
    "lat": 8.459861499999999,
    "lng": 99.9239322
  },
  {
    "mu_place": "วัดพระศรีรัตนมหาธาตุวรมหาวิหาร (วัดใหญ่)",
    "name": "โรงแรมพริกหอมการ์เด้น",
    "rating": 3.7,
    "address": "54 Pattanakarn - Khukwang Road ตำบล ในเมือง อำเภอเมืองนครศรีธรรมราช",
    "lat": 8.417345,
    "lng": 99.9757614
  },
  {
    "mu_place": "วัดพระศรีรัตนมหาธาตุวรมหาวิหาร (วัดใหญ่)",
    "name": "English Resotel",
    "rating": 4.7,
    "address": "88/8 Makam Chum Rd, ตำบล นาเคียน Mueng",
    "lat": 8.4483243,
    "lng": 99.9524448
  },
  {
    "mu_place": "วัดพระศรีรัตนมหาธาตุวรมหาวิหาร (วัดใหญ่)",
    "name": "โรงแรม The Inka Hotel",
    "rating": 4.4,
    "address": "ถนนจำเริญวิถี คลัง, เมือง",
    "lat": 8.4377175,
    "lng": 99.9610041
  },
  {
    "mu_place": "วัดพระศรีรัตนมหาธาตุวรมหาวิหาร (วัดใหญ่)",
    "name": "โรงแรม เดอะทวิน โลตัส",
    "rating": 4.2,
    "address": "6 ถ. พัฒนาการคูขวาง ตำบล ในเมือง อำเภอเมืองนครศรีธรรมราช",
    "lat": 8.3988654,
    "lng": 99.97791869999999
  },
  {
    "mu_place": "วัดพระศรีรัตนมหาธาตุวรมหาวิหาร (วัดใหญ่)",
    "name": "โรงแรมแกรนด์ปาร์ค",
    "rating": 4,
    "address": "1204 79 ถนน ปากนคร Tambon Klang, อำเภอเมืองนครศรีธรรมราช",
    "lat": 8.4393824,
    "lng": 99.9644074
  },
  {
    "mu_place": "วัดพระศรีรัตนมหาธาตุวรมหาวิหาร (วัดใหญ่)",
    "name": "Montra Nakhon Guesthouse",
    "rating": 4.5,
    "address": "822 ถ. ราชดำเนิน ตำบล ในเมือง อำเภอเมืองนครศรีธรรมราช",
    "lat": 8.4240431,
    "lng": 99.964157
  },
  {
    "mu_place": "วัดเจดีย์ ไอ้ไข่",
    "name": "โรงแรมซี สโตน",
    "rating": 3.8,
    "address": "327/55 ม.3 อำเภอ สิชล",
    "lat": 8.999321799999999,
    "lng": 99.9178261
  },
  {
    "mu_place": "วัดเจดีย์ ไอ้ไข่",
    "name": "โรงแรมสิชลโมเดิร์น เฮ้าส์",
    "rating": 4.1,
    "address": "319/36, อำเภอ สิชล",
    "lat": 9.005258,
    "lng": 99.9070306
  },
  {
    "mu_place": "วัดเจดีย์ ไอ้ไข่",
    "name": "​สิชล​ไฮด์อะเวย์ Sichon Hideaway",
    "rating": 4.6,
    "address": "213 หมู่​8 ตำบล ทุ่งใส อำเภอ สิชล",
    "lat": 9.0299818,
    "lng": 99.9122902
  },
  {
    "mu_place": "วัดเจดีย์ ไอ้ไข่",
    "name": "Chaiyai River Front Hotel",
    "rating": 4.3,
    "address": "Unnamed Road ตำบล สิชล อำเภอ สิชล",
    "lat": 9.0158533,
    "lng": 99.913069
  },
  {
    "mu_place": "วัดเจดีย์ ไอ้ไข่",
    "name": "โรงแรม บรรเจิด BANJERT HOTEL",
    "rating": 4.8,
    "address": "385/13 ถนน คอเขาปลายทอน ม.5 ต อำเภอ สิชล",
    "lat": 8.9867971,
    "lng": 99.9111818
  },
  {
    "mu_place": "วัดเจดีย์ ไอ้ไข่",
    "name": "ティップブリー ホテル & リゾート",
    "rating": 4.2,
    "address": "330, 7 ถ. ตลาดสิชล ตำบล สิชล อำเภอ สิชล",
    "lat": 9.0032844,
    "lng": 99.8892912
  },
  {
    "mu_place": "วัดเจดีย์ ไอ้ไข่",
    "name": "@Sichon Resort(แอทสิชลรีสอร์ท)",
    "rating": 4.4,
    "address": "14/1 บ้าน จอมทอง, ตำบล สิชล อำเภอ สิชล",
    "lat": 9.0347425,
    "lng": 99.8648616
  },
  {
    "mu_place": "วัดเจดีย์ ไอ้ไข่",
    "name": "TASALA cabana",
    "rating": 4.1,
    "address": "277 หมู่ 3 ถนนโคกตะเคียน-ท่าสูง ต.สระแก้ว อ.ท่าศาลา จ, ตำบล สระแก้ว อำเภอท่าศาลา",
    "lat": 8.7646104,
    "lng": 99.93592400000001
  },
  {
    "mu_place": "วัดเจดีย์ ไอ้ไข่",
    "name": "Issara Beach Resort Beachfront Zone",
    "rating": 3.3,
    "address": "222, ตำบล สิชล อำเภอ สิชล",
    "lat": 9.007648099999999,
    "lng": 99.9224692
  },
  {
    "mu_place": "วัดเจดีย์ ไอ้ไข่",
    "name": "Sichon Baan Au Resort",
    "rating": 4.3,
    "address": "หมู่ที่ 5 292 ตำบล สิชล อำเภอ สิชล",
    "lat": 9.0018453,
    "lng": 99.898696
  },
  {
    "mu_place": "วัดเจดีย์ ไอ้ไข่",
    "name": "โรงแรม ทิพย์บุรีริเวอร์ไซด์ Thipburee Riverside",
    "rating": 4.4,
    "address": "319/39, ตำบล สิชล อำเภอ สิชล",
    "lat": 9.0047148,
    "lng": 99.90878699999999
  },
  {
    "mu_place": "วัดเจดีย์ ไอ้ไข่",
    "name": "Prasarnsook Villa Beach Resort",
    "rating": 4.2,
    "address": "625/4 Hin Ngam Beach, ตำบล สิชล อำเภอ สิชล",
    "lat": 9.0105474,
    "lng": 99.91997909999999
  },
  {
    "mu_place": "วัดเจดีย์ ไอ้ไข่",
    "name": "สิชล ลัลลา บีช Sichon lalla beach",
    "rating": 4.7,
    "address": "ลัลลา บีช สิชล อำเภอ สิชล ตำบล ทุ่งปรัง Si Chon",
    "lat": 8.960423,
    "lng": 99.91297709999999
  },
  {
    "mu_place": "วัดเจดีย์ ไอ้ไข่",
    "name": "อันดาวาบีช รีสอร์ท",
    "rating": 4.1,
    "address": "329/11 อำเภอ สิชล",
    "lat": 9.0070019,
    "lng": 99.9223873
  },
  {
    "mu_place": "วัดเจดีย์ ไอ้ไข่",
    "name": "อิสระบีช รีสอร์ท",
    "rating": 3.7,
    "address": "2W5C+4V9 ตำบล สิชล อำเภอ สิชล",
    "lat": 9.007784,
    "lng": 99.9222466
  },
  {
    "mu_place": "วัดเจดีย์ ไอ้ไข่",
    "name": "Ekman Garden Resort",
    "rating": 4.2,
    "address": "39/2 Moo 5 SaoPao Sichon",
    "lat": 8.916898000000002,
    "lng": 99.90309409999999
  },
  {
    "mu_place": "วัดเจดีย์ ไอ้ไข่",
    "name": "บรรเจิด วิลล่า บีช @ สิชล",
    "rating": 4.5,
    "address": "385 14 ม.5 ตำบล สิชล อำเภอ สิชล",
    "lat": 8.9811182,
    "lng": 99.9144341
  },
  {
    "mu_place": "วัดเจดีย์ ไอ้ไข่",
    "name": "Baankai Sichon Villa",
    "rating": 5,
    "address": "138, ตำบล ฉลอง อำเภอ สิชล",
    "lat": 8.925962,
    "lng": 99.829999
  },
  {
    "mu_place": "วัดเจดีย์ ไอ้ไข่",
    "name": "สกายโฮม วัดเจดีย์ ไอ้ไข่ Resort & Restaurant",
    "rating": 4.8,
    "address": "57 หมู่ 9 ตำบล เสาเภา อำเภอ สิชล",
    "lat": 8.9131669,
    "lng": 99.85619919999999
  },
  {
    "mu_place": "วัดเจดีย์ ไอ้ไข่",
    "name": "Meetup villas @tungsai sichon",
    "rating": 4.8,
    "address": "212 tungsai, ตำบล สิชล อำเภอ สิชล",
    "lat": 9.029096,
    "lng": 99.9126754
  },
  {
    "mu_place": "วัดเขาขุนพนม",
    "name": "Beloft Hotel โรงแรมบีลอฟท์โฮเทล",
    "rating": 4.2,
    "address": "5/19 ถนนกะโรม 40 ซอยกะโรม อำเภอเมืองนครศรีธรรมราช",
    "lat": 8.4349092,
    "lng": 99.9295154
  },
  {
    "mu_place": "วัดเขาขุนพนม",
    "name": "โรงแรมเดอะ เทอเรส - The Terrace Hotel",
    "rating": 4.2,
    "address": "109/17 หมู่ 5 ถ. อ้อมค่ายวชิราวุธ ตำบล ปากพูน อำเภอเมืองนครศรีธรรมราช",
    "lat": 8.4633469,
    "lng": 99.9648454
  },
  {
    "mu_place": "วัดเขาขุนพนม",
    "name": "โรงแรมเดอะพีค บูติค",
    "rating": 4,
    "address": "ตำบล นาสาร อำเภอ พระพรหม นาสาร อำเภอ พระพรหม",
    "lat": 8.3780321,
    "lng": 99.9617839
  },
  {
    "mu_place": "วัดเขาขุนพนม",
    "name": "โรงแรม เดอะ ออริจินอล ออเรนจ์",
    "rating": 4.1,
    "address": "6 37-40 ถ. พัฒนาการคูขวาง ตำบล ในเมือง อำเภอเมืองนครศรีธรรมราช",
    "lat": 8.399901999999999,
    "lng": 99.9792107
  },
  {
    "mu_place": "วัดเขาขุนพนม",
    "name": "The Signature Nakhon Hotel : เดอะซิกเนเจอร์นคร โฮเทล",
    "rating": 4.5,
    "address": "2/114-115 73 ถ. พัฒนาการคูขวาง ในเมือง เมือง",
    "lat": 8.3900189,
    "lng": 99.9789731
  },
  {
    "mu_place": "วัดเขาขุนพนม",
    "name": "Navakitel Design Hotel",
    "rating": 4.4,
    "address": "10 Saphan Yao Road, ตำบล โพธิ์เสด็จ Muang",
    "lat": 8.4335177,
    "lng": 99.95115799999999
  },
  {
    "mu_place": "วัดเขาขุนพนม",
    "name": "สมายล์พาร์ค Smile Park Hotel",
    "rating": 4.5,
    "address": "หมู่ที5 589 ถ. อ้อมค่ายวชิราวุธ ตำบล ปากพูน อำเภอเมืองนครศรีธรรมราช",
    "lat": 8.469284,
    "lng": 99.96456409999999
  },
  {
    "mu_place": "วัดเขาขุนพนม",
    "name": "B3 Hotel",
    "rating": 4,
    "address": "6/16, ถนน ท่าโพธิ์ ตำบล ท่างิ้ว อำเภอเมืองนครศรีธรรมราช",
    "lat": 8.5003805,
    "lng": 99.93107739999999
  },
  {
    "mu_place": "วัดเขาขุนพนม",
    "name": "โรงแรมบีทู นครศรีธรรมราช พรีเมียร์",
    "rating": 3.9,
    "address": "1584 23 ถนน ศรีปราชญ์ ตำบล ท่าวัง อำเภอเมืองนครศรีธรรมราช",
    "lat": 8.4420328,
    "lng": 99.9624711
  },
  {
    "mu_place": "วัดเขาขุนพนม",
    "name": "โรงแรม ชฎา@นคร",
    "rating": 4,
    "address": "569 หมู่ที่ 1 ถ. อ้อมค่ายวชิราวุธ ตำบล ปากพูน อำเภอเมืองนครศรีธรรมราช",
    "lat": 8.4919738,
    "lng": 99.959948
  },
  {
    "mu_place": "วัดเขาขุนพนม",
    "name": "Chul Boutique Villa จุล บูทิค วิลล่า",
    "rating": 4.8,
    "address": "เลขที่ 125 หมู่ 4 ถนน ปากนคร ตำบล ท่าซัก เมืองฯ",
    "lat": 8.4429611,
    "lng": 99.9818829
  },
  {
    "mu_place": "วัดเขาขุนพนม",
    "name": "โรงแรมแกรนด์ฟอร์จูน นครศรีธรรมราช",
    "rating": 4.5,
    "address": "359 ถ. พัฒนาการคูขวาง ในเมือง อำเภอเมืองนครศรีธรรมราช",
    "lat": 8.3969372,
    "lng": 99.9767115
  },
  {
    "mu_place": "วัดเขาขุนพนม",
    "name": "โรงแรม เอ็มดีแกรนด์",
    "rating": 3.9,
    "address": "88 17 ถ. พัฒนาการคูขวาง ตำบล ท่าวัง อำเภอเมืองนครศรีธรรมราช",
    "lat": 8.439973199999999,
    "lng": 99.9706247
  },
  {
    "mu_place": "วัดเขาขุนพนม",
    "name": "โรงแรม The Inka Hotel",
    "rating": 4.4,
    "address": "ถนนจำเริญวิถี คลัง, เมือง",
    "lat": 8.4377175,
    "lng": 99.9610041
  },
  {
    "mu_place": "วัดเขาขุนพนม",
    "name": "Radina Residence",
    "rating": 4.3,
    "address": "26 14 หมู่ที่ 3 ถนน เอเชีย ตำบล นาทราย อำเภอเมืองนครศรีธรรมราช",
    "lat": 8.459861499999999,
    "lng": 99.9239322
  },
  {
    "mu_place": "วัดเขาขุนพนม",
    "name": "Get Sleep @ท่าศาลา",
    "rating": 3.9,
    "address": "MW82+R7F 4140 ตำบล ไทยบุรี อำเภอท่าศาลา",
    "lat": 8.666891399999999,
    "lng": 99.9014644
  },
  {
    "mu_place": "วัดเขาขุนพนม",
    "name": "โรงแรมพริกหอมการ์เด้น",
    "rating": 3.7,
    "address": "54 Pattanakarn - Khukwang Road ตำบล ในเมือง อำเภอเมืองนครศรีธรรมราช",
    "lat": 8.417345,
    "lng": 99.9757614
  },
  {
    "mu_place": "วัดเขาขุนพนม",
    "name": "โรงแรม เดอะทวิน โลตัส",
    "rating": 4.2,
    "address": "6 ถ. พัฒนาการคูขวาง ตำบล ในเมือง อำเภอเมืองนครศรีธรรมราช",
    "lat": 8.3988654,
    "lng": 99.97791869999999
  },
  {
    "mu_place": "วัดเขาขุนพนม",
    "name": "English Resotel",
    "rating": 4.7,
    "address": "88/8 Makam Chum Rd, ตำบล นาเคียน Mueng",
    "lat": 8.4483243,
    "lng": 99.9524448
  },
  {
    "mu_place": "วัดเขาขุนพนม",
    "name": "โรงแรมแกรนด์ปาร์ค",
    "rating": 4,
    "address": "1204 79 ถนน ปากนคร Tambon Klang, อำเภอเมืองนครศรีธรรมราช",
    "lat": 8.4393824,
    "lng": 99.9644074
  },
  {
    "mu_place": "วัดธาตุน้อย",
    "name": "Beloft Hotel โรงแรมบีลอฟท์โฮเทล",
    "rating": 4.2,
    "address": "5/19 ถนนกะโรม 40 ซอยกะโรม อำเภอเมืองนครศรีธรรมราช",
    "lat": 8.4349092,
    "lng": 99.9295154
  },
  {
    "mu_place": "วัดธาตุน้อย",
    "name": "โรงแรมเดอะ เทอเรส - The Terrace Hotel",
    "rating": 4.2,
    "address": "109/17 หมู่ 5 ถ. อ้อมค่ายวชิราวุธ ตำบล ปากพูน อำเภอเมืองนครศรีธรรมราช",
    "lat": 8.4633469,
    "lng": 99.9648454
  },
  {
    "mu_place": "วัดธาตุน้อย",
    "name": "โรงแรมเดอะพีค บูติค",
    "rating": 4,
    "address": "ตำบล นาสาร อำเภอ พระพรหม นาสาร อำเภอ พระพรหม",
    "lat": 8.3780321,
    "lng": 99.9617839
  },
  {
    "mu_place": "วัดธาตุน้อย",
    "name": "โรงแรม เดอะ ออริจินอล ออเรนจ์",
    "rating": 4.1,
    "address": "6 37-40 ถ. พัฒนาการคูขวาง ตำบล ในเมือง อำเภอเมืองนครศรีธรรมราช",
    "lat": 8.399901999999999,
    "lng": 99.9792107
  },
  {
    "mu_place": "วัดธาตุน้อย",
    "name": "The Signature Nakhon Hotel : เดอะซิกเนเจอร์นคร โฮเทล",
    "rating": 4.5,
    "address": "2/114-115 73 ถ. พัฒนาการคูขวาง ในเมือง เมือง",
    "lat": 8.3900189,
    "lng": 99.9789731
  },
  {
    "mu_place": "วัดธาตุน้อย",
    "name": "Navakitel Design Hotel",
    "rating": 4.4,
    "address": "10 Saphan Yao Road, ตำบล โพธิ์เสด็จ Muang",
    "lat": 8.4335177,
    "lng": 99.95115799999999
  },
  {
    "mu_place": "วัดธาตุน้อย",
    "name": "สมายล์พาร์ค Smile Park Hotel",
    "rating": 4.5,
    "address": "หมู่ที5 589 ถ. อ้อมค่ายวชิราวุธ ตำบล ปากพูน อำเภอเมืองนครศรีธรรมราช",
    "lat": 8.469284,
    "lng": 99.96456409999999
  },
  {
    "mu_place": "วัดธาตุน้อย",
    "name": "B3 Hotel",
    "rating": 4,
    "address": "6/16, ถนน ท่าโพธิ์ ตำบล ท่างิ้ว อำเภอเมืองนครศรีธรรมราช",
    "lat": 8.5003805,
    "lng": 99.93107739999999
  },
  {
    "mu_place": "วัดธาตุน้อย",
    "name": "โรงแรมบีทู นครศรีธรรมราช พรีเมียร์",
    "rating": 3.9,
    "address": "1584 23 ถนน ศรีปราชญ์ ตำบล ท่าวัง อำเภอเมืองนครศรีธรรมราช",
    "lat": 8.4420328,
    "lng": 99.9624711
  },
  {
    "mu_place": "วัดธาตุน้อย",
    "name": "โรงแรม ชฎา@นคร",
    "rating": 4,
    "address": "569 หมู่ที่ 1 ถ. อ้อมค่ายวชิราวุธ ตำบล ปากพูน อำเภอเมืองนครศรีธรรมราช",
    "lat": 8.4919738,
    "lng": 99.959948
  },
  {
    "mu_place": "วัดธาตุน้อย",
    "name": "Chul Boutique Villa จุล บูทิค วิลล่า",
    "rating": 4.8,
    "address": "เลขที่ 125 หมู่ 4 ถนน ปากนคร ตำบล ท่าซัก เมืองฯ",
    "lat": 8.4429611,
    "lng": 99.9818829
  },
  {
    "mu_place": "วัดธาตุน้อย",
    "name": "โรงแรมแกรนด์ฟอร์จูน นครศรีธรรมราช",
    "rating": 4.5,
    "address": "359 ถ. พัฒนาการคูขวาง ในเมือง อำเภอเมืองนครศรีธรรมราช",
    "lat": 8.3969372,
    "lng": 99.9767115
  },
  {
    "mu_place": "วัดธาตุน้อย",
    "name": "โรงแรม เอ็มดีแกรนด์",
    "rating": 3.9,
    "address": "88 17 ถ. พัฒนาการคูขวาง ตำบล ท่าวัง อำเภอเมืองนครศรีธรรมราช",
    "lat": 8.439973199999999,
    "lng": 99.9706247
  },
  {
    "mu_place": "วัดธาตุน้อย",
    "name": "โรงแรม The Inka Hotel",
    "rating": 4.4,
    "address": "ถนนจำเริญวิถี คลัง, เมือง",
    "lat": 8.4377175,
    "lng": 99.9610041
  },
  {
    "mu_place": "วัดธาตุน้อย",
    "name": "Radina Residence",
    "rating": 4.3,
    "address": "26 14 หมู่ที่ 3 ถนน เอเชีย ตำบล นาทราย อำเภอเมืองนครศรีธรรมราช",
    "lat": 8.459861499999999,
    "lng": 99.9239322
  },
  {
    "mu_place": "วัดธาตุน้อย",
    "name": "Get Sleep @ท่าศาลา",
    "rating": 3.9,
    "address": "MW82+R7F 4140 ตำบล ไทยบุรี อำเภอท่าศาลา",
    "lat": 8.666891399999999,
    "lng": 99.9014644
  },
  {
    "mu_place": "วัดธาตุน้อย",
    "name": "โรงแรมพริกหอมการ์เด้น",
    "rating": 3.7,
    "address": "54 Pattanakarn - Khukwang Road ตำบล ในเมือง อำเภอเมืองนครศรีธรรมราช",
    "lat": 8.417345,
    "lng": 99.9757614
  },
  {
    "mu_place": "วัดธาตุน้อย",
    "name": "โรงแรม เดอะทวิน โลตัส",
    "rating": 4.2,
    "address": "6 ถ. พัฒนาการคูขวาง ตำบล ในเมือง อำเภอเมืองนครศรีธรรมราช",
    "lat": 8.3988654,
    "lng": 99.97791869999999
  },
  {
    "mu_place": "วัดธาตุน้อย",
    "name": "English Resotel",
    "rating": 4.7,
    "address": "88/8 Makam Chum Rd, ตำบล นาเคียน Mueng",
    "lat": 8.4483243,
    "lng": 99.9524448
  },
  {
    "mu_place": "วัดธาตุน้อย",
    "name": "โรงแรมแกรนด์ปาร์ค",
    "rating": 4,
    "address": "1204 79 ถนน ปากนคร Tambon Klang, อำเภอเมืองนครศรีธรรมราช",
    "lat": 8.4393824,
    "lng": 99.9644074
  },
  {
    "mu_place": "ศาลหลักเมืองขนอม",
    "name": "เดอะ บลู ซี ดอนสัก (The Blue C Donsak Hotel)",
    "rating": 4.1,
    "address": "58 หมู่ที่ 5 ถนน หน้าเมือง ตำบล ดอนสัก อำเภอ ดอนสัก",
    "lat": 9.31246,
    "lng": 99.68604599999999
  },
  {
    "mu_place": "ศาลหลักเมืองขนอม",
    "name": "โรงแรมขนอมโกลเด้นบีช",
    "rating": 4.1,
    "address": "59/3 หมู่ 4 หาด หน้า ด่าน, อำเภอ ขนอม",
    "lat": 9.182946,
    "lng": 99.873893
  },
  {
    "mu_place": "ศาลหลักเมืองขนอม",
    "name": "โรงแรมสิชลโมเดิร์น เฮ้าส์",
    "rating": 4.1,
    "address": "319/36, อำเภอ สิชล",
    "lat": 9.005258,
    "lng": 99.9070306
  },
  {
    "mu_place": "ศาลหลักเมืองขนอม",
    "name": "​สิชล​ไฮด์อะเวย์ Sichon Hideaway",
    "rating": 4.6,
    "address": "213 หมู่​8 ตำบล ทุ่งใส อำเภอ สิชล",
    "lat": 9.0299818,
    "lng": 99.9122902
  },
  {
    "mu_place": "ศาลหลักเมืองขนอม",
    "name": "Chaiyai River Front Hotel",
    "rating": 4.3,
    "address": "Unnamed Road ตำบล สิชล อำเภอ สิชล",
    "lat": 9.0158533,
    "lng": 99.913069
  },
  {
    "mu_place": "ศาลหลักเมืองขนอม",
    "name": "Hallo Villa",
    "rating": 4.7,
    "address": "14/17 อำเภอ ขนอม",
    "lat": 9.1970069,
    "lng": 99.8647379
  },
  {
    "mu_place": "ศาลหลักเมืองขนอม",
    "name": "ティップブリー ホテル & リゾート",
    "rating": 4.2,
    "address": "330, 7 ถ. ตลาดสิชล ตำบล สิชล อำเภอ สิชล",
    "lat": 9.0032844,
    "lng": 99.8892912
  },
  {
    "mu_place": "ศาลหลักเมืองขนอม",
    "name": "@Sichon Resort(แอทสิชลรีสอร์ท)",
    "rating": 4.4,
    "address": "14/1 บ้าน จอมทอง, ตำบล สิชล อำเภอ สิชล",
    "lat": 9.0347425,
    "lng": 99.8648616
  },
  {
    "mu_place": "ศาลหลักเมืองขนอม",
    "name": "Sea Mountain Khanom Hotel",
    "rating": 3.9,
    "address": "19/21 Moo 2 Khanom",
    "lat": 9.1891764,
    "lng": 99.8725905
  },
  {
    "mu_place": "ศาลหลักเมืองขนอม",
    "name": "Issara Beach Resort Beachfront Zone",
    "rating": 3.3,
    "address": "222, ตำบล สิชล อำเภอ สิชล",
    "lat": 9.007648099999999,
    "lng": 99.9224692
  },
  {
    "mu_place": "ศาลหลักเมืองขนอม",
    "name": "โรงแรม ทิพย์บุรีริเวอร์ไซด์ Thipburee Riverside",
    "rating": 4.4,
    "address": "319/39, ตำบล สิชล อำเภอ สิชล",
    "lat": 9.0047148,
    "lng": 99.90878699999999
  },
  {
    "mu_place": "ศาลหลักเมืองขนอม",
    "name": "ปาล์มฮิล รีสอร์ท",
    "rating": 4,
    "address": "อำเภอ ขนอม",
    "lat": 9.2010163,
    "lng": 99.8546805
  },
  {
    "mu_place": "ศาลหลักเมืองขนอม",
    "name": "Sichon Baan Au Resort",
    "rating": 4.3,
    "address": "หมู่ที่ 5 292 ตำบล สิชล อำเภอ สิชล",
    "lat": 9.0018453,
    "lng": 99.898696
  },
  {
    "mu_place": "ศาลหลักเมืองขนอม",
    "name": "Prasarnsook Villa Beach Resort",
    "rating": 4.2,
    "address": "625/4 Hin Ngam Beach, ตำบล สิชล อำเภอ สิชล",
    "lat": 9.0105474,
    "lng": 99.91997909999999
  },
  {
    "mu_place": "ศาลหลักเมืองขนอม",
    "name": "อิสระบีช รีสอร์ท",
    "rating": 3.7,
    "address": "2W5C+4V9 ตำบล สิชล อำเภอ สิชล",
    "lat": 9.007784,
    "lng": 99.9222466
  },
  {
    "mu_place": "ศาลหลักเมืองขนอม",
    "name": "อันดาวาบีช รีสอร์ท",
    "rating": 4.1,
    "address": "329/11 อำเภอ สิชล",
    "lat": 9.0070019,
    "lng": 99.9223873
  },
  {
    "mu_place": "ศาลหลักเมืองขนอม",
    "name": "Nangkam Boutique House (นางกำบูติคเฮ้าส์)",
    "rating": 4.1,
    "address": "ตำบล ดอนสัก อำเภอ ดอนสัก",
    "lat": 9.315,
    "lng": 99.7569444
  },
  {
    "mu_place": "ศาลหลักเมืองขนอม",
    "name": "B Square Hotel@Khanom",
    "rating": 3.3,
    "address": "91, อำเภอ ขนอม",
    "lat": 9.125522,
    "lng": 99.87602
  },
  {
    "mu_place": "ศาลหลักเมืองขนอม",
    "name": "Cozy Khanom",
    "rating": 4.8,
    "address": "9 Cozy Khanom, 4, ต.ขนอม, อำเภอ ขนอม",
    "lat": 9.1430758,
    "lng": 99.8749103
  },
  {
    "mu_place": "ศาลหลักเมืองขนอม",
    "name": "CC Beach Resort",
    "rating": 4.2,
    "address": "28 1, Ban Na Dan, อำเภอ ขนอม",
    "lat": 9.1527197,
    "lng": 99.87398890000001
  }
]