[
    {
        "mu_place": "ถ้ำนาคา",
        "travel": "น้ำตกตาดขาม",
        "address": "ตำบลนางัว อำเภอบ้านแพง นครพนม 48140",
        "lat": "17.952167858383742",
        "long": "104.15782487037542"
    },
    {
        "mu_place": "ถ้ำนาคา",
        "travel": "อุทยานแห่งชาติภูลังกา",
        "address": "ตำบลไผ่ล้อม อำเภอบ้านแพง นครพนม 48140",
        "lat": "17.984911473707772",
        "long": "104.14020829319648"
    },
    {
        "mu_place": "ถ้ำนาคา",
        "travel": "ถ้ำนาคีนครพนม",
        "address": "ตำบลไผ่ล้อม อำเภอบ้านแพง นครพนม 48140",
        "lat": "17.985162319473783",
        "long": "104.12740527971145"
    },
    {
        "mu_place": "ท้าวเวสสุวรรณ วัดพระศรีรัตนมหาธาตุวิหาร(วัดใหญ่)",
        "travel": "ศูนย์ประวัติศาสตร์พระราชวังจันทน์",
        "address": "2 ถนนวังจันทน์ ตำบลในเมือง อำเภอเมืองพิษณุโลก พิษณุโลก 65000",
        "lat": "16.828787264885737",
        "long": "100.26211258628281"
    },
    {
        "mu_place": "ท้าวเวสสุวรรณ วัดพระศรีรัตนมหาธาตุวิหาร(วัดใหญ่)",
        "travel": "พิพิธภัณฑ์พื้นบ้านจ่าทวี",
        "address": "26/138 ถนนวิสุทธิ์กษัตริย์ ตำบลในเมือง อำเภอเมืองพิษณุโลก พิษณุโลก 65000",
        "lat": "16.80711172142967",
        "long": "100.26779854191092"
    },
    {
        "mu_place": "ท้าวเวสสุวรรณ วัดพระศรีรัตนมหาธาตุวิหาร(วัดใหญ่)",
        "travel": "สวนน้ำ สแปลช ฟัน ปาร์ค พิษณุโลก",
        "address": "99/9 หมู่ที่15 ตำบลบางระกำ อำเภอบางระกำ พิษณุโลก 65140",
        "lat": "16.771344668651672",
        "long": "100.14618867041762"
    },
    {
        "mu_place": "ท้าวเวสสุวรรณ วัดพระศรีรัตนมหาธาตุวิหาร(วัดใหญ่)",
        "travel": "สวนบัวอมรรัตน์ บัวกระด้ง พิษณุโลก (Victoria Waterlilies)",
        "address": "ตำบลบ้านคลอง อำเภอเมืองพิษณุโลก พิษณุโลก 65000",
        "lat": "16.82039555313312",
        "long": "100.23114682445657"
    },
    {
        "mu_place": "ท้าวเวสสุวรรณ วัดพระศรีรัตนมหาธาตุวิหาร(วัดใหญ่)",
        "travel": "เขาสมอแคลง",
        "address": "ตำบลวังทอง อำเภอวังทอง พิษณุโลก 65130",
        "lat": "16.845652517563742",
        "long": "100.40334986846946"
    },
    {
        "mu_place": "ท้าวเวสสุวรรณ วัดพระศรีรัตนมหาธาตุวิหาร(วัดใหญ่)",
        "travel": "บ้านไร่ รั้วไทรงาม",
        "address": "ตำบลบึงพระ อำเภอเมืองพิษณุโลก พิษณุโลก 65000",
        "lat": "16.737084234804104",
        "long": "100.2614119977362"
    },
    {
        "mu_place": "ท้าวเวสสุวรรณ วัดพระศรีรัตนมหาธาตุวิหาร(วัดใหญ่)",
        "travel": "ลานสมเด็จพระนเรศวรมหาราช",
        "address": "ตำบลท่าโพธิ์ อำเภอเมืองพิษณุโลก พิษณุโลก 65000",
        "lat": "16.75559548499062",
        "long": "100.18966722708876"
    },
    {
        "mu_place": "ท้าวเวสสุวรรณ วัดพระศรีรัตนมหาธาตุวิหาร(วัดใหญ่)",
        "travel": "ถนนคนเดินพิษณุโลก",
        "address": "ถนน ตำบลวัดจันทร์ อำเภอเมืองพิษณุโลก พิษณุโลก 65000",
        "lat": "16.80581485947826",
        "long": "100.24584501333273"
    },
    {
        "mu_place": "วัดมณีวงศ์ นครนายก",
        "travel": "ทุ่งบัวแดง บ้านนา นครนายก",
        "address": "ทางหลวงแผ่นดินหมายเลข. 3051 ตำบลทองหลาง อำเภอบ้านนา นครนายก 26110",
        "lat": "14.241198301120576",
        "long": "101.07121982336353"
    },
    {
        "mu_place": "วัดมณีวงศ์ นครนายก",
        "travel": "สะพานทุ่งนาน้อยเขาหล่น",
        "address": "68 อำเถอ, 2 ตำบลสาริกา เมืองนครนายก 26000",
        "lat": "14.271163826530055",
        "long": "101.26026711892388"
    },
    {
        "mu_place": "วัดมณีวงศ์ นครนายก",
        "travel": "น้ำตกสาริกา",
        "address": "ตำบลสาริกา อำเภอเมืองนครนายก นครนายก 26000",
        "lat": "14.319599760459434",
        "long": "101.25561326774275"
    },
    {
        "mu_place": "วัดมณีวงศ์ นครนายก",
        "travel": "แก่งสามชั้น",
        "address": "ตำบลสาริกา อำเภอเมืองนครนายก นครนายก 26000",
        "lat": "14.303454358554713",
        "long": "101.30295201133387"
    },
    {
        "mu_place": "วัดมณีวงศ์ นครนายก",
        "travel": "อ่างเก็บน้ำห้วยปรือ นครนายก",
        "address": "ตำบลเขาพระ อำเภอเมืองนครนายก นครนายก 26000",
        "lat": "14.323937004278719",
        "long": "101.21416545531349"
    },
    {
        "mu_place": "วัดมณีวงศ์ นครนายก",
        "travel": "วัดใหญ่ทักขิณาราม",
        "address": "ตำบลบ้านใหญ่ อำเภอเมืองนครนายก จังหวัดนครนายก, 26000",
        "lat": "14.218492555304096",
        "long": "101.22610890100655"
    },
    {
        "mu_place": "วัดมณีวงศ์ นครนายก",
        "travel": "น้ำตกเหวนรก",
        "address": "ตำบลนาหินลาด อำเภอปากพลี นครนายก 26130",
        "lat": "14.299133772058715",
        "long": "101.38666490299642"
    },
    {
        "mu_place": "วัดอินทรวิหาร พระอารามหลวง (บางขุนพรหม)",
        "travel": "เสาชิงช้า",
        "address": "239 ถนนดินสอ แขวงบางขุนพรหม เขตพระนครกรุงเทพมหานคร 10200",
        "lat": "13.751931524255546",
        "long": "100.50125148135719"
    },
    {
        "mu_place": "วัดอินทรวิหาร พระอารามหลวง (บางขุนพรหม)",
        "travel": "มิวเซียมสยาม",
        "address": "4 ถนนสนามไชย แขวงพระบรมมหาราชวัง เขตพระนคร กรุงเทพมหานคร 10200",
        "lat": "13.744584565459588",
        "long": "100.49401723410068"
    },
    {
        "mu_place": "วัดอินทรวิหาร พระอารามหลวง (บางขุนพรหม)",
        "travel": "พระที่นั่งพิมานจักรี",
        "address": "315 ถ. ราชวิถี แขวงทุ่งพญาไท เขตราชเทวี กรุงเทพมหานคร 10400",
        "lat": "13.768673842940325",
        "long": "100.53283872875204"
    },
    {
        "mu_place": "วัดอินทรวิหาร พระอารามหลวง (บางขุนพรหม)",
        "travel": "คลองโอ่งอ่าง (คลองรอบกรุง)",
        "address": "คลองโอ่งอ่าง แขวงสัมพันธวงศ์ เขตสัมพันธวงศ์ กรุงเทพมหานคร 10100",
        "lat": "13.745937334708586",
        "long": "100.50349942756141"
    },
    {
        "mu_place": "วัดอินทรวิหาร พระอารามหลวง (บางขุนพรหม)",
        "travel": "ป้อมพระสุเมรุ",
        "address": "ถนน พระอาทิตย์ แขวงชนะสงคราม เขตพระนคร กรุงเทพมหานคร 10200",
        "lat": "13.764024897839613",
        "long": "100.49568574493236"
    },
    {
        "mu_place": "วัดอินทรวิหาร พระอารามหลวง (บางขุนพรหม)",
        "travel": "คลองบางหลวง (คลองบางกอกใหญ่)",
        "address": "ซอย เพชรเกษม 20 แขวงปากคลองภาษีเจริญ เขตภาษีเจริญ กรุงเทพมหานคร 10160",
        "lat": "13.731616534608039",
        "long": "100.4632168458341"
    },
    {
        "mu_place": "วัดอินทรวิหาร พระอารามหลวง (บางขุนพรหม)",
        "travel": "สวนสันติชัยปราการ",
        "address": "ถนน พระอาทิตย์ แขวงชนะสงคราม เขตพระนคร กรุงเทพมหานคร 10200",
        "lat": "13.764097543287964",
        "long": "100.49510998209941"
    },
    {
        "mu_place": "วัดอินทรวิหาร พระอารามหลวง (บางขุนพรหม)",
        "travel": "สนามหลวง",
        "address": "ถนน ราชดำเนินกลาง แขวงพระบรมมหาราชวัง เขตพระนคร กรุงเทพมหานคร 10200",
        "lat": "13.756164373721592",
        "long": "100.49327739614125"
    },
    {
        "mu_place": "วัดอินทรวิหาร พระอารามหลวง (บางขุนพรหม)",
        "travel": "ซีไลฟ์ แบงคอก",
        "address": "ชั้น บี1-บี2 สยามพารากอน 991 ถ. พระรามที่ ๑ แขวงปทุมวัน เขตปทุมวัน กรุงเทพมหานคร 10330",
        "lat": "13.746156464311596",
        "long": "100.5351970907642"
    },
    {
        "mu_place": "วัดอินทรวิหาร พระอารามหลวง (บางขุนพรหม)",
        "travel": "หอดูนก สวนศรีนครเขื่อนขันธ์",
        "address": "ตำบลบางกะเจ้า อำเภอพระประแดง สมุทรปราการ 10130",
        "lat": "13.697452161940246",
        "long": "100.5682391626794"
    },
    {
        "mu_place": "ศาลเจ้าพ่อกรมหลวงชุมพร อุดมศักดิ์",
        "travel": "เสาชิงช้า",
        "address": "239 ถนน ดินสอ แขวงบางขุนพรหม เขตพระนคร กรุงเทพมหานคร 10200",
        "lat": "13.75213085974095", 
        "long": "100.50148704776909"
     },
     {
        "mu_place": "ศาลเจ้าพ่อกรมหลวงชุมพร อุดมศักดิ์",
        "travel": "วัดพระศรีรัตนศาสดาราม",
        "address": "ถนน หน้าพระลาน แขวงพระบรมมหาราชวัง เขตพระนคร กรุงเทพมหานคร 10200",
        "lat": "13.75200824509232", 
        "long": "100.49282211698761"
     },
     {
        "mu_place": "ศาลเจ้าพ่อกรมหลวงชุมพร อุดมศักดิ์",
        "travel": "มิวเซียมสยาม",
        "address": "4 ถนน สนามไชย แขวงพระบรมมหาราชวัง เขตพระนคร กรุงเทพมหานคร 10200",
        "lat": "13.744442273410165", 
        "long": "100.49415249263015"
     },
     {
        "mu_place": "ศาลเจ้าพ่อกรมหลวงชุมพร อุดมศักดิ์",
        "travel": "ซีไลฟ์ แบงคอก",
        "address": "ชั้น บี1-บี2 สยามพารากอน 991 ถ. พระรามที่ ๑ แขวงปทุมวัน เขตปทุมวัน กรุงเทพมหานคร 10330",
        "lat": "13.746286769113826", 
        "long": "100.5352540228233"
     },
     {
        "mu_place": "วิหารพระพุทธชินราชมงคลปราการ",
        "name": "หอดูนก สวนศรีนครเขื่อนขันธ์",
        "address": "MHW9+F9V ตำบล บางกะเจ้า อำเภอพระประแดง",
        "lat": 13.6962495,
        "lng": 100.5684135
      },
      {
        "mu_place": "วิหารพระพุทธชินราชมงคลปราการ",
        "name": "มิวเซียมสยาม",
        "address": "4 ถนน สนามไชย แขวงพระบรมมหาราชวัง เขตพระนคร",
        "lat": 13.744147,
        "lng": 100.494137
      },
      {
        "mu_place": "วิหารพระพุทธชินราชมงคลปราการ",
        "name": "พระที่นั่งพิมานจักรี",
        "address": "315 ถ. ราชวิถี แขวงทุ่งพญาไท เขตราชเทวี",
        "lat": 13.7685069,
        "lng": 100.5328757
      },
      {
        "mu_place": "วิหารพระพุทธชินราชมงคลปราการ",
        "name": "พิพิธภัณฑ์ช้างเอราวัณ",
        "address": "99 ถ. กาญจนาภิเษก ตำบล บางเมืองใหม่ อำเภอเมืองสมุทรปราการ",
        "lat": 13.6285771,
        "lng": 100.5889193
      },
      {
        "mu_place": "วิหารพระพุทธชินราชมงคลปราการ",
        "name": "เมืองโบราณ",
        "address": "296 1 ถ. สุขุมวิท ตำบล บางปูใหม่ อำเภอเมืองสมุทรปราการ",
        "lat": 13.5477108,
        "lng": 100.6300391
      },
      {
        "mu_place": "วิหารพระพุทธชินราชมงคลปราการ",
        "name": "คลองบางหลวง (คลองบางกอกใหญ่)",
        "address": "ซอย เพชรเกษม 20 แขวงปากคลองภาษีเจริญ เขตภาษีเจริญ",
        "lat": 13.7316031,
        "lng": 100.4632156
      },
      {
        "mu_place": "วิหารพระพุทธชินราชมงคลปราการ",
        "name": "ตลาดน้ำคลองบางหลวง",
        "address": "13°43'48. 100°27'50. 99/5 ซอย เพชรเกษม 20 แขวงปากคลองภาษีเจริญ เขตภาษีเจริญ",
        "lat": 13.7316243,
        "lng": 100.46312
      },
      {
        "mu_place": "วิหารพระพุทธชินราชมงคลปราการ",
        "name": "สถานตากอากาศบางปู",
        "address": "164 ถ. สุขุมวิท ตำบล บางปูใหม่ อำเภอเมืองสมุทรปราการ",
        "lat": 13.5172594,
        "lng": 100.6549268
      },
      {
        "mu_place": "วิหารพระพุทธชินราชมงคลปราการ",
        "name": "ตลาดน้ำตลิ่งชัน",
        "address": "333 ถนน ชักพระ แขวงคลองชักพระ เขตตลิ่งชัน",
        "lat": 13.7762674,
        "lng": 100.4565979
      },
      {
        "mu_place": "วิหารพระพุทธชินราชมงคลปราการ",
        "name": "วิหารวัดพร้าว ตาก (จำลอง)",
        "address": "เมืองโบราณ ตำบล แพรกษา อำเภอเมืองสมุทรปราการ",
        "lat": 13.5494887,
        "lng": 100.6310212
      },
      {
        "mu_place": "วิหารพระพุทธชินราชมงคลปราการ",
        "name": "Guide Thailandia & Tours",
        "address": "888TT Building, ซ. สุขุมวิท 81 แขวงบางจาก เขตพระโขนง",
        "lat": 13.7061533,
        "lng": 100.6050823
      },
      {
        "mu_place": "วิหารพระพุทธชินราชมงคลปราการ",
        "name": "เสาชิงช้า",
        "address": "239 ถนน ดินสอ แขวงบางขุนพรหม เขตพระนคร",
        "lat": 13.7517707,
        "lng": 100.5012761
      },
      {
        "mu_place": "วิหารพระพุทธชินราชมงคลปราการ",
        "name": "เขาพระสุเมรุจำลอง เมืองโบราณ สมุทรปราการ (102)",
        "address": "GJXH+X8Q ตำบล แพรกษา อำเภอเมืองสมุทรปราการ",
        "lat": 13.5499587,
        "lng": 100.6283551
      },
      {
        "mu_place": "วิหารพระพุทธชินราชมงคลปราการ",
        "name": "สูงวัยพาเที่ยว",
        "address": "JGFQ+F6J ถ. สุขสวัสดิ์ เขตจอมทอง",
        "lat": 13.6237038,
        "lng": 100.5380215
      },
      {
        "mu_place": "วิหารพระพุทธชินราชมงคลปราการ",
        "name": "ซีไลฟ์ แบงคอก",
        "address": "ชั้น บี1-บี2 สยามพารากอน 991 ถ. พระรามที่ ๑ แขวงปทุมวัน เขตปทุมวัน",
        "lat": 13.7459351,
        "lng": 100.5352057
      },
      {
        "mu_place": "วิหารพระพุทธชินราชมงคลปราการ",
        "name": "ป้อมพระจุลจอมเกล้า",
        "address": "GHQM+4FH ตำบล แหลมฟ้าผ่า อำเภอพระสมุทรเจดีย์",
        "lat": 13.5379172,
        "lng": 100.5836028
      },
      {
        "mu_place": "วิหารพระพุทธชินราชมงคลปราการ",
        "name": "สถานที่ถ่ายรูป พระธรรมกายเทพมงคล",
        "address": "766 ถนน เพชรเกษมสายเก่า แขวงวัดท่าพระ เขตบางกอกใหญ่",
        "lat": 13.7232028,
        "lng": 100.480732
      },
      {
        "mu_place": "วิหารพระพุทธชินราชมงคลปราการ",
        "name": "ลาน 60 ปี ธรรมศาสตร์",
        "address": "2 ถ. หน้าพระธาตุ แขวงพระบรมมหาราชวัง เขตพระนคร",
        "lat": 13.7575138,
        "lng": 100.4895887
      },
      {
        "mu_place": "วิหารพระพุทธชินราชมงคลปราการ",
        "name": "สวนงู สถานเสาวภา สภากาชาดไทย",
        "address": "1871 ถนนพระรามที่ ๔ แขวงปทุมวัน เขตปทุมวัน",
        "lat": 13.7328912,
        "lng": 100.5327978
      },
      {
        "mu_place": "วิหารพระพุทธชินราชมงคลปราการ",
        "name": "บ้านศิลปินคลองบางหลวง : Artist House Bangkok",
        "address": "309 ซอย เพชรเกษม 28 แขวงคูหาสวรรค์ เขตภาษีเจริญ",
        "lat": 13.7312977,
        "lng": 100.4632778
      },
      {
        "mu_place": "ท้าวเวสสุวรรณ วัดจุฬามณี",
        "name": "สะพานไม้สายรุ้ง",
        "address": "C4WX+V7V ถนนลบทะเล ตำบล กาหลง อำเภอเมืองสมุทรสาคร",
        "lat": 13.4472482,
        "lng": 100.1481764
      },
      {
        "mu_place": "ท้าวเวสสุวรรณ วัดจุฬามณี",
        "name": "แหล่งท่องเที่ยวตำบลเหมืองใหม่",
        "address": "FW36+Q44 ตำบล เหมืองใหม่ อำเภออัมพวา",
        "lat": 13.4543971,
        "lng": 99.910337
      },
      {
        "mu_place": "ท้าวเวสสุวรรณ วัดจุฬามณี",
        "name": "เตาตาลดี",
        "address": "FX37+FRW ตำบล บางพรม อำเภอ บางคนที",
        "lat": 13.4537475,
        "lng": 99.96457869999999
      },
      {
        "mu_place": "ท้าวเวสสุวรรณ วัดจุฬามณี",
        "name": "ตลาดน้ำอัมพวา",
        "address": "CXG3+2X5 ตำบล อัมพวา อำเภออัมพวา",
        "lat": 13.4250084,
        "lng": 99.95497619999999
      },
      {
        "mu_place": "ท้าวเวสสุวรรณ วัดจุฬามณี",
        "name": "สวนเกษตรชัยไดม่อนการ์เด้น",
        "address": "หมู่ที่​ 9 35 ตำบล สวนหลวง อำเภออัมพวา",
        "lat": 13.4163233,
        "lng": 99.94187590000001
      },
      {
        "mu_place": "ท้าวเวสสุวรรณ วัดจุฬามณี",
        "name": "ดอนหอยหลอด",
        "address": "926F+P46 2009 ตำบล บางจะเกร็ง อำเภอเมืองสมุทรสงคราม",
        "lat": 13.3617839,
        "lng": 100.0227791
      },
      {
        "mu_place": "ท้าวเวสสุวรรณ วัดจุฬามณี",
        "name": "ช้างเผือกฟาร์ม จำกัด",
        "address": "เลขที่ 76/2 ตำบล ขุนพิทักษ์ อำเภอดำเนินสะดวก",
        "lat": 13.5114949,
        "lng": 99.9734331
      },
      {
        "mu_place": "ท้าวเวสสุวรรณ วัดจุฬามณี",
        "name": "ชมรมส่งเสริมการท่องเที่ยวตำบลดำเนินสะดวก",
        "address": "GX82+QVX ตำบล ดำเนินสะดวก อำเภอดำเนินสะดวก",
        "lat": 13.516996,
        "lng": 99.9522303
      },
      {
        "mu_place": "ท้าวเวสสุวรรณ วัดจุฬามณี",
        "name": "ไร่ม่อนตาองค์",
        "address": "201 ม.4, ต.ห้วยไผ่ อ.เมือง ตำบลดอนตะโก อำเภอเมืองราชบุรี",
        "lat": 13.510646,
        "lng": 99.780999
      },
      {
        "mu_place": "ท้าวเวสสุวรรณ วัดจุฬามณี",
        "name": "อุทยานพระบรมราชานุสรณ์ สมเด็จพระพุทธเลิศหล้านภาลัย",
        "address": "ตำบล อัมพวา อำเภออัมพวา",
        "lat": 13.4251715,
        "lng": 99.9524778
      },
      {
        "mu_place": "ท้าวเวสสุวรรณ วัดจุฬามณี",
        "name": "Bang Noi local community",
        "address": "FW8W+3XW ซอย เทศบาลตำบลกระดังงา 12 ตำบล กระดังงา อำเภอ บางคนที",
        "lat": 13.4652428,
        "lng": 99.947459
      },
      {
        "mu_place": "ท้าวเวสสุวรรณ วัดจุฬามณี",
        "name": "ธุรกิจตัวอย่าง",
        "address": "433 ถ ศรีสุริยวงศ์ ตำบล หน้าเมือง เมือง",
        "lat": 13.532745,
        "lng": 99.80804909999999
      },
      {
        "mu_place": "ท้าวเวสสุวรรณ วัดจุฬามณี",
        "name": "Chang Puak Camp Damnoen Saduak",
        "address": "76 1 ตำบล ขุนพิทักษ์ อำเภอดำเนินสะดวก",
        "lat": 13.5110252,
        "lng": 99.97232609999999
      },
      {
        "mu_place": "ท้าวเวสสุวรรณ วัดจุฬามณี",
        "name": "ซุ้มโคนมะขาม บ้านสวนฉายแก้ว",
        "address": "43 หมู่ 10 ตำบล เหมืองใหม่ อำเภออัมพวา",
        "lat": 13.4466442,
        "lng": 99.89437620000001
      },
      {
        "mu_place": "ท้าวเวสสุวรรณ วัดจุฬามณี",
        "name": "ตลาดร่มหุบ สมุทรสงคราม",
        "address": "545/3 ซอยข้างห้างทวีกิจแม่กลอง แม่กลอง อำเภอเมืองสมุทรสงคราม",
        "lat": 13.4073898,
        "lng": 99.9989205
      },
      {
        "mu_place": "ท้าวเวสสุวรรณ วัดจุฬามณี",
        "name": "พิพิธภัณฑ์วัดเขายี่สาร",
        "address": "8W23+H4R ตำบล ยี่สาร อำเภออัมพวา",
        "lat": 13.3014879,
        "lng": 99.9027583
      },
      {
        "mu_place": "ท้าวเวสสุวรรณ วัดจุฬามณี",
        "name": "วัดบางกุ้ง",
        "address": "บ้านค่าย หมู่ที่ 4 ตำบล บางกุ้ง อำเภอ บางคนที",
        "lat": 13.4461111,
        "lng": 99.9411111
      },
      {
        "mu_place": "ท้าวเวสสุวรรณ วัดจุฬามณี",
        "name": "Chiang Mai",
        "address": "เลขที่ 1 ถนนโชติธำรงค์ ตำบล อัมพวา อำเภออัมพวา",
        "lat": 13.425055,
        "lng": 99.9551717
      },
      {
        "mu_place": "ท้าวเวสสุวรรณ วัดจุฬามณี",
        "name": "บ้านสวนมะนาวโห่ลุงศิริ",
        "address": "29 ตำบล บางนกแขวก อำเภอ บางคนที",
        "lat": 13.5039003,
        "lng": 99.9184307
      },
      {
        "mu_place": "ท้าวเวสสุวรรณ วัดจุฬามณี",
        "name": "บ้านแฟง ดอนมะโนรา สมุทรสงคราม By sak",
        "address": "ตำบล ดอนมะโนรา อำเภอ บางคนที",
        "lat": 13.490005,
        "lng": 99.9917249
      },
      {
        "mu_place": "หลวงพ่อปลดหนี้ วัดห้วยน้ำทรัพย์ หรือ วัดพระธาตุวาโย",
        "name": "UWall House Model",
        "address": "526, ตำบล คู้ยายหมี อำเภอสนามชัยเขต",
        "lat": 13.6124807,
        "lng": 101.5356041
      },
      {
        "mu_place": "หลวงพ่อปลดหนี้ วัดห้วยน้ำทรัพย์ หรือ วัดพระธาตุวาโย",
        "name": "ทุ่งนา BKK บ้านโกรกแก้ว",
        "address": "37 1 ตำบล วังเย็น อำเภอแปลงยาว",
        "lat": 13.4992018,
        "lng": 101.3216666
      },
      {
        "mu_place": "หลวงพ่อปลดหนี้ วัดห้วยน้ำทรัพย์ หรือ วัดพระธาตุวาโย",
        "name": "หอดูดาวเฉลิมพระเกียรติ 7 รอบ​ พระชนมพรรษา ฉะเชิงเทรา",
        "address": "หมู่ที่ 3 เลขที่ 999 ตำบล วังเย็น อำเภอแปลงยาว",
        "lat": 13.593513,
        "lng": 101.256158
      },
      {
        "mu_place": "หลวงพ่อปลดหนี้ วัดห้วยน้ำทรัพย์ หรือ วัดพระธาตุวาโย",
        "name": "อุทยานหุ่นปั้นอาจารย์ซ่วน",
        "address": "P8HX+QHM, Unnamed Rd, ตำบล ท่าถ่าน อำเภอพนมสารคาม",
        "lat": 13.7294721,
        "lng": 101.348935
      },
      {
        "mu_place": "หลวงพ่อปลดหนี้ วัดห้วยน้ำทรัพย์ หรือ วัดพระธาตุวาโย",
        "name": "โคกหนองนา โมเดล สวนป่าริมธาร พนัสนิคม",
        "address": "ซอย บ้านดอนกอก ตำบล นาเริก อำเภอพนัสนิคม",
        "lat": 13.4254146,
        "lng": 101.2486112
      },
      {
        "mu_place": "หลวงพ่อปลดหนี้ วัดห้วยน้ำทรัพย์ หรือ วัดพระธาตุวาโย",
        "name": "ส่วนป่าคุณลุงวิทูรย์",
        "address": "27 หมู่7 ตำบล ลาดกระทิง อำเภอสนามชัยเขต",
        "lat": 13.6137002,
        "lng": 101.4466563
      },
      {
        "mu_place": "หลวงพ่อปลดหนี้ วัดห้วยน้ำทรัพย์ หรือ วัดพระธาตุวาโย",
        "name": "น้ำตกทุ่งยายชี ตลาด100ร้าน",
        "address": "GHGC+469 ตำบล ท่าตะเกียบ อำเภอท่าตะเกียบ",
        "lat": 13.5252857,
        "lng": 101.5706041
      },
      {
        "mu_place": "หลวงพ่อปลดหนี้ วัดห้วยน้ำทรัพย์ หรือ วัดพระธาตุวาโย",
        "name": "นางชลชญา ชาญรวินทร์ (ศูนย์เรียนรู้วนเกษตร)",
        "address": "92 2 ตำบล เกาะขนุน อำเภอพนมสารคาม",
        "lat": 13.6843208,
        "lng": 101.4118525
      },
      {
        "mu_place": "หลวงพ่อปลดหนี้ วัดห้วยน้ำทรัพย์ หรือ วัดพระธาตุวาโย",
        "name": "บ้านริมน้ำฟาร์มควายไทย",
        "address": "Q826+8VH 3444 ตำบล บางคา อำเภอ ราชสาส์น",
        "lat": 13.7508132,
        "lng": 101.3122322
      },
      {
        "mu_place": "หลวงพ่อปลดหนี้ วัดห้วยน้ำทรัพย์ หรือ วัดพระธาตุวาโย",
        "name": "กระต๊อบมีนามีงู",
        "address": "20/1Moo1, Tambon Huasamrong, Amphoe PaengYao, ตำบล หัวสำโรง อำเภอแปลงยาว",
        "lat": 13.6512411,
        "lng": 101.2926629
      },
      {
        "mu_place": "หลวงพ่อปลดหนี้ วัดห้วยน้ำทรัพย์ หรือ วัดพระธาตุวาโย",
        "name": "วัดหลวงพี่แซม",
        "address": "51 หมู่10 ทางหลวงหมายเลข 331 ตำบล หนองปรือ อำเภอพนัสนิคม",
        "lat": 13.5011686,
        "lng": 101.2701928
      },
      {
        "mu_place": "หลวงพ่อปลดหนี้ วัดห้วยน้ำทรัพย์ หรือ วัดพระธาตุวาโย",
        "name": "สวนน้ำฤทัย",
        "address": "GH3W+2W ตำบล คลองตะเกรา อำเภอท่าตะเกียบ",
        "lat": 13.5026223,
        "lng": 101.5973008
      },
      {
        "mu_place": "หลวงพ่อปลดหนี้ วัดห้วยน้ำทรัพย์ หรือ วัดพระธาตุวาโย",
        "name": "สวนบ้านเล็ก",
        "address": "97X7+V9 ตำบล นาเริก อำเภอพนัสนิคม",
        "lat": 13.399688,
        "lng": 101.263395
      },
      {
        "mu_place": "หลวงพ่อปลดหนี้ วัดห้วยน้ำทรัพย์ หรือ วัดพระธาตุวาโย",
        "name": "สวนเภตรา",
        "address": "JC6Q+XF ตำบล ลาดกระทิง อำเภอสนามชัยเขต",
        "lat": 13.6123994,
        "lng": 101.4386937
      },
      
     
]
