[
  {
    "place_id": "ChIJoz1_NusTOzERbkrY5iBoKoQ",
    "mu_place": "ถ้ำนาคา",
    "name": "ร้านระเบียงไม้",
    "rating": 3.8,
    "address": "58 อำเภอ บึงโขงหลง",
    "lat": 17.9836893,
    "lng": 104.0261314,
    "distance_to_mu": "29.2 กม."
  },
  {
    "place_id": "ChIJaRGB1rwLOzERaD5rJhYS7C8",
    "mu_place": "ถ้ำนาคา",
    "name": "ร้านอาหารอุ้มทอง",
    "rating": 4,
    "address": "X659+4QG ตำบล บ้านแพง อำเภอ บ้านแพง",
    "lat": 17.9578148,
    "lng": 104.2194446,
    "distance_to_mu": "11.2 กม."
  },
  {
    "place_id": "ChIJ-9wOVpQTOzER3kp3J38CIAE",
    "mu_place": "ถ้ำนาคา",
    "name": "ครัวเพ็ญพิชชา เบียร์วุ้น",
    "rating": 4.4,
    "address": "49 หมู่3 ตำบล บึงโขงหลง อำเภอ บึงโขงหลง",
    "lat": 17.9792992,
    "lng": 104.0273476,
    "distance_to_mu": "29.2 กม."
  },
  {
    "place_id": "ChIJ5WufgesTOzERR-lsnrAErT0",
    "mu_place": "ถ้ำนาคา",
    "name": "ครัวคุณเพชร",
    "rating": 4.2,
    "address": "ตำบล บึงโขงหลง อำเภอ บึงโขงหลง",
    "lat": 17.9864375,
    "lng": 104.0248125,
    "distance_to_mu": "29.5 กม."
  },
  {
    "place_id": "ChIJmVyYdewTOzERgCiK_o1pkpg",
    "mu_place": "ถ้ำนาคา",
    "name": "ร้านอาหารระเบียงบึงการ์เด้น",
    "rating": 3.4,
    "address": "X2QF+2R8 ตำบล บึงโขงหลง อำเภอ บึงโขงหลง",
    "lat": 17.9875364,
    "lng": 104.0245647,
    "distance_to_mu": "29.6 กม."
  },
  {
    "place_id": "ChIJzbnKaacTOzERB748qI4rPF0",
    "mu_place": "ถ้ำนาคา",
    "name": "ร้านหลบมุมซอย8",
    "rating": 4.3,
    "address": "บ้านดอนกลาง ตำบล บึงโขงหลง อำเภอ บึงโขงหลง",
    "lat": 17.9600675,
    "lng": 104.0376229,
    "distance_to_mu": "23.7 กม."
  },
  {
    "place_id": "ChIJ1einZesTOzERTef-FLbbiys",
    "mu_place": "ถ้ำนาคา",
    "name": "ร้านอาหารทองจันทร์การ์เด้น",
    "rating": 4.1,
    "address": "ร้านทองจันทร์การ์เด้น ตำบล บึงโขงหลง อำเภอ บึงโขงหลง",
    "lat": 17.9866813,
    "lng": 104.0246688,
    "distance_to_mu": "29.5 กม."
  },
  {
    "place_id": "ChIJc0kTTa0TOzERa64sdsi6egc",
    "mu_place": "ถ้ำนาคา",
    "name": "ครัวจันทมาลี",
    "rating": 4.7,
    "address": "อ, 403 อำเภอ บึงโขงหลง",
    "lat": 17.9620861,
    "lng": 104.0472768,
    "distance_to_mu": "22.8 กม."
  },
  {
    "place_id": "ChIJiXu9i1ITOzERo8HFGe1TNlI",
    "mu_place": "ถ้ำนาคา",
    "name": "สวนอาหารเลาะภู",
    "rating": 4.3,
    "address": "X35R+CM5 บก.4017 ตำบล โพธิ์หมากแข้ง อำเภอ บึงโขงหลง",
    "lat": 17.9584952,
    "lng": 104.091705,
    "distance_to_mu": "20.7 กม."
  },
  {
    "place_id": "ChIJe5itVZQTOzERoh6N9wWxSJs",
    "mu_place": "ถ้ำนาคา",
    "name": "ร้านอาหารน้องเพลง",
    "rating": 2.9,
    "address": "Unnamed Road ตำบล บึงโขงหลง อำเภอ บึงโขงหลง",
    "lat": 17.9800411,
    "lng": 104.0270933,
    "distance_to_mu": "29.1 กม."
  },
  {
    "place_id": "ChIJY-8OTZQTOzERCr_kIaSZ7ok",
    "mu_place": "ถ้ำนาคา",
    "name": "ร้านอาหาร เอ็มมี่ปลาเผา",
    "rating": 5,
    "address": "X2HG+QXJ ตำบล บึงโขงหลง อำเภอ บึงโขงหลง",
    "lat": 17.9794587,
    "lng": 104.0273998,
    "distance_to_mu": "29.1 กม."
  },
  {
    "place_id": "ChIJ70ehOloOOzER_yOax6eqcn0",
    "mu_place": "ถ้ำนาคา",
    "name": "ร้านแยกดงบัง",
    "rating": 4.1,
    "address": "24JQ+7X9 ตำบล ดงบัง อำเภอ บึงโขงหลง",
    "lat": 18.0306658,
    "lng": 104.1399974,
    "distance_to_mu": "19.5 กม."
  },
  {
    "place_id": "ChIJCUo4-hkTOzERoTrQn1cXCps",
    "mu_place": "ถ้ำนาคา",
    "name": "ร้านบ้านสวนตังสุมา",
    "rating": 4.5,
    "address": "X32V+633 บก.4017 ตำบล โพธิ์หมากแข้ง อำเภอ บึงโขงหลง",
    "lat": 17.9504108,
    "lng": 104.0926709,
    "distance_to_mu": "21.8 กม."
  },
  {
    "place_id": "ChIJgQx7Y5YLOzERd3B8IB0jAFs",
    "mu_place": "ถ้ำนาคา",
    "name": "ร้านอาหารบูม",
    "rating": 3.9,
    "address": "X677+4GC ตำบล บ้านแพง อำเภอ บ้านแพง",
    "lat": 17.9628166,
    "lng": 104.2138303,
    "distance_to_mu": "10.2 กม."
  },
  {
    "place_id": "ChIJVwvMpCsPOzERw6AbTkanpZE",
    "mu_place": "ถ้ำนาคา",
    "name": "ร้านคุณแม่",
    "rating": 4,
    "address": "197 หมู่ 4 ตำบล ดงบัง อำเภอ บึงโขงหลง",
    "lat": 18.0121344,
    "lng": 104.1594255,
    "distance_to_mu": "5.6 กม."
  },
  {
    "place_id": "ChIJX4Q5YbgLOzER1wA83V2Mr6U",
    "mu_place": "ถ้ำนาคา",
    "name": "ครัวริมโขง",
    "rating": 4.3,
    "address": "X68G+W4X ตำบล บ้านแพง อำเภอ บ้านแพง",
    "lat": 17.9673622,
    "lng": 104.2253742,
    "distance_to_mu": "11.5 กม."
  },
  {
    "place_id": "ChIJJdSIfLITOzERNQszI2YRoCs",
    "mu_place": "ถ้ำนาคา",
    "name": "ร้านอาหารมุมสบาย",
    "rating": 4,
    "address": "X3C2+27R ตำบล บึงโขงหลง อำเภอ บึงโขงหลง",
    "lat": 17.9701011,
    "lng": 104.0506453,
    "distance_to_mu": "21.5 กม."
  },
  {
    "place_id": "ChIJgRq8zaETOzERiMjlZN5Ix4M",
    "mu_place": "ถ้ำนาคา",
    "name": "สวนอาหารถึงบึงโขงหลง",
    "rating": 4,
    "address": "X27J+5G3 ตำบล บึงโขงหลง อำเภอ บึงโขงหลง",
    "lat": 17.962887,
    "lng": 104.031289,
    "distance_to_mu": "24.6 กม."
  },
  {
    "place_id": "ChIJnbknS78TOzERNMKretYt2Fg",
    "mu_place": "ถ้ำนาคา",
    "name": "ร้านระเบียงไม้สาขา2",
    "rating": 4.7,
    "address": "58 อำเภอ บึงโขงหลง",
    "lat": 17.9606648,
    "lng": 104.0382126,
    "distance_to_mu": "23.7 กม."
  },
  {
    "place_id": "ChIJ5zXaJL0LOzERq4cUAahXcy4",
    "mu_place": "ถ้ำนาคา",
    "name": "เตงเรชซิ่งข้าวเปียกเส้นแซบเวอร์",
    "rating": 4.5,
    "address": "X659+9CG ตำบล บ้านแพง อำเภอ บ้านแพง",
    "lat": 17.9584575,
    "lng": 104.2185622,
    "distance_to_mu": "11.0 กม."
  },
  {
    "place_id": "ChIJPSFIQxi83zARE5ehj3l-Oc8",
    "mu_place": "ท้าวเวสสุวรรณ วัดพระศรีรัตนมหาธาตุวิหาร(วัดใหญ่)",
    "name": "ร้านอาหารใบตอง",
    "rating": 4.4,
    "address": "Q57R+5HC ตำบล ท่าโพธิ์ อำเภอเมืองพิษณุโลก",
    "lat": 16.7629407,
    "lng": 100.1913892,
    "distance_to_mu": "12.8 กม."
  },
  {
    "place_id": "ChIJBXKCfJ2-3zARUbfTbN-DsdE",
    "mu_place": "ท้าวเวสสุวรรณ วัดพระศรีรัตนมหาธาตุวิหาร(วัดใหญ่)",
    "name": "ร้านอาหารเพลิน",
    "rating": 4.5,
    "address": "ตำบล ท่าโพธิ์ อำเภอเมืองพิษณุโลก",
    "lat": 16.752826,
    "lng": 100.2015879,
    "distance_to_mu": "13.6 กม."
  },
  {
    "place_id": "ChIJh72vdmu93zARZV49EAs32wk",
    "mu_place": "ท้าวเวสสุวรรณ วัดพระศรีรัตนมหาธาตุวิหาร(วัดใหญ่)",
    "name": "ฝาชี อาหารไทยพื้นบ้าน",
    "rating": 4.4,
    "address": "ถนน สีหราชเดโชชัย ตำบลบ้านคลอง อำเภอเมืองพิษณุโลก",
    "lat": 16.816259,
    "lng": 100.2400787,
    "distance_to_mu": "4.5 กม."
  },
  {
    "place_id": "ChIJQxIaXNCi3zARMxcRtpxV4J8",
    "mu_place": "ท้าวเวสสุวรรณ วัดพระศรีรัตนมหาธาตุวิหาร(วัดใหญ่)",
    "name": "ร้านอาหารอีซ้ายรสเด็ด",
    "rating": 4.3,
    "address": "137 8 ตำบลพลายชุมพล อำเภอเมืองพิษณุโลก",
    "lat": 16.8551721,
    "lng": 100.2243036,
    "distance_to_mu": "8.6 กม."
  },
  {
    "place_id": "ChIJT3X2ntqX3zARM83ffALLpwA",
    "mu_place": "ท้าวเวสสุวรรณ วัดพระศรีรัตนมหาธาตุวิหาร(วัดใหญ่)",
    "name": "ร้านเสาวรส",
    "rating": 4.5,
    "address": "422 มหาจักรพรรดิ์ 1 ตำบล ในเมือง อำเภอเมืองพิษณุโลก",
    "lat": 16.8081619,
    "lng": 100.2696066,
    "distance_to_mu": "2.8 กม."
  },
  {
    "place_id": "ChIJ9YnJT2K93zARbU2PsayIwb4",
    "mu_place": "ท้าวเวสสุวรรณ วัดพระศรีรัตนมหาธาตุวิหาร(วัดใหญ่)",
    "name": "ครัวน่านน้ำ - KruaNannum",
    "rating": 4.2,
    "address": "94/2 ถนน วังจันทน์ ตำบล ในเมือง อำเภอเมืองพิษณุโลก",
    "lat": 16.8117816,
    "lng": 100.2568215,
    "distance_to_mu": "2.5 กม."
  },
  {
    "place_id": "ChIJI2NxBdKX3zARs2rYNIxqqsA",
    "mu_place": "ท้าวเวสสุวรรณ วัดพระศรีรัตนมหาธาตุวิหาร(วัดใหญ่)",
    "name": "ครัว",
    "rating": 4.5,
    "address": "172 14 ถนน สนามบิน เมือง, อำเภอเมืองพิษณุโลก",
    "lat": 16.8025935,
    "lng": 100.2708271,
    "distance_to_mu": "3.5 กม."
  },
  {
    "place_id": "ChIJJ4ioB92X3zARt7AszAzQWJI",
    "mu_place": "ท้าวเวสสุวรรณ วัดพระศรีรัตนมหาธาตุวิหาร(วัดใหญ่)",
    "name": "ร้านอาหารบ้านไม้",
    "rating": 4.4,
    "address": "ตำบล ในเมือง อำเภอเมืองพิษณุโลก",
    "lat": 16.8174299,
    "lng": 100.2685862,
    "distance_to_mu": "1.6 กม."
  },
  {
    "place_id": "ChIJ-aOhh-OX3zARlWIPMqNq4cU",
    "mu_place": "ท้าวเวสสุวรรณ วัดพระศรีรัตนมหาธาตุวิหาร(วัดใหญ่)",
    "name": "ร้านอาหารตั้งหลัก",
    "rating": 4.3,
    "address": "ตำบล ในเมือง อำเภอเมืองพิษณุโลก",
    "lat": 16.8279055,
    "lng": 100.2654983,
    "distance_to_mu": "0.7 กม."
  },
  {
    "place_id": "ChIJN0iGWRWY3zARpH1dFJWger4",
    "mu_place": "ท้าวเวสสุวรรณ วัดพระศรีรัตนมหาธาตุวิหาร(วัดใหญ่)",
    "name": "ร้านอาหารลุงแย้ม",
    "rating": 4.4,
    "address": "112 1 ตำบลหัวรอ อำเภอเมืองพิษณุโลก",
    "lat": 16.8646769,
    "lng": 100.2821514,
    "distance_to_mu": "5.9 กม."
  },
  {
    "place_id": "ChIJD5lI4c-i3zARzmNs3Ie5-lE",
    "mu_place": "ท้าวเวสสุวรรณ วัดพระศรีรัตนมหาธาตุวิหาร(วัดใหญ่)",
    "name": "ร้านอาหารลุงเทิง",
    "rating": 4.2,
    "address": "48 3 ตำบลพลายชุมพล อำเภอเมืองพิษณุโลก",
    "lat": 16.8555737,
    "lng": 100.2266213,
    "distance_to_mu": "8.7 กม."
  },
  {
    "place_id": "ChIJfw53_OiX3zARTg9Lii-LgN8",
    "mu_place": "ท้าวเวสสุวรรณ วัดพระศรีรัตนมหาธาตุวิหาร(วัดใหญ่)",
    "name": "ร้านอาหารลุงเด",
    "rating": 4.7,
    "address": "240/33 ซอย พญาเสือ 12 ตำบล ในเมือง อำเภอเมืองพิษณุโลก",
    "lat": 16.8227477,
    "lng": 100.2737086,
    "distance_to_mu": "1.8 กม."
  },
  {
    "place_id": "ChIJjb4xih2a3zARLdeUV5yQqQg",
    "mu_place": "ท้าวเวสสุวรรณ วัดพระศรีรัตนมหาธาตุวิหาร(วัดใหญ่)",
    "name": "ร้านอาหารสี่ทิศ",
    "rating": 3.5,
    "address": "V83X+QCF ตำบล สมอแข อำเภอเมืองพิษณุโลก",
    "lat": 16.854439,
    "lng": 100.3485587,
    "distance_to_mu": "12.5 กม."
  },
  {
    "place_id": "ChIJdXGFsGyX3zARjpxu2wgSJGs",
    "mu_place": "ท้าวเวสสุวรรณ วัดพระศรีรัตนมหาธาตุวิหาร(วัดใหญ่)",
    "name": "ร้านอาหารอิ่มอร่อย",
    "rating": 4.1,
    "address": "R89C+28F ตำบล สมอแข อำเภอเมืองพิษณุโลก",
    "lat": 16.8175705,
    "lng": 100.3208785,
    "distance_to_mu": "7.0 กม."
  },
  {
    "place_id": "ChIJa4NBJJ6-3zARj7V_xMiJIsY",
    "mu_place": "ท้าวเวสสุวรรณ วัดพระศรีรัตนมหาธาตุวิหาร(วัดใหญ่)",
    "name": "Lada ร้านอาหาร",
    "rating": 4.1,
    "address": "Q53W+4HG ตำบล ท่าโพธิ์ อำเภอเมืองพิษณุโลก",
    "lat": 16.7528124,
    "lng": 100.1964335,
    "distance_to_mu": "14.0 กม."
  },
  {
    "place_id": "ChIJVWV7TF-93zAR4XCjSQhSTko",
    "mu_place": "ท้าวเวสสุวรรณ วัดพระศรีรัตนมหาธาตุวิหาร(วัดใหญ่)",
    "name": "ร้านอาหารป้าบัวโรย",
    "rating": 4.1,
    "address": "R7G5+7HV ตำบล ในเมือง อำเภอเมืองพิษณุโลก",
    "lat": 16.8257097,
    "lng": 100.2589112,
    "distance_to_mu": "1.8 กม."
  },
  {
    "place_id": "ChIJt7ft8LC-3zARQth8zn2CEm0",
    "mu_place": "ท้าวเวสสุวรรณ วัดพระศรีรัตนมหาธาตุวิหาร(วัดใหญ่)",
    "name": "ครัวนายลาบเป็ด ร้านอาหารพิษณุโลก",
    "rating": 4.2,
    "address": "12/8 69/9 ท่าโพธิ์ อำเภอเมืองพิษณุโลก",
    "lat": 16.738846,
    "lng": 100.179681,
    "distance_to_mu": "16.6 กม."
  },
  {
    "place_id": "ChIJczcYzb2-3zARQRtpcIcZFh8",
    "mu_place": "ท้าวเวสสุวรรณ วัดพระศรีรัตนมหาธาตุวิหาร(วัดใหญ่)",
    "name": "ร้านอาหารสวนดอกไม้",
    "rating": 4.4,
    "address": "25 18 ม.9 ตำบล ท่าโพธิ์ เมือง",
    "lat": 16.7369676,
    "lng": 100.1900392,
    "distance_to_mu": "16.7 กม."
  },
  {
    "place_id": "ChIJpUqTfr2X3zAR9WjgLJqx5oU",
    "mu_place": "ท้าวเวสสุวรรณ วัดพระศรีรัตนมหาธาตุวิหาร(วัดใหญ่)",
    "name": "ร้านอาหารหมู่เฮา โดยนายนิรันดร์ ประเสริฐศรี",
    "rating": 4.2,
    "address": "888/13 ถ.มิตรภาพ ในเมือง เมือง",
    "lat": 16.8222995,
    "lng": 100.2814341,
    "distance_to_mu": "2.6 กม."
  },
  {
    "place_id": "ChIJAx5ULN-X3zAR2UP0Vzz8hA0",
    "mu_place": "ท้าวเวสสุวรรณ วัดพระศรีรัตนมหาธาตุวิหาร(วัดใหญ่)",
    "name": "ร้านอาหารปักนั้ง",
    "rating": 4.2,
    "address": "19 พุทธบูชา 1 ตำบล ในเมือง อำเภอเมืองพิษณุโลก",
    "lat": 16.8143226,
    "lng": 100.2623347,
    "distance_to_mu": "2.3 กม."
  },
  {
    "place_id": "ChIJ39reISiuHTER3xnDASYjsY8",
    "mu_place": "วัดมณีวงศ์",
    "name": "ร้าน ศ พิสดาร",
    "rating": 3.9,
    "address": "133 23-24 ถ. สุวรรณศร ตำบล บ้านใหญ่ อำเภอเมืองนครนายก",
    "lat": 14.2069432,
    "lng": 101.2169531,
    "distance_to_mu": "7.6 กม."
  },
  {
    "place_id": "ChIJ_TJ40SGuHTERxw44RDWsCc0",
    "mu_place": "วัดมณีวงศ์",
    "name": "ร้านเลิศรสโภชนา",
    "rating": 4.2,
    "address": "663H+8MP อำเภอเมืองนครนายก",
    "lat": 14.2033019,
    "lng": 101.2291281,
    "distance_to_mu": "8.1 กม."
  },
  {
    "place_id": "ChIJY0Qk4oO6HTERgf_LrTnshAw",
    "mu_place": "วัดมณีวงศ์",
    "name": "ร้านอาหารแป๊ะฮก",
    "rating": 3.8,
    "address": "เลขที่ 117 4 ตำบล พรหมณี อำเภอเมืองนครนายก",
    "lat": 14.2226406,
    "lng": 101.1510393,
    "distance_to_mu": "11.4 กม."
  },
  {
    "place_id": "ChIJVebkVY-xHTER7j1Ms3VnTpk",
    "mu_place": "วัดมณีวงศ์",
    "name": "ร้านบ้านนายโอ",
    "rating": 4.4,
    "address": "66RW+2H2 ตำบล สาริกา อำเภอเมืองนครนายก",
    "lat": 14.2400091,
    "lng": 101.2463773,
    "distance_to_mu": "12.6 กม."
  },
  {
    "place_id": "ChIJhwHxb8-vHTERGX52MhqsnHM",
    "mu_place": "วัดมณีวงศ์",
    "name": "ครัวมัจฉา Krua Matcha",
    "rating": 4.2,
    "address": "55VW+6HG ตำบล ท่าช้าง อำเภอเมืองนครนายก",
    "lat": 14.1930503,
    "lng": 101.1964571,
    "distance_to_mu": "5.1 กม."
  },
  {
    "place_id": "ChIJ4dP67NuvHTERYp50STWonYE",
    "mu_place": "วัดมณีวงศ์",
    "name": "ร้านสามสาว ข้าวแกง",
    "rating": 3.8,
    "address": "305 ตำบล ท่าช้าง อำเภอเมืองนครนายก",
    "lat": 14.2004451,
    "lng": 101.1915144,
    "distance_to_mu": "6.0 กม."
  },
  {
    "place_id": "ChIJUw31ISuuHTER88zSs0RZFDA",
    "mu_place": "วัดมณีวงศ์",
    "name": "ร้านอาหาร ราดหน้ายอดผัก",
    "rating": 3.7,
    "address": "6635+P9R ตำบล บ้านใหญ่ อำเภอเมืองนครนายก",
    "lat": 14.204359,
    "lng": 101.2083832,
    "distance_to_mu": "7.5 กม."
  },
  {
    "place_id": "ChIJX64x6dyxHTER4EezDt3ktGU",
    "mu_place": "วัดมณีวงศ์",
    "name": "ร้านอาหารพรอีสาน",
    "rating": 4.1,
    "address": "ตำบล บ้านใหญ่ อำเภอเมืองนครนายก",
    "lat": 14.2183469,
    "lng": 101.2147843,
    "distance_to_mu": "10.3 กม."
  },
  {
    "place_id": "ChIJsf_Q_i4IHTERyLea-pIKwNc",
    "mu_place": "วัดมณีวงศ์",
    "name": "ร้านอาหารเตยใหญ่",
    "rating": 4.4,
    "address": "48 ม.7 ตำบล บางสมบูรณ์ อำเภอองครักษ์",
    "lat": 14.0199276,
    "lng": 101.124616,
    "distance_to_mu": "20.9 กม."
  },
  {
    "place_id": "ChIJQ_IPhG-8HTERkz-l9twanaE",
    "mu_place": "วัดมณีวงศ์",
    "name": "ร้านอาหารเรือนลอมฟาง",
    "rating": 4,
    "address": "21 ม.10 ถ. สุวรรณศร ตำบล ป่าขะ อำเภอบ้านนา",
    "lat": 14.2722881,
    "lng": 101.0572808,
    "distance_to_mu": "24.4 กม."
  },
  {
    "place_id": "ChIJ9SSaEqOsHTER7gv3NACweSQ",
    "mu_place": "วัดมณีวงศ์",
    "name": "ร้านอาหารฌอกะเฌอ",
    "rating": 4.2,
    "address": "98 105 319 ตำบล ไม้เค็ด อำเภอเมืองปราจีนบุรี",
    "lat": 14.1198343,
    "lng": 101.3245503,
    "distance_to_mu": "23.4 กม."
  },
  {
    "place_id": "ChIJRZkOevixHTERyJBeBdZ4zIQ",
    "mu_place": "วัดมณีวงศ์",
    "name": "ร้านอาหารป่า ลุงหมูกับตุ๊ดตู่จ๋า",
    "rating": 4.7,
    "address": "6588+8HP ถนน รังสิต - นครนายก ตำบล พรหมณี อำเภอเมืองนครนายก",
    "lat": 14.2158376,
    "lng": 101.1664611,
    "distance_to_mu": "9.3 กม."
  },
  {
    "place_id": "ChIJFckNw8azHTERJdfx_gbYr-o",
    "mu_place": "วัดมณีวงศ์",
    "name": "ร้านคุณเปรม",
    "rating": 3.3,
    "address": "778C+HG5 ตำบล สาริกา อำเภอเมืองนครนายก",
    "lat": 14.2663779,
    "lng": 101.2713525,
    "distance_to_mu": "16.5 กม."
  },
  {
    "place_id": "ChIJRaVQueSsHTER6-JuCGP61RE",
    "mu_place": "วัดมณีวงศ์",
    "name": "ร้านอาหารน้องนก (ฤาชาปราจีน)",
    "rating": 4.2,
    "address": "ตำบล โคกไม้ลาย อำเภอเมืองปราจีนบุรี",
    "lat": 14.1501738,
    "lng": 101.3100933,
    "distance_to_mu": "20.7 กม."
  },
  {
    "place_id": "ChIJd3qwttSzHTERANHlP8jAeiM",
    "mu_place": "วัดมณีวงศ์",
    "name": "ร้านอาหารเรือนศรีนครนายก",
    "rating": 4.3,
    "address": "7724+HR7 ทางหลวงแผ่นดินหมายเลข. 3049 ตำบล สาริกา อำเภอเมืองนครนายก",
    "lat": 14.251405,
    "lng": 101.2570432,
    "distance_to_mu": "14.3 กม."
  },
  {
    "place_id": "ChIJhVuOmvixHTERzVHT2N4ilx0",
    "mu_place": "วัดมณีวงศ์",
    "name": "ร้านอาหารครัวสากเพชร",
    "rating": 4.6,
    "address": "66FM+WGX ตำบล บ้านใหญ่ อำเภอเมืองนครนายก",
    "lat": 14.2248555,
    "lng": 101.233869,
    "distance_to_mu": "13.3 กม."
  },
  {
    "place_id": "ChIJfX6OaOexHTER37V5XwOWD4M",
    "mu_place": "วัดมณีวงศ์",
    "name": "ร้านอาหารครัวอีสานบ้านเฮา",
    "rating": 4.1,
    "address": "667J+G5R ตำบล บ้านใหญ่ อำเภอเมืองนครนายก",
    "lat": 14.2137674,
    "lng": 101.2303858,
    "distance_to_mu": "9.4 กม."
  },
  {
    "place_id": "ChIJWYex-DCpHTERDd7CN12K5L8",
    "mu_place": "วัดมณีวงศ์",
    "name": "ร้านอาหารนายเต๋า",
    "rating": 0,
    "address": "25X8+57X ทางหลวงชนบท นครนายก ตำบล ศรีจุฬา อำเภอเมืองนครนายก",
    "lat": 14.0480247,
    "lng": 101.1657217,
    "distance_to_mu": "14.0 กม."
  },
  {
    "place_id": "ChIJewdRgoC6HTERLKVPitZ7gOA",
    "mu_place": "วัดมณีวงศ์",
    "name": "ร้านอาหาร เจ วี",
    "rating": 4.5,
    "address": "ตำบล พรหมณี อำเภอเมืองนครนายก",
    "lat": 14.2556141,
    "lng": 101.1584095,
    "distance_to_mu": "15.0 กม."
  },
  {
    "place_id": "ChIJ_R-3MjyyHTERR8ZfiA1hF9w",
    "mu_place": "วัดมณีวงศ์",
    "name": "ครัวมีน้ำ มีปลา",
    "rating": 4.3,
    "address": "67J9+6C5 ตำบล ศรีนาวา อำเภอเมืองนครนายก",
    "lat": 14.2305603,
    "lng": 101.2686694,
    "distance_to_mu": "14.5 กม."
  },
  {
    "place_id": "ChIJk9235fWc4jAR4YEKKmE2FOM",
    "mu_place": "วัดอินทรวิหาร พระอารามหลวง (บางขุนพรหม)",
    "name": "ร้านอาหารเพลิน",
    "rating": 4.2,
    "address": "7/428 ถนน วิภาวดีรังสิต แขวงจตุจักร เขตจตุจักร",
    "lat": 13.8259653,
    "lng": 100.5571122,
    "distance_to_mu": "12.7 กม."
  },
  {
    "place_id": "ChIJrfiORG6Z4jARSNgY2uztUlM",
    "mu_place": "วัดอินทรวิหาร พระอารามหลวง (บางขุนพรหม)",
    "name": "กินลมชมสะพาน",
    "rating": 4.1,
    "address": "11 6 ถนนจักรพงษ์ แขวงวัดสามพระยา เขตพระนคร",
    "lat": 13.7666469,
    "lng": 100.497129,
    "distance_to_mu": "2.6 กม."
  },
  {
    "place_id": "ChIJm0_MlRqZ4jARCg5Yko0K4gI",
    "mu_place": "วัดอินทรวิหาร พระอารามหลวง (บางขุนพรหม)",
    "name": "ร้านอาหารอายตี",
    "rating": 4.4,
    "address": "19, 1 ถนน มหรรณพ แขวงเสาชิงช้า เขตพระนคร",
    "lat": 13.7538247,
    "lng": 100.4992541,
    "distance_to_mu": "2.5 กม."
  },
  {
    "place_id": "ChIJgbGtNJOc4jAR7sdFCNyNwo4",
    "mu_place": "วัดอินทรวิหาร พระอารามหลวง (บางขุนพรหม)",
    "name": "ร้านอาหารประพักตร์",
    "rating": 4.3,
    "address": "89/165 ถนน เทศบาลสงเคราะห์ แขวงลาดยาว เขตจตุจักร",
    "lat": 13.8406963,
    "lng": 100.552399,
    "distance_to_mu": "14.9 กม."
  },
  {
    "place_id": "ChIJE7tT7aaF4jARB70Cp0OIrb0",
    "mu_place": "วัดอินทรวิหาร พระอารามหลวง (บางขุนพรหม)",
    "name": "ร้านอาหาร สามเสนไลฟ์ - เดอะริเวอร์",
    "rating": 4.6,
    "address": "10 36 ตำบล ไทรม้า เมือง",
    "lat": 13.8801577,
    "lng": 100.4773226,
    "distance_to_mu": "24.0 กม."
  },
  {
    "place_id": "ChIJg86wsZ-Z4jARYyyrIYV1rpw",
    "mu_place": "วัดอินทรวิหาร พระอารามหลวง (บางขุนพรหม)",
    "name": "ร้านอาหาร ชมอรุณ",
    "rating": 4.4,
    "address": "392, 53 ถ. มหาราช แขวงพระบรมมหาราชวัง เขตพระนคร",
    "lat": 13.7439951,
    "lng": 100.491825,
    "distance_to_mu": "4.8 กม."
  },
  {
    "place_id": "ChIJUc_RMhyc4jAR8IcvuzNYixA",
    "mu_place": "วัดอินทรวิหาร พระอารามหลวง (บางขุนพรหม)",
    "name": "ร้านอาหาร เหลา เหลา",
    "rating": 4.2,
    "address": "1271 7 ถ. พหลโยธิน แขวงพญาไท เขตพญาไท",
    "lat": 13.7820964,
    "lng": 100.5453428,
    "distance_to_mu": "7.9 กม."
  },
  {
    "place_id": "ChIJWYItdk-c4jARlvE1Ch9cq80",
    "mu_place": "วัดอินทรวิหาร พระอารามหลวง (บางขุนพรหม)",
    "name": "ร้านอาหารไก่เพชร",
    "rating": 4.3,
    "address": "7 6 ซอย ลาดพร้าว 8 แยก 3 แขวงจอมพล เขตจตุจักร",
    "lat": 13.8103274,
    "lng": 100.5642949,
    "distance_to_mu": "12.3 กม."
  },
  {
    "place_id": "ChIJW5UOAaWb4jARnc6_WNZvTfM",
    "mu_place": "วัดอินทรวิหาร พระอารามหลวง (บางขุนพรหม)",
    "name": "Three Mangoes บ้านไทย ชายคลอง",
    "rating": 4.2,
    "address": "76 1 ถ. นครอินทร์ ตำบล บางขนุน อำเภอบางกรวย",
    "lat": 13.8237315,
    "lng": 100.4670198,
    "distance_to_mu": "17.6 กม."
  },
  {
    "place_id": "ChIJtzIw_oViHTERrXgTWeffK9M",
    "mu_place": "วัดอินทรวิหาร พระอารามหลวง (บางขุนพรหม)",
    "name": "ร้านอาหาร เมลโล่การ์เด้น",
    "rating": 4.5,
    "address": "10/804 เกษตร - นวมินทร์ แขวงนวลจันทร์ เขตบึงกุ่ม",
    "lat": 13.8276017,
    "lng": 100.6307115,
    "distance_to_mu": "24.0 กม."
  },
  {
    "place_id": "ChIJNQOCPpaZ4jARfyYpLOOrMXw",
    "mu_place": "วัดอินทรวิหาร พระอารามหลวง (บางขุนพรหม)",
    "name": "ร้านอาหารเลอ อัญญ์",
    "rating": 4.1,
    "address": "แขวงบางขุนศรี เขตบางกอกน้อย",
    "lat": 13.761189,
    "lng": 100.4693039,
    "distance_to_mu": "8.5 กม."
  },
  {
    "place_id": "ChIJ-ahQtSSX4jARtYv1EZbV_Q8",
    "mu_place": "วัดอินทรวิหาร พระอารามหลวง (บางขุนพรหม)",
    "name": "Bajika Restaurant (ร้านอาหารบาจิกา)",
    "rating": 4.4,
    "address": "46/4 ถ. กาญจนาภิเษก แขวงศาลาธรรมสพน์ เขตทวีวัฒนา",
    "lat": 13.7701897,
    "lng": 100.4069093,
    "distance_to_mu": "17.3 กม."
  },
  {
    "place_id": "ChIJS_RPAX2c4jARjUYvGSkxoI0",
    "mu_place": "วัดอินทรวิหาร พระอารามหลวง (บางขุนพรหม)",
    "name": "หมีแฟมิลี่ สาขา ประชาชื่น",
    "rating": 4.6,
    "address": "280/1 ถ. ประชาชื่น แขวงจตุจักร เขตจตุจักร",
    "lat": 13.8232274,
    "lng": 100.5384329,
    "distance_to_mu": "13.4 กม."
  },
  {
    "place_id": "ChIJJ4rjXROd4jARFPMLuoMvy18",
    "mu_place": "วัดอินทรวิหาร พระอารามหลวง (บางขุนพรหม)",
    "name": "ร้านอาหาร ครกไม้ไทยลาว ซอยลาดปลาเค้า 24",
    "rating": 4.3,
    "address": "8 ซ. ลาดปลาเค้า 24 แขวงจรเข้บัว เขตลาดพร้าว",
    "lat": 13.8401614,
    "lng": 100.5958436,
    "distance_to_mu": "23.2 กม."
  },
  {
    "place_id": "ChIJdUb9eI2c4jARP0Oj55_KY44",
    "mu_place": "วัดอินทรวิหาร พระอารามหลวง (บางขุนพรหม)",
    "name": "T and T Restaurant",
    "rating": 4.3,
    "address": "359 เทศบาลนิมิตใต้ ซอย 7 แขวงลาดยาว เขตจตุจักร",
    "lat": 13.8363602,
    "lng": 100.5495098,
    "distance_to_mu": "15.0 กม."
  },
  {
    "place_id": "ChIJWRrZ5Yee4jARlGVjGxm5nj8",
    "mu_place": "วัดอินทรวิหาร พระอารามหลวง (บางขุนพรหม)",
    "name": "ป้าเรย์",
    "rating": 3.9,
    "address": "4-6-8 ถนนเทียนร่วมมิตร แขวงห้วยขวาง",
    "lat": 13.7667789,
    "lng": 100.5811614,
    "distance_to_mu": "12.9 กม."
  },
  {
    "place_id": "ChIJ232o9a-C4jAR7u_KJG7O3YI",
    "mu_place": "วัดอินทรวิหาร พระอารามหลวง (บางขุนพรหม)",
    "name": "ร้านอาหารต้มยำหัวปลา",
    "rating": 4.4,
    "address": "ซ. พหลโยธิน 48 แขวงอนุสาวรีย์ เขตบางเขน",
    "lat": 13.8797791,
    "lng": 100.6093118,
    "distance_to_mu": "24.1 กม."
  },
  {
    "place_id": "ChIJJccSUCOi4jARUjH8oZl9g-w",
    "mu_place": "วัดอินทรวิหาร พระอารามหลวง (บางขุนพรหม)",
    "name": "ร้านอาหารบ้านใบบัว",
    "rating": 4.3,
    "address": "13, 37 ถ. วงแหวนอุตสาหกรรม ลัดหลวง อำเภอพระประแดง",
    "lat": 13.6646477,
    "lng": 100.5233595,
    "distance_to_mu": "16.8 กม."
  },
  {
    "place_id": "ChIJq5RKzq6c4jARlzKIFFR7j4U",
    "mu_place": "วัดอินทรวิหาร พระอารามหลวง (บางขุนพรหม)",
    "name": "ร้านอาหารแกงป่า(ลุงสง่า)",
    "rating": 4.3,
    "address": "285 162 ซ. งามวงศ์วาน 23 แยก 11 ตำบลบางเขน อำเภอเมือง",
    "lat": 13.8651608,
    "lng": 100.5355962,
    "distance_to_mu": "16.9 กม."
  },
  {
    "place_id": "ChIJZYukxiOW4jARhffYcpOMPtI",
    "mu_place": "วัดอินทรวิหาร พระอารามหลวง (บางขุนพรหม)",
    "name": "ร้านอาหารนภาลัย",
    "rating": 4.1,
    "address": "1 ชุมชน นาคสถาพร 2 เพชรเกษม 69 แยก 6 แขวงหนองค้างพลู เขตหนองแขม",
    "lat": 13.7022973,
    "lng": 100.3760201,
    "distance_to_mu": "26.4 กม."
  },
  {
    "place_id": "ChIJk9235fWc4jAR4YEKKmE2FOM",
    "mu_place": "ศาลเจ้าพ่อกรมหลวงชุมพร อุดมศักดิ์",
    "name": "ร้านอาหารเพลิน",
    "rating": 4.2,
    "address": "7/428 ถนน วิภาวดีรังสิต แขวงจตุจักร เขตจตุจักร",
    "lat": 13.8259653,
    "lng": 100.5571122,
    "distance_to_mu": "10.9 กม."
  },
  {
    "place_id": "ChIJrfiORG6Z4jARSNgY2uztUlM",
    "mu_place": "ศาลเจ้าพ่อกรมหลวงชุมพร อุดมศักดิ์",
    "name": "กินลมชมสะพาน",
    "rating": 4.1,
    "address": "11 6 ถนนจักรพงษ์ แขวงวัดสามพระยา เขตพระนคร",
    "lat": 13.7666469,
    "lng": 100.497129,
    "distance_to_mu": "2.5 กม."
  },
  {
    "place_id": "ChIJm0_MlRqZ4jARCg5Yko0K4gI",
    "mu_place": "ศาลเจ้าพ่อกรมหลวงชุมพร อุดมศักดิ์",
    "name": "ร้านอาหารอายตี",
    "rating": 4.4,
    "address": "19, 1 ถนน มหรรณพ แขวงเสาชิงช้า เขตพระนคร",
    "lat": 13.7538247,
    "lng": 100.4992541,
    "distance_to_mu": "2.6 กม."
  },
  {
    "place_id": "ChIJgbGtNJOc4jAR7sdFCNyNwo4",
    "mu_place": "ศาลเจ้าพ่อกรมหลวงชุมพร อุดมศักดิ์",
    "name": "ร้านอาหารประพักตร์",
    "rating": 4.3,
    "address": "89/165 ถนน เทศบาลสงเคราะห์ แขวงลาดยาว เขตจตุจักร",
    "lat": 13.8406963,
    "lng": 100.552399,
    "distance_to_mu": "13.1 กม."
  },
  {
    "place_id": "ChIJE7tT7aaF4jARB70Cp0OIrb0",
    "mu_place": "ศาลเจ้าพ่อกรมหลวงชุมพร อุดมศักดิ์",
    "name": "ร้านอาหาร สามเสนไลฟ์ - เดอะริเวอร์",
    "rating": 4.6,
    "address": "10 36 ตำบล ไทรม้า เมือง",
    "lat": 13.8801577,
    "lng": 100.4773226,
    "distance_to_mu": "22.2 กม."
  },
  {
    "place_id": "ChIJg86wsZ-Z4jARYyyrIYV1rpw",
    "mu_place": "ศาลเจ้าพ่อกรมหลวงชุมพร อุดมศักดิ์",
    "name": "ร้านอาหาร ชมอรุณ",
    "rating": 4.4,
    "address": "392, 53 ถ. มหาราช แขวงพระบรมมหาราชวัง เขตพระนคร",
    "lat": 13.7439951,
    "lng": 100.491825,
    "distance_to_mu": "4.9 กม."
  },
  {
    "place_id": "ChIJUc_RMhyc4jAR8IcvuzNYixA",
    "mu_place": "ศาลเจ้าพ่อกรมหลวงชุมพร อุดมศักดิ์",
    "name": "ร้านอาหาร เหลา เหลา",
    "rating": 4.2,
    "address": "1271 7 ถ. พหลโยธิน แขวงพญาไท เขตพญาไท",
    "lat": 13.7820964,
    "lng": 100.5453428,
    "distance_to_mu": "6.1 กม."
  },
  {
    "place_id": "ChIJWYItdk-c4jARlvE1Ch9cq80",
    "mu_place": "ศาลเจ้าพ่อกรมหลวงชุมพร อุดมศักดิ์",
    "name": "ร้านอาหารไก่เพชร",
    "rating": 4.3,
    "address": "7 6 ซอย ลาดพร้าว 8 แยก 3 แขวงจอมพล เขตจตุจักร",
    "lat": 13.8103274,
    "lng": 100.5642949,
    "distance_to_mu": "10.5 กม."
  },
  {
    "place_id": "ChIJW5UOAaWb4jARnc6_WNZvTfM",
    "mu_place": "ศาลเจ้าพ่อกรมหลวงชุมพร อุดมศักดิ์",
    "name": "Three Mangoes บ้านไทย ชายคลอง",
    "rating": 4.2,
    "address": "76 1 ถ. นครอินทร์ ตำบล บางขนุน อำเภอบางกรวย",
    "lat": 13.8237315,
    "lng": 100.4670198,
    "distance_to_mu": "17.3 กม."
  },
  {
    "place_id": "ChIJtzIw_oViHTERrXgTWeffK9M",
    "mu_place": "ศาลเจ้าพ่อกรมหลวงชุมพร อุดมศักดิ์",
    "name": "ร้านอาหาร เมลโล่การ์เด้น",
    "rating": 4.5,
    "address": "10/804 เกษตร - นวมินทร์ แขวงนวลจันทร์ เขตบึงกุ่ม",
    "lat": 13.8276017,
    "lng": 100.6307115,
    "distance_to_mu": "22.2 กม."
  },
  {
    "place_id": "ChIJNQOCPpaZ4jARfyYpLOOrMXw",
    "mu_place": "ศาลเจ้าพ่อกรมหลวงชุมพร อุดมศักดิ์",
    "name": "ร้านอาหารเลอ อัญญ์",
    "rating": 4.1,
    "address": "แขวงบางขุนศรี เขตบางกอกน้อย",
    "lat": 13.761189,
    "lng": 100.4693039,
    "distance_to_mu": "8.2 กม."
  },
  {
    "place_id": "ChIJ-ahQtSSX4jARtYv1EZbV_Q8",
    "mu_place": "ศาลเจ้าพ่อกรมหลวงชุมพร อุดมศักดิ์",
    "name": "Bajika Restaurant (ร้านอาหารบาจิกา)",
    "rating": 4.4,
    "address": "46/4 ถ. กาญจนาภิเษก แขวงศาลาธรรมสพน์ เขตทวีวัฒนา",
    "lat": 13.7701897,
    "lng": 100.4069093,
    "distance_to_mu": "17.1 กม."
  },
  {
    "place_id": "ChIJS_RPAX2c4jARjUYvGSkxoI0",
    "mu_place": "ศาลเจ้าพ่อกรมหลวงชุมพร อุดมศักดิ์",
    "name": "หมีแฟมิลี่ สาขา ประชาชื่น",
    "rating": 4.6,
    "address": "280/1 ถ. ประชาชื่น แขวงจตุจักร เขตจตุจักร",
    "lat": 13.8232274,
    "lng": 100.5384329,
    "distance_to_mu": "11.6 กม."
  },
  {
    "place_id": "ChIJJ4rjXROd4jARFPMLuoMvy18",
    "mu_place": "ศาลเจ้าพ่อกรมหลวงชุมพร อุดมศักดิ์",
    "name": "ร้านอาหาร ครกไม้ไทยลาว ซอยลาดปลาเค้า 24",
    "rating": 4.3,
    "address": "8 ซ. ลาดปลาเค้า 24 แขวงจรเข้บัว เขตลาดพร้าว",
    "lat": 13.8401614,
    "lng": 100.5958436,
    "distance_to_mu": "21.4 กม."
  },
  {
    "place_id": "ChIJdUb9eI2c4jARP0Oj55_KY44",
    "mu_place": "ศาลเจ้าพ่อกรมหลวงชุมพร อุดมศักดิ์",
    "name": "T and T Restaurant",
    "rating": 4.3,
    "address": "359 เทศบาลนิมิตใต้ ซอย 7 แขวงลาดยาว เขตจตุจักร",
    "lat": 13.8363602,
    "lng": 100.5495098,
    "distance_to_mu": "13.2 กม."
  },
  {
    "place_id": "ChIJWRrZ5Yee4jARlGVjGxm5nj8",
    "mu_place": "ศาลเจ้าพ่อกรมหลวงชุมพร อุดมศักดิ์",
    "name": "ป้าเรย์",
    "rating": 3.9,
    "address": "4-6-8 ถนนเทียนร่วมมิตร แขวงห้วยขวาง",
    "lat": 13.7667789,
    "lng": 100.5811614,
    "distance_to_mu": "11.0 กม."
  },
  {
    "place_id": "ChIJ232o9a-C4jAR7u_KJG7O3YI",
    "mu_place": "ศาลเจ้าพ่อกรมหลวงชุมพร อุดมศักดิ์",
    "name": "ร้านอาหารต้มยำหัวปลา",
    "rating": 4.4,
    "address": "ซ. พหลโยธิน 48 แขวงอนุสาวรีย์ เขตบางเขน",
    "lat": 13.8797791,
    "lng": 100.6093118,
    "distance_to_mu": "22.3 กม."
  },
  {
    "place_id": "ChIJyf-CiJljHTERiwzcrrVJfv4",
    "mu_place": "ศาลเจ้าพ่อกรมหลวงชุมพร อุดมศักดิ์",
    "name": "ร้านอาหารลงแพ หรือ @บางขวด",
    "rating": 4.3,
    "address": "3 ซอย นวลจันทร์ 56 แขวงนวลจันทร์ เขตบึงกุ่ม",
    "lat": 13.8328813,
    "lng": 100.6462978,
    "distance_to_mu": "26.8 กม."
  },
  {
    "place_id": "ChIJJccSUCOi4jARUjH8oZl9g-w",
    "mu_place": "ศาลเจ้าพ่อกรมหลวงชุมพร อุดมศักดิ์",
    "name": "ร้านอาหารบ้านใบบัว",
    "rating": 4.3,
    "address": "13, 37 ถ. วงแหวนอุตสาหกรรม ลัดหลวง อำเภอพระประแดง",
    "lat": 13.6646477,
    "lng": 100.5233595,
    "distance_to_mu": "15.0 กม."
  },
  {
    "place_id": "ChIJq5RKzq6c4jARlzKIFFR7j4U",
    "mu_place": "ศาลเจ้าพ่อกรมหลวงชุมพร อุดมศักดิ์",
    "name": "ร้านอาหารแกงป่า(ลุงสง่า)",
    "rating": 4.3,
    "address": "285 162 ซ. งามวงศ์วาน 23 แยก 11 ตำบลบางเขน อำเภอเมือง",
    "lat": 13.8651608,
    "lng": 100.5355962,
    "distance_to_mu": "15.1 กม."
  },
  {
    "place_id": "ChIJAap6XBii4jARBzGyZzQGrPE",
    "mu_place": "วิหารพระพุทธชินราชมงคลปราการ",
    "name": "ร้านอาหาร โค้งไผ่หลิว",
    "rating": 4.2,
    "address": "1/1 ม.9 ถ.พระราชวิริยาภรณ์ ต.บางพึ่ง อ.พระประแดง, อำเภอพระประแดง",
    "lat": 13.6683159,
    "lng": 100.5207053,
    "distance_to_mu": "14.8 กม."
  },
  {
    "place_id": "ChIJp0JXQA-f4jARIgWPkU1S11I",
    "mu_place": "วิหารพระพุทธชินราชมงคลปราการ",
    "name": "ร้านอาหารเสวย",
    "rating": 4.6,
    "address": "170 สุขุมวิท 24 แขวงคลองตัน เขตคลองเตย",
    "lat": 13.7202587,
    "lng": 100.5680007,
    "distance_to_mu": "19.5 กม."
  },
  {
    "place_id": "ChIJbZAaSpKf4jAR6EVx8k0aVhY",
    "mu_place": "วิหารพระพุทธชินราชมงคลปราการ",
    "name": "ร้านอาหาร ครัวโอชา Ocha Kitchen",
    "rating": 4.5,
    "address": "28 ซอย สุขุมวิท 64 แขวงพระโขนงใต้ เขตพระโขนง",
    "lat": 13.6864338,
    "lng": 100.6085395,
    "distance_to_mu": "10.4 กม."
  },
  {
    "place_id": "ChIJmwKRIJJgHTERhQ4RWS3RBVc",
    "mu_place": "วิหารพระพุทธชินราชมงคลปราการ",
    "name": "ร้านอาหารเสี่ยครัวไทย",
    "rating": 4,
    "address": "33/3 ถ.เฉลิมพระเกียรติ ร.9 ดอกไม้ ประเวศ",
    "lat": 13.6999014,
    "lng": 100.6784954,
    "distance_to_mu": "17.3 กม."
  },
  {
    "place_id": "ChIJbXiPiYWf4jARrIa1ms2MI48",
    "mu_place": "วิหารพระพุทธชินราชมงคลปราการ",
    "name": "ร้านอาหารฟ้าใส",
    "rating": 4,
    "address": "315/103 fortune condo 1 แขวงบางโพงพาง เขตยานนาวา",
    "lat": 13.7006792,
    "lng": 100.5362856,
    "distance_to_mu": "16.7 กม."
  },
  {
    "place_id": "ChIJ58_uzNxZHTERC5KjHHCoijU",
    "mu_place": "วิหารพระพุทธชินราชมงคลปราการ",
    "name": "ร้านอาหาร สวนลุงพร",
    "rating": 4.6,
    "address": "2 2 ตำบล แพรกษา อำเภอเมืองสมุทรปราการ",
    "lat": 13.5877449,
    "lng": 100.6419076,
    "distance_to_mu": "8.8 กม."
  },
  {
    "place_id": "ChIJQcvtv19fHTERKq9vPe3giEk",
    "mu_place": "วิหารพระพุทธชินราชมงคลปราการ",
    "name": "ร้านอาหารรสสุคนธ์",
    "rating": 4.1,
    "address": "299 12 หมู่ 5 ถ. ศรีนครินทร์ ตำบล บางเมือง อำเภอเมืองสมุทรปราการ",
    "lat": 13.6149492,
    "lng": 100.6211256,
    "distance_to_mu": "7.6 กม."
  },
  {
    "place_id": "ChIJLzwbZLxeHTERAGFv_WBO4hk",
    "mu_place": "วิหารพระพุทธชินราชมงคลปราการ",
    "name": "ไข่นุ้ย",
    "rating": 4.5,
    "address": "23/4 ถนน หนามแดง-บางพลี ตำบล บางพลีใหญ่ อำเภอบางพลี",
    "lat": 13.6084539,
    "lng": 100.6954255,
    "distance_to_mu": "19.0 กม."
  },
  {
    "place_id": "ChIJZ-BT2cFfHTER3h-EPakhndc",
    "mu_place": "วิหารพระพุทธชินราชมงคลปราการ",
    "name": "ปิ่นทอง",
    "rating": 4.3,
    "address": "33 ซอย บางนา-ตราด 46 บางนาใต้ เขตบางนา",
    "lat": 13.6652597,
    "lng": 100.6421683,
    "distance_to_mu": "11.1 กม."
  },
  {
    "place_id": "ChIJxygQmP6h4jARKGRnzc3IMXo",
    "mu_place": "วิหารพระพุทธชินราชมงคลปราการ",
    "name": "ร้านอาหารมณีจันทร์",
    "rating": 4.8,
    "address": "MH3V+H5P, Unnamed Road, ตำบล สำโรง อำเภอพระประแดง",
    "lat": 13.6539617,
    "lng": 100.5929501,
    "distance_to_mu": "6.2 กม."
  },
  {
    "place_id": "ChIJp1PGIyFhHTERhgPHmUhutMo",
    "mu_place": "วิหารพระพุทธชินราชมงคลปราการ",
    "name": "ร้านอาหาร พร้อม",
    "rating": 3.8,
    "address": "59 สุขาภิบาล 2 ซอย 17 แขวงประเวศ เขต ประเวศ",
    "lat": 13.6986791,
    "lng": 100.7053543,
    "distance_to_mu": "29.8 กม."
  },
  {
    "place_id": "ChIJJccSUCOi4jARUjH8oZl9g-w",
    "mu_place": "วิหารพระพุทธชินราชมงคลปราการ",
    "name": "ร้านอาหารบ้านใบบัว",
    "rating": 4.3,
    "address": "13, 37 ถ. วงแหวนอุตสาหกรรม ลัดหลวง อำเภอพระประแดง",
    "lat": 13.6646477,
    "lng": 100.5233595,
    "distance_to_mu": "12.6 กม."
  },
  {
    "place_id": "ChIJ3W6cLk6i4jARxCzP2CCf45w",
    "mu_place": "วิหารพระพุทธชินราชมงคลปราการ",
    "name": "ร้านอาหารป้าสี่คน",
    "rating": 3.9,
    "address": "MF2W+9R8 ซอย ประชาอุทิศ 45 แขวงบางมด เขตทุ่งครุ",
    "lat": 13.6511285,
    "lng": 100.496923,
    "distance_to_mu": "17.7 กม."
  },
  {
    "place_id": "ChIJeYcKIrag4jARrVBy_2hYufU",
    "mu_place": "วิหารพระพุทธชินราชมงคลปราการ",
    "name": "ร้านอาหาร ศรีกร",
    "rating": 4.3,
    "address": "233 ถ. สุขุมวิท ตำบลปากน้ำ อำเภอเมืองสมุทรปราการ",
    "lat": 13.601827,
    "lng": 100.5974659,
    "distance_to_mu": "1.0 กม."
  },
  {
    "place_id": "ChIJ5ZXXie6i4jARMDbUHpUX_LA",
    "mu_place": "วิหารพระพุทธชินราชมงคลปราการ",
    "name": "ร้านอาหารรวมมิตร",
    "rating": 4.2,
    "address": "MF6C+R78 ถนน พุทธบูชา แขวงบางมด เขตจอมทอง",
    "lat": 13.6620467,
    "lng": 100.470702,
    "distance_to_mu": "21.9 กม."
  },
  {
    "place_id": "ChIJiSDb8OuZ4jARazQRmDC-IgE",
    "mu_place": "วิหารพระพุทธชินราชมงคลปราการ",
    "name": "ร้านอาหาร​บ้าน​แบบ​ไทย",
    "rating": 4.7,
    "address": "​ ​ 307 ซอย สาทร 19 แขวงยานนาวา เขตยานนาวา",
    "lat": 13.7178337,
    "lng": 100.517159,
    "distance_to_mu": "21.1 กม."
  },
  {
    "place_id": "ChIJVR1_rsWY4jAR0BqRhCK_sbM",
    "mu_place": "วิหารพระพุทธชินราชมงคลปราการ",
    "name": "ประจักษ์",
    "rating": 4.2,
    "address": "1415 ถ. เจริญกรุง แขวงสีลม เขตบางรัก",
    "lat": 13.7203946,
    "lng": 100.5160089,
    "distance_to_mu": "21.5 กม."
  },
  {
    "place_id": "ChIJT3ZIxqGY4jARMz71P10uzJc",
    "mu_place": "วิหารพระพุทธชินราชมงคลปราการ",
    "name": "ร้านอาหารแต้จิ๋ว",
    "rating": 4.2,
    "address": "MGV5+C7X ซอยแฉล้มนิมิตร แขวงบางโคล่ เขตบางคอแหลม",
    "lat": 13.6936123,
    "lng": 100.5082329,
    "distance_to_mu": "20.3 กม."
  },
  {
    "place_id": "ChIJuamMWfCf4jARprWn9A3Cvhc",
    "mu_place": "วิหารพระพุทธชินราชมงคลปราการ",
    "name": "แสนอร่อยโภชนา",
    "rating": 4.3,
    "address": "Soi Bangna 48, บางนาใต้ เขตบางนา",
    "lat": 13.6643772,
    "lng": 100.6427948,
    "distance_to_mu": "11.1 กม."
  },
  {
    "place_id": "ChIJAZoRFk-f4jARWjaun3lXx4E",
    "mu_place": "วิหารพระพุทธชินราชมงคลปราการ",
    "name": "ร้านอาหารเรือนทอง",
    "rating": 4.2,
    "address": "222 ซอย 30 แขวง เมือง เขตยานนาวา",
    "lat": 13.6955993,
    "lng": 100.5458147,
    "distance_to_mu": "14.9 กม."
  },
  {
    "place_id": "ChIJ1dOFvX8q_TARWEk4QDUtUDs",
    "mu_place": "ท้าวเวสสุวรรณ วัดจุฬามณี",
    "name": "ร้านอาหารคุณจ๋า",
    "rating": 4.4,
    "address": "8W23+FFC ตำบล ยี่สาร อำเภออัมพวา",
    "lat": 13.3012316,
    "lng": 99.90357910000002,
    "distance_to_mu": "21.2 กม."
  },
  {
    "place_id": "ChIJLTgDwQ_U4jARnIxgHrHbcXg",
    "mu_place": "ท้าวเวสสุวรรณ วัดจุฬามณี",
    "name": "ร้านอาหารครัวแม่อุไร",
    "rating": 4.4,
    "address": "84 4 ตำบล บ้านปรก อำเภอเมืองสมุทรสงคราม",
    "lat": 13.410067,
    "lng": 99.9773857,
    "distance_to_mu": "5.7 กม."
  },
  {
    "place_id": "ChIJ8QEp8dzZ4jAR91a2M20ZT3M",
    "mu_place": "ท้าวเวสสุวรรณ วัดจุฬามณี",
    "name": "ร้านอาหารเพื่อคุณดำเนินสะดวก",
    "rating": 4.4,
    "address": "60 หมู่3 ตำบล ท่านัด อำเภอดำเนินสะดวก",
    "lat": 13.5491599,
    "lng": 99.96145039999999,
    "distance_to_mu": "17.3 กม."
  },
  {
    "place_id": "ChIJC-FkCIHU4jARB__5oYXpYwQ",
    "mu_place": "ท้าวเวสสุวรรณ วัดจุฬามณี",
    "name": "ร้านแดงอาหารทะเล (เจ้าเก่า)",
    "rating": 4.3,
    "address": "40/25 ถนน ราษฎร์ประสิทธิ์ ตำบล แม่กลอง อำเภอเมืองสมุทรสงคราม",
    "lat": 13.3879712,
    "lng": 99.98819089999999,
    "distance_to_mu": "11.2 กม."
  },
  {
    "place_id": "ChIJsVehgfrT4jAR1HN7ES091sU",
    "mu_place": "ท้าวเวสสุวรรณ วัดจุฬามณี",
    "name": "ร้านอาหารคุ้มพี่หลวง",
    "rating": 4.2,
    "address": "56 2 ตำบล ลาดใหญ่ เมือง",
    "lat": 13.4255093,
    "lng": 99.999826,
    "distance_to_mu": "6.2 กม."
  },
  {
    "place_id": "ChIJi2-Ia37U4jARgFygNxfel00",
    "mu_place": "ท้าวเวสสุวรรณ วัดจุฬามณี",
    "name": "ร้านอาหารริมน้ำ",
    "rating": 4.3,
    "address": "9XVP+8M4 ตำบล แม่กลอง อำเภอเมืองสมุทรสงคราม",
    "lat": 13.3932627,
    "lng": 99.9866735,
    "distance_to_mu": "9.6 กม."
  },
  {
    "place_id": "ChIJiecAXzDU4jAR-UN10UIDZFE",
    "mu_place": "ท้าวเวสสุวรรณ วัดจุฬามณี",
    "name": "ร้านอาหารเจ้าสำราญ",
    "rating": 4.1,
    "address": "14 ถนน พวงสมบูรณ์ ตำบล อัมพวา อำเภออัมพวา",
    "lat": 13.4242667,
    "lng": 99.9560813,
    "distance_to_mu": "1.8 กม."
  },
  {
    "place_id": "ChIJyQFA1yLT4jARZ9-3U8RJNA4",
    "mu_place": "ท้าวเวสสุวรรณ วัดจุฬามณี",
    "name": "ร้านอาหารเคียงทะเล",
    "rating": 4,
    "address": "ตำบล บางจะเกร็ง อำเภอเมืองสมุทรสงคราม",
    "lat": 13.3644664,
    "lng": 100.0256221,
    "distance_to_mu": "16.3 กม."
  },
  {
    "place_id": "ChIJYZiViobU4jAR-0snEaLBcdg",
    "mu_place": "ท้าวเวสสุวรรณ วัดจุฬามณี",
    "name": "ร้านอาหารเรือนวารี",
    "rating": 4.2,
    "address": "153 2 ตำบล แม่กลอง อำเภอเมือง",
    "lat": 13.3871166,
    "lng": 99.9835284,
    "distance_to_mu": "10.0 กม."
  },
  {
    "place_id": "ChIJC-nbiEfO4jARj8IU98QjyOs",
    "mu_place": "ท้าวเวสสุวรรณ วัดจุฬามณี",
    "name": "ร้านอาหารลูกปลา",
    "rating": 4,
    "address": "F473+W8Q ตำบล นาโคก อำเภอเมืองสมุทรสาคร",
    "lat": 13.4649102,
    "lng": 100.1033334,
    "distance_to_mu": "21.0 กม."
  },
  {
    "place_id": "ChIJxegjdV7X4jAR7VupWqE3OmA",
    "mu_place": "ท้าวเวสสุวรรณ วัดจุฬามณี",
    "name": "ร้านอาหารขวัญดำเนิน (แยกไฟแดง)Kwan Damnoen (original).",
    "rating": 4.2,
    "address": "33 หมู่ 9 ถนนแม่กลอง-บางแพ แยกทางเข้าตลาดน้ำดำเนินสะดวก ตำบล ดำเนินสะดวก อำเภอดำเนินสะดวก",
    "lat": 13.5236941,
    "lng": 99.97038590000001,
    "distance_to_mu": "13.8 กม."
  },
  {
    "place_id": "ChIJccCAe_zZ4jAROszl6zFLz8U",
    "mu_place": "ท้าวเวสสุวรรณ วัดจุฬามณี",
    "name": "ร้านอาหารขวัญดำเนิน 2",
    "rating": 4.1,
    "address": "311 ม .7 ตำบล ศรีสุราษฎร์ อำเภอดำเนินสะดวก",
    "lat": 13.5275124,
    "lng": 99.9790203,
    "distance_to_mu": "16.5 กม."
  },
  {
    "place_id": "ChIJqwdE3t8q4zARRO4b1iZKZ_Q",
    "mu_place": "ท้าวเวสสุวรรณ วัดจุฬามณี",
    "name": "ร้านอาหารสวนมะลิ",
    "rating": 4.2,
    "address": "9VF5+9FR ตำบล ปากท่อ อำเภอปากท่อ",
    "lat": 13.373495,
    "lng": 99.85864839999999,
    "distance_to_mu": "15.7 กม."
  },
  {
    "place_id": "ChIJITcdc43a4jARUEGF7HJygCY",
    "mu_place": "ท้าวเวสสุวรรณ วัดจุฬามณี",
    "name": "ร้านอาหารเลิศรส ระเบียงไม้",
    "rating": 3.8,
    "address": "ตำบล โรงเข้ อำเภอบ้านแพ้ว",
    "lat": 13.5468125,
    "lng": 100.0460625,
    "distance_to_mu": "24.7 กม."
  },
  {
    "place_id": "ChIJ6d2Oex7T4jARBBJTd2-nJbg",
    "mu_place": "ท้าวเวสสุวรรณ วัดจุฬามณี",
    "name": "ร้านอาหารกบศรีฟ้า",
    "rating": 4.9,
    "address": "ตำบล บางจะเกร็ง อำเภอเมืองสมุทรสงคราม",
    "lat": 13.3720899,
    "lng": 100.0335537,
    "distance_to_mu": "16.6 กม."
  },
  {
    "place_id": "ChIJVbiC3__U4jARszZMjWN8SiA",
    "mu_place": "ท้าวเวสสุวรรณ วัดจุฬามณี",
    "name": "ร้านอาหารเพื่อน",
    "rating": 4.2,
    "address": "115/15 หมู่ 4 ต. บางขันแตก อ ตำบล บางขันแตก อำเภอเมืองสมุทรสงคราม",
    "lat": 13.3914761,
    "lng": 99.9466382,
    "distance_to_mu": "6.5 กม."
  },
  {
    "place_id": "ChIJqRwdgjvU4jARFJcjyLUeT5A",
    "mu_place": "ท้าวเวสสุวรรณ วัดจุฬามณี",
    "name": "คุ้มแสงทอง ร้านอาหาร",
    "rating": 4.3,
    "address": "ตำบล คลองเขิน อำเภอเมืองสมุทรสงคราม",
    "lat": 13.4340864,
    "lng": 99.9751034,
    "distance_to_mu": "2.4 กม."
  },
  {
    "place_id": "ChIJGUl1Yh7T4jARgeu7btXs_FQ",
    "mu_place": "ท้าวเวสสุวรรณ วัดจุฬามณี",
    "name": "ร้านอาหารครัวคุณสา",
    "rating": 4.7,
    "address": "ตำบล บางจะเกร็ง อำเภอเมืองสมุทรสงคราม",
    "lat": 13.3715821,
    "lng": 100.0331736,
    "distance_to_mu": "16.6 กม."
  },
  {
    "place_id": "ChIJ_____4vT4jARioJKE4dJ_II",
    "mu_place": "ท้าวเวสสุวรรณ วัดจุฬามณี",
    "name": "ร้านอาหารบ้านขุนทวี",
    "rating": 4.6,
    "address": "1286 ถนนปทุมมาลัย ตำบล แม่กลอง เมือง",
    "lat": 13.4109754,
    "lng": 99.99602329999999,
    "distance_to_mu": "8.0 กม."
  },
  {
    "place_id": "ChIJWwuHiKEo4zARSmGBUcWuAAc",
    "mu_place": "ท้าวเวสสุวรรณ วัดจุฬามณี",
    "name": "ร้านอาหารครัวลูกหมู.",
    "rating": 4.4,
    "address": "เลขที่ 351/1 หมู่ 2 ซอย 351/1 ถนน 351/1 บ้านไร่ อำเภอเมืองราชบุรี",
    "lat": 13.5291223,
    "lng": 99.8326969,
    "distance_to_mu": "26.5 กม."
  },
  {
    "place_id": "ChIJL58PfRTcHDERzU0OD2PZ4LM",
    "mu_place": "หลวงพ่อปลดหนี้ วัดห้วยน้ำทรัพย์ หรือ วัดพระธาตุวาโย",
    "name": "ร้านอาหารบ้านปรุงแต่ง",
    "rating": 4.8,
    "address": "HFF3+PF7 ตำบล ลาดกระทิง อำเภอสนามชัยเขต",
    "lat": 13.5742833,
    "lng": 101.4536621,
    "distance_to_mu": "5.6 กม."
  },
  {
    "place_id": "ChIJ_-Joc4kgHTERRqlKtmJVGDM",
    "mu_place": "หลวงพ่อปลดหนี้ วัดห้วยน้ำทรัพย์ หรือ วัดพระธาตุวาโย",
    "name": "ร้านอาหารป่า",
    "rating": 4.3,
    "address": "J83G+VXR ซอย เกตเวย์ซิตี้ใต้ ตำบล หัวสำโรง อำเภอแปลงยาว",
    "lat": 13.6047459,
    "lng": 101.3274032,
    "distance_to_mu": "18.9 กม."
  },
  {
    "place_id": "ChIJ97hQgwcgHTERjkpgYVB9IQI",
    "mu_place": "หลวงพ่อปลดหนี้ วัดห้วยน้ำทรัพย์ หรือ วัดพระธาตุวาโย",
    "name": "ครัวลุงเปีย",
    "rating": 4.1,
    "address": "50 ตำบล หนองแหน อำเภอพนมสารคาม",
    "lat": 13.6448044,
    "lng": 101.3423707,
    "distance_to_mu": "20.8 กม."
  },
  {
    "place_id": "ChIJh66QzhTcHDERBraXXmqa9bI",
    "mu_place": "หลวงพ่อปลดหนี้ วัดห้วยน้ำทรัพย์ หรือ วัดพระธาตุวาโย",
    "name": "ครัวสวนป่าสัก",
    "rating": 4.3,
    "address": "HFG4+5FX ตำบล ลาดกระทิง อำเภอสนามชัยเขต",
    "lat": 13.5755135,
    "lng": 101.4562783,
    "distance_to_mu": "5.9 กม."
  },
  {
    "place_id": "ChIJM1dLWmPhHDER1H1M7AQ0zZg",
    "mu_place": "หลวงพ่อปลดหนี้ วัดห้วยน้ำทรัพย์ หรือ วัดพระธาตุวาโย",
    "name": "ร้านบ้านห้วยพลู",
    "rating": 4.5,
    "address": "MCF2+8GW ฉช.3017 ตำบล เกาะขนุน อำเภอพนมสารคาม",
    "lat": 13.6733591,
    "lng": 101.401344,
    "distance_to_mu": "13.6 กม."
  },
  {
    "place_id": "ChIJM_ZygSPcHDERMqTFE8fy3pg",
    "mu_place": "หลวงพ่อปลดหนี้ วัดห้วยน้ำทรัพย์ หรือ วัดพระธาตุวาโย",
    "name": "ร้านเยาวมาลย์ชวนชิม",
    "rating": 4.1,
    "address": "HCPR+5V5 ตำบล ลาดกระทิง อำเภอสนามชัยเขต",
    "lat": 13.5853872,
    "lng": 101.442238,
    "distance_to_mu": "3.5 กม."
  },
  {
    "place_id": "ChIJp3rME14hHTERR3347uSs0UU",
    "mu_place": "หลวงพ่อปลดหนี้ วัดห้วยน้ำทรัพย์ หรือ วัดพระธาตุวาโย",
    "name": "ผัดไทยบ้านสวน",
    "rating": 4.4,
    "address": "ฉช.3015 ตำบล แปลงยาว อำเภอแปลงยาว",
    "lat": 13.5896729,
    "lng": 101.3003278,
    "distance_to_mu": "17.0 กม."
  },
  {
    "place_id": "ChIJk2yb5CjnHDERRkiYIziFluQ",
    "mu_place": "หลวงพ่อปลดหนี้ วัดห้วยน้ำทรัพย์ หรือ วัดพระธาตุวาโย",
    "name": "ครัวอิ่มจุก!!",
    "rating": 4.6,
    "address": "MF43+W6M ถนน องค์การบริหารส่วนจังหวัด ตำบล คู้ยายหมี อำเภอสนามชัยเขต",
    "lat": 13.6573424,
    "lng": 101.453062,
    "distance_to_mu": "13.0 กม."
  },
  {
    "place_id": "ChIJ1xdmNyEhHTER2vvSgPbxF50",
    "mu_place": "หลวงพ่อปลดหนี้ วัดห้วยน้ำทรัพย์ หรือ วัดพระธาตุวาโย",
    "name": "สวนแซบ!!!กัน",
    "rating": 4.2,
    "address": "J886+Q9J 331 ตำบล หัวสำโรง อำเภอแปลงยาว",
    "lat": 13.6169736,
    "lng": 101.3108695,
    "distance_to_mu": "18.1 กม."
  },
  {
    "place_id": "ChIJBV-2HUHdHDERtshZWlsaS0w",
    "mu_place": "หลวงพ่อปลดหนี้ วัดห้วยน้ำทรัพย์ หรือ วัดพระธาตุวาโย",
    "name": "ร้านคำถามโภชนา",
    "rating": 4.3,
    "address": "3259 ตำบล ลาดกระทิง อำเภอสนามชัยเขต",
    "lat": 13.5845069,
    "lng": 101.4427185,
    "distance_to_mu": "3.6 กม."
  },
  {
    "place_id": "ChIJTfa6DCchHTER5OW_wUdQ6rM",
    "mu_place": "หลวงพ่อปลดหนี้ วัดห้วยน้ำทรัพย์ หรือ วัดพระธาตุวาโย",
    "name": "ร้านเจ๊แว๋ว -อาหารอีสาน / อาหารตามสั่ง",
    "rating": 0,
    "address": "35 1 ตำบล เกาะขนุน อำเภอแปลงยาว",
    "lat": 13.593693,
    "lng": 101.289934,
    "distance_to_mu": "19.5 กม."
  },
  {
    "place_id": "ChIJK2UB2lYfHTER0uu_64pvrMk",
    "mu_place": "หลวงพ่อปลดหนี้ วัดห้วยน้ำทรัพย์ หรือ วัดพระธาตุวาโย",
    "name": "ร้านปลุกตำนาน",
    "rating": 4.7,
    "address": "116 1 Nong Nae อำเภอพนมสารคาม",
    "lat": 13.6855135,
    "lng": 101.3270046,
    "distance_to_mu": "26.4 กม."
  },
  {
    "place_id": "ChIJC8I2zdAnHTERYbc-4hjwvvI",
    "mu_place": "หลวงพ่อปลดหนี้ วัดห้วยน้ำทรัพย์ หรือ วัดพระธาตุวาโย",
    "name": "ร้านอาหารเจ้ใย",
    "rating": 4.4,
    "address": "10, ตำบลหนองเหียง อำเภอพนัสนิคม",
    "lat": 13.478023,
    "lng": 101.3071146,
    "distance_to_mu": "22.0 กม."
  },
  {
    "place_id": "ChIJ64tDsi8hHTERdLPSva-GUCo",
    "mu_place": "หลวงพ่อปลดหนี้ วัดห้วยน้ำทรัพย์ หรือ วัดพระธาตุวาโย",
    "name": "ร้านพิเศษนะ",
    "rating": 4.2,
    "address": "ถนน เทศบาล 3 ตำบล หัวสำโรง อำเภอแปลงยาว",
    "lat": 13.6308083,
    "lng": 101.2893286,
    "distance_to_mu": "24.9 กม."
  },
  {
    "place_id": "ChIJa-T3x1cgHTERkpnRJsvj0iQ",
    "mu_place": "หลวงพ่อปลดหนี้ วัดห้วยน้ำทรัพย์ หรือ วัดพระธาตุวาโย",
    "name": "ร้านตำปูม้า ไก่ย่างวิเชียรบุรีลุงวัน",
    "rating": 3.9,
    "address": "331 ตำบล หัวสำโรง อำเภอแปลงยาว",
    "lat": 13.6103449,
    "lng": 101.3069464,
    "distance_to_mu": "19.0 กม."
  },
  {
    "place_id": "ChIJp0ebsp7ZHDERuZcUhXzERTw",
    "mu_place": "หลวงพ่อปลดหนี้ วัดห้วยน้ำทรัพย์ หรือ วัดพระธาตุวาโย",
    "name": "ครัวสมศักดิ์ ข้าวต้มฟรี อาหารตามสั่ง",
    "rating": 4,
    "address": "GCP9+5Q2, 3245, ตำบล หนองไม้แก่น อำเภอแปลงยาว",
    "lat": 13.5353933,
    "lng": 101.4193813,
    "distance_to_mu": "6.2 กม."
  },
  {
    "place_id": "ChIJgdKEyh0hHTER2HyHg-01Moc",
    "mu_place": "หลวงพ่อปลดหนี้ วัดห้วยน้ำทรัพย์ หรือ วัดพระธาตุวาโย",
    "name": "ร้านอาหารเหมือนฝัน",
    "rating": 4,
    "address": "ตำบล แปลงยาว อำเภอแปลงยาว",
    "lat": 13.5937039,
    "lng": 101.2948297,
    "distance_to_mu": "19.0 กม."
  },
  {
    "place_id": "ChIJm2rJAVbnHDERTNMURQK4VTU",
    "mu_place": "หลวงพ่อปลดหนี้ วัดห้วยน้ำทรัพย์ หรือ วัดพระธาตุวาโย",
    "name": "ไก่มะระรสเด็ด ไก่มะระในตำนาน",
    "rating": 4.9,
    "address": "JCXQ+HJJ ตำบล คู้ยายหมี อำเภอสนามชัยเขต",
    "lat": 13.6489728,
    "lng": 101.4389613,
    "distance_to_mu": "11.3 กม."
  },
  {
    "place_id": "ChIJFybV5B0hHTER1SefSqHq1H8",
    "mu_place": "หลวงพ่อปลดหนี้ วัดห้วยน้ำทรัพย์ หรือ วัดพระธาตุวาโย",
    "name": "ร้านอาหารรจนา",
    "rating": 3.9,
    "address": "H7VW+4RJ ตำบล แปลงยาว อำเภอแปลงยาว",
    "lat": 13.5928255,
    "lng": 101.2970204,
    "distance_to_mu": "19.1 กม."
  },
  {
    "place_id": "ChIJnTXdTw8gHTER1NIzI7K6fs0",
    "mu_place": "หลวงพ่อปลดหนี้ วัดห้วยน้ำทรัพย์ หรือ วัดพระธาตุวาโย",
    "name": "ครัวพักรถ",
    "rating": 4.2,
    "address": "J8RP+9PX ตำบล หนองแหน อำเภอพนมสารคาม",
    "lat": 13.6410143,
    "lng": 101.3368313,
    "distance_to_mu": "20.4 กม."
  },
  {
    "place_id": "ChIJk9235fWc4jAR4YEKKmE2FOM",
    "mu_place": "วัดสายไหม",
    "name": "ร้านอาหารเพลิน",
    "rating": 4.2,
    "address": "7/428 ถนน วิภาวดีรังสิต แขวงจตุจักร เขตจตุจักร",
    "lat": 13.8259653,
    "lng": 100.5571122,
    "distance_to_mu": "26.9 กม."
  },
  {
    "place_id": "ChIJqWjUhxhjHTERvLE4dV2xW5k",
    "mu_place": "วัดสายไหม",
    "name": "ร้านอาหารหลานโกฮับ",
    "rating": 4.1,
    "address": "RMVF+369 ถนนวงแหวนรอบนอกตะวันออก แขวงคันนายาว เขตคันนายาว",
    "lat": 13.8426082,
    "lng": 100.6731185,
    "distance_to_mu": "16.5 กม."
  },
  {
    "place_id": "ChIJFQ484M2A4jARTjP9FnarsRY",
    "mu_place": "วัดสายไหม",
    "name": "ร้านอาหารแม่น้ำ ปทุมธานี",
    "rating": 4.9,
    "address": "อาคารเรือนแพขาว ตำบล บางปรอก อำเภอเมืองปทุมธานี",
    "lat": 14.0218199,
    "lng": 100.5352053,
    "distance_to_mu": "25.7 กม."
  },
  {
    "place_id": "ChIJ0Xmx3Kqd4jARQrrEXYSzyXU",
    "mu_place": "วัดสายไหม",
    "name": "ร้านอาหารไก่ย่างเสือใหญ่",
    "rating": 4.1,
    "address": "16 7-16/8 ซอย เสือใหญ่อุทิศ แขวงจันทรเกษม เขตจตุจักร",
    "lat": 13.8219169,
    "lng": 100.5756534,
    "distance_to_mu": "17.7 กม."
  },
  {
    "place_id": "ChIJz8s7VqJ9HTERQMhB7MptPgs",
    "mu_place": "วัดสายไหม",
    "name": "ร้านอาหาร ครัวสายไหม",
    "rating": 4.2,
    "address": "6/31 ซอย สายไหม 32 ถนน สายไหม แขวงสายไหม เขตสายไหม",
    "lat": 13.9212257,
    "lng": 100.644538,
    "distance_to_mu": "2.9 กม."
  },
  {
    "place_id": "ChIJ3_TlgSGd4jARgSPP33Bp0ys",
    "mu_place": "วัดสายไหม",
    "name": "ร้านอาหารครูสายฐิพย์",
    "rating": 4.6,
    "address": "ถ. นาคนิวาส แขวงลาดพร้าว เขตวังทองหลาง",
    "lat": 13.7991841,
    "lng": 100.6068698,
    "distance_to_mu": "29.2 กม."
  },
  {
    "place_id": "ChIJOUFbKF-c4jARkkWxbaFRA90",
    "mu_place": "วัดสายไหม",
    "name": "บ้านตา-ยาย ร้านอาหารไทย",
    "rating": 4.4,
    "address": "10 ซอย วิภาวดีรังสิต 13 แขวงจตุจักร เขตจตุจักร",
    "lat": 13.8222788,
    "lng": 100.557107,
    "distance_to_mu": "26.4 กม."
  },
  {
    "place_id": "ChIJgbGtNJOc4jAR7sdFCNyNwo4",
    "mu_place": "วัดสายไหม",
    "name": "ร้านอาหารประพักตร์",
    "rating": 4.3,
    "address": "89/165 ถนน เทศบาลสงเคราะห์ แขวงลาดยาว เขตจตุจักร",
    "lat": 13.8406963,
    "lng": 100.552399,
    "distance_to_mu": "26.2 กม."
  },
  {
    "place_id": "ChIJDTNzYE2AHTERU9Zho4i66OY",
    "mu_place": "วัดสายไหม",
    "name": "กังตงย้ง ร้านอาหาร",
    "rating": 4.2,
    "address": "12120 ถนน พหลโยธิน 54 1 ตำบล คลองสาม อำเภอคลองหลวง",
    "lat": 14.0232524,
    "lng": 100.6632695,
    "distance_to_mu": "11.5 กม."
  },
  {
    "place_id": "ChIJcSW9fraC4jARodF3VSZ947I",
    "mu_place": "วัดสายไหม",
    "name": "ร้านอาหารไทยอีสานโภชนา",
    "rating": 4.2,
    "address": "44/243-244 1 แขวงอนุสาวรีย์ เขตบางเขน",
    "lat": 13.8748569,
    "lng": 100.5997344,
    "distance_to_mu": "10.6 กม."
  },
  {
    "place_id": "ChIJWx9vkOOc4jARx1vnYY1cplg",
    "mu_place": "วัดสายไหม",
    "name": "ร้านอาหารคุณอี้ด",
    "rating": 3.8,
    "address": "23, 8 ซอย งามวงศ์วาน 54 แยก 1 แขวงลาดยาว เขตจตุจักร",
    "lat": 13.83962,
    "lng": 100.569853,
    "distance_to_mu": "15.8 กม."
  },
  {
    "place_id": "ChIJK5ztGmJ4HTERN16Mx_u9bFE",
    "mu_place": "วัดสายไหม",
    "name": "ร้านอาหารตามสั่งริมคลอง",
    "rating": 4.5,
    "address": "2QH4+C7P อำเภอธัญบุรี",
    "lat": 14.0285712,
    "lng": 100.7557236,
    "distance_to_mu": "20.5 กม."
  },
  {
    "place_id": "ChIJTVxXgCB-HTERUwfxFi20BIw",
    "mu_place": "วัดสายไหม",
    "name": "ร้านอาหารครัวคุณไก่",
    "rating": 4.3,
    "address": "เลขที่ 489-491 อำเภอธัญบุรี",
    "lat": 13.9897632,
    "lng": 100.6398132,
    "distance_to_mu": "10.6 กม."
  },
  {
    "place_id": "ChIJS5VwtWp9HTERNi3bTArPmB0",
    "mu_place": "วัดสายไหม",
    "name": "ร้านอาหารเซย์ไฮ",
    "rating": 4.3,
    "address": "28/76 ถ. วัชรพล แขวงคลองถนน เขตสายไหม",
    "lat": 13.8914589,
    "lng": 100.6418498,
    "distance_to_mu": "6.5 กม."
  },
  {
    "place_id": "ChIJxfSFoAh9HTERzQDvdVf7LlM",
    "mu_place": "วัดสายไหม",
    "name": "ร้านอาหารไพโรจน์(ใต้ถุนบ้าน)",
    "rating": 4.3,
    "address": "WJJP+6RM แขวงสายไหม เขตสายไหม",
    "lat": 13.9306021,
    "lng": 100.6370651,
    "distance_to_mu": "2.6 กม."
  },
  {
    "place_id": "ChIJR1DKcgOd4jARlgjqE4uRwF8",
    "mu_place": "วัดสายไหม",
    "name": "ร้านอาหารข้าวใหม่",
    "rating": 4.6,
    "address": "RHMH+3CX แขวงจันทรเกษม เขตจตุจักร",
    "lat": 13.8327455,
    "lng": 100.578617,
    "distance_to_mu": "16.7 กม."
  },
  {
    "place_id": "ChIJV755YpCc4jARD8GcCjfpnmw",
    "mu_place": "วัดสายไหม",
    "name": "ร้านอาหารบ้านไอซ์ ประชาชื่น",
    "rating": 4.3,
    "address": "99/203 ถนน เทศบาลสงเคราะห์ แขวงลาดยาว เขตจตุจักร",
    "lat": 13.8401977,
    "lng": 100.5486759,
    "distance_to_mu": "21.4 กม."
  },
  {
    "place_id": "ChIJ__-7bad_HTERKQZ2LfH_N4A",
    "mu_place": "วัดสายไหม",
    "name": "ร้านอาหารโอมออม OHM AOM",
    "rating": 4,
    "address": "ร้านวิเชียรเคหะภัณฑ์ ตำบล คลองสาม อำเภอคลองหลวง",
    "lat": 14.0186076,
    "lng": 100.6635905,
    "distance_to_mu": "11.0 กม."
  },
  {
    "place_id": "ChIJY31prqKd4jARgM8w7Bfz33M",
    "mu_place": "วัดสายไหม",
    "name": "บ้านยาย",
    "rating": 4.5,
    "address": "1 ถ. โชคชัย 4 แขวงลาดพร้าว เขตลาดพร้าว",
    "lat": 13.812394,
    "lng": 100.5963526,
    "distance_to_mu": "19.8 กม."
  },
  {
    "place_id": "ChIJWYItdk-c4jARlvE1Ch9cq80",
    "mu_place": "วัดสายไหม",
    "name": "ร้านอาหารไก่เพชร",
    "rating": 4.3,
    "address": "7 6 ซอย ลาดพร้าว 8 แยก 3 แขวงจอมพล เขตจตุจักร",
    "lat": 13.8103274,
    "lng": 100.5642949,
    "distance_to_mu": "26.6 กม."
  },
  {
    "place_id": "ChIJm5T-cHUJPDERGCXDQOhXm2w",
    "mu_place": "ลานพญาศรีสัตตนาคราช",
    "name": "ครัวริมโขง อาหารตามสั่ง",
    "rating": 5,
    "address": "CQ9H+8FW ถ. ชยางกูร ตำบล ในเมือง อำเภอเมืองนครพนม",
    "lat": 17.4183179,
    "lng": 104.7785957,
    "distance_to_mu": "2.6 กม."
  },
  {
    "place_id": "ChIJwR_Sqy0JPDER7U3Lu3cS_-0",
    "mu_place": "ลานพญาศรีสัตตนาคราช",
    "name": "ร้านอาหารสวนรุ่งเรือง",
    "rating": 3.8,
    "address": "64/2 ถ. ชยางกูร ในเมือง เมือง",
    "lat": 17.3736098,
    "lng": 104.7927629,
    "distance_to_mu": "3.2 กม."
  },
  {
    "place_id": "ChIJb-7jhUENPDERMD4QzL8IsuM",
    "mu_place": "ลานพญาศรีสัตตนาคราช",
    "name": "ร้านอาหารฮิมทาง",
    "rating": 0,
    "address": "214 ต ตำบล นาทราย อ.เมือง",
    "lat": 17.3966891,
    "lng": 104.687936,
    "distance_to_mu": "12.7 กม."
  },
  {
    "place_id": "ChIJA8dSpYULPDERYl4y6m7PwZQ",
    "mu_place": "ลานพญาศรีสัตตนาคราช",
    "name": "ร้านลาบ ก้อย ไก่ย่าง ส้มตำ",
    "rating": 5,
    "address": "CPHX+5H3 Unnamed Road ตำบล อาจสามารถ อำเภอเมืองนครพนม",
    "lat": 17.4278618,
    "lng": 104.7488612,
    "distance_to_mu": "7.7 กม."
  },
  {
    "place_id": "ChIJ-_vfZGIPPDER6gCv3-sit5k",
    "mu_place": "ลานพญาศรีสัตตนาคราช",
    "name": "ร้านอาหารชายทุ่ง",
    "rating": 3.8,
    "address": "9Q49+989 Unnamed Road ตำบล หนองญาติ อำเภอเมืองนครพนม",
    "lat": 17.3559248,
    "lng": 104.7683494,
    "distance_to_mu": "7.2 กม."
  },
  {
    "place_id": "ChIJFawCd1IJPDERoqbLrlXtXc8",
    "mu_place": "ลานพญาศรีสัตตนาคราช",
    "name": "ร้านอาหารอิ่มอร่อย สาขา2",
    "rating": 0,
    "address": "16/1 ถ. ชยางกูร ตำบล ในเมือง อำเภอเมืองนครพนม",
    "lat": 17.4221299,
    "lng": 104.7740291,
    "distance_to_mu": "3.4 กม."
  },
  {
    "place_id": "ChIJ20nj9zEJPDERYWgFctTJrAg",
    "mu_place": "ลานพญาศรีสัตตนาคราช",
    "name": "ยอดฟ้า ร้านอาหาร",
    "rating": 3.8,
    "address": "140 บำรุงเมือง ตำบล ในเมือง อำเภอเมืองนครพนม",
    "lat": 17.4033704,
    "lng": 104.7851466,
    "distance_to_mu": "1.0 กม."
  },
  {
    "place_id": "ChIJs3k9mpEJPDER56Em7t2gYKY",
    "mu_place": "ลานพญาศรีสัตตนาคราช",
    "name": "กุ๊กเจ้าเก่า ตามสั่ง",
    "rating": 4.5,
    "address": "43 Fueang Nakhon, ตำบล ในเมือง อำเภอเมืองนครพนม",
    "lat": 17.4036106,
    "lng": 104.7864192,
    "distance_to_mu": "0.8 กม."
  },
  {
    "place_id": "ChIJac1lWzAJPDEROG9MGkydmQk",
    "mu_place": "ลานพญาศรีสัตตนาคราช",
    "name": "ร้านอาหารสามเด้ง",
    "rating": 4.1,
    "address": "ที่ว่าการอำเภอเมืองนครพนม 68/2 ในเมือง อำเภอเมืองนครพนม",
    "lat": 17.4049985,
    "lng": 104.7843911,
    "distance_to_mu": "1.2 กม."
  },
  {
    "place_id": "ChIJB5Prx90JPDERNO9xhIVpmbM",
    "mu_place": "ลานพญาศรีสัตตนาคราช",
    "name": "ร้านอาหารระเบียงโขง นครพนม",
    "rating": 4.4,
    "address": "137 ถนน สุนทรวิจิตร ในเมือง เมือง",
    "lat": 17.4056697,
    "lng": 104.7869915,
    "distance_to_mu": "1.0 กม."
  },
  {
    "place_id": "ChIJ7XOQfxUJPDERw9mVVRe8ltA",
    "mu_place": "ลานพญาศรีสัตตนาคราช",
    "name": "ร้านอาหารเรือนริมน้ำ",
    "rating": 3.8,
    "address": "83 ถนน สุนทรวิจิตร ตำบล ในเมือง อำเภอเมืองนครพนม",
    "lat": 17.4188371,
    "lng": 104.7782598,
    "distance_to_mu": "2.7 กม."
  },
  {
    "place_id": "ChIJATMpLOcOPDERmleMenCrazs",
    "mu_place": "ลานพญาศรีสัตตนาคราช",
    "name": "ร้านอาหาร โกเด้นท์ คาเฟ่",
    "rating": 0,
    "address": "ตำบล ในเมือง อำเภอเมืองนครพนม",
    "lat": 17.3691685,
    "lng": 104.792593,
    "distance_to_mu": "4.4 กม."
  },
  {
    "place_id": "ChIJUfglHjAJPDERIiXES44ZBzo",
    "mu_place": "ลานพญาศรีสัตตนาคราช",
    "name": "สบายดี นครพนม",
    "rating": 4.3,
    "address": "414 6 ถนน สุนทรวิจิตร ตำบล ในเมือง อำเภอเมืองนครพนม",
    "lat": 17.4052706,
    "lng": 104.7869671,
    "distance_to_mu": "0.9 กม."
  },
  {
    "place_id": "ChIJ_dzJM9sNPDERRGzEX5WHC_k",
    "mu_place": "ลานพญาศรีสัตตนาคราช",
    "name": "ร้านเป๋นปลาเป็น",
    "rating": 4.4,
    "address": "115 หมู่ที่ 6 หมู่บ้าน อาจสามารถ ตำบล อาจสามารถ อำเภอเมืองนครพนม",
    "lat": 17.4497508,
    "lng": 104.7470192,
    "distance_to_mu": "9.1 กม."
  },
  {
    "place_id": "ChIJUQX6iD4JPDERA2T886MxZGY",
    "mu_place": "ลานพญาศรีสัตตนาคราช",
    "name": "ร้าน ชมจันทร์",
    "rating": 3.9,
    "address": "ตำบล ในเมือง อำเภอเมืองนครพนม",
    "lat": 17.4156143,
    "lng": 104.780432,
    "distance_to_mu": "2.3 กม."
  },
  {
    "place_id": "ChIJK7CzJ5ANPDERpG4sM_KTF3c",
    "mu_place": "ลานพญาศรีสัตตนาคราช",
    "name": "ครัวสบายดี",
    "rating": 3.3,
    "address": "9M98+CRR ตำบล โพธิ์ตาก อำเภอเมืองนครพนม",
    "lat": 17.3686046,
    "lng": 104.6670179,
    "distance_to_mu": "15.3 กม."
  },
  {
    "place_id": "ChIJP7o2HDAJPDERu9AocPt9Tvg",
    "mu_place": "ลานพญาศรีสัตตนาคราช",
    "name": "ร้านอาหารจำปาสัก นครพนม",
    "rating": 3.8,
    "address": "CQ4P+5PX ซอย สุนทรวิจิตร ตำบล ในเมือง อำเภอเมืองนครพนม",
    "lat": 17.4054996,
    "lng": 104.786849,
    "distance_to_mu": "1.0 กม."
  },
  {
    "place_id": "ChIJ20tuKRcRPDER4L2NiynBooQ",
    "mu_place": "ลานพญาศรีสัตตนาคราช",
    "name": "ตำยามเช้าชิวยามแลง",
    "rating": 0,
    "address": "บ้านกุดข้าวปุ้น ตำบล ขามเฒ่า อำเภอเมืองนครพนม",
    "lat": 17.2790449,
    "lng": 104.7788097,
    "distance_to_mu": "13.7 กม."
  },
  {
    "place_id": "ChIJgRHeJhIJPDERAPWHaLWRGs4",
    "mu_place": "ลานพญาศรีสัตตนาคราช",
    "name": "ร้านอาหารและเครื่องดื่ม",
    "rating": 0,
    "address": "9RW3+4QC Unnamed Road Thakhek",
    "lat": 17.3953087,
    "lng": 104.8044118,
    "distance_to_mu": "31.1 กม."
  },
  {
    "place_id": "ChIJxYTIo3IMPDERSahOCWiWBw4",
    "mu_place": "ลานพญาศรีสัตตนาคราช",
    "name": "\"ร้าน ครัวทิพย์\"",
    "rating": 0,
    "address": "9PQH+922 นพ.2011 ตำบล นาทราย อำเภอเมืองนครพนม",
    "lat": 17.3884482,
    "lng": 104.727595,
    "distance_to_mu": "9.9 กม."
  },
  {
    "place_id": "ChIJeZd3JW0g4DARDOWrsNmFtOI",
    "mu_place": "วัดธารทหาร (ห้วยด้วน) หลวงพ่อพัฒน์ ปุญญกาโม",
    "name": "ครัวจิตตมาส",
    "rating": 4.4,
    "address": "199/2 หมู่ที่ 12 ตำบล หนองกลับ อำเภอ หนองบัว",
    "lat": 15.8716583,
    "lng": 100.606175,
    "distance_to_mu": "14.7 กม."
  },
  {
    "place_id": "ChIJcaI1D3Ig4DARcApxzQ14wBk",
    "mu_place": "วัดธารทหาร (ห้วยด้วน) หลวงพ่อพัฒน์ ปุญญกาโม",
    "name": "ร้านอาหารหนุ่มสยาม",
    "rating": 4.1,
    "address": "VJ95+4GC ตำบล หนองกลับ อำเภอ หนองบัว",
    "lat": 15.8678179,
    "lng": 100.6087597,
    "distance_to_mu": "14.5 กม."
  },
  {
    "place_id": "ChIJt-N_MnIg4DARfr7EY8kTvdw",
    "mu_place": "วัดธารทหาร (ห้วยด้วน) หลวงพ่อพัฒน์ ปุญญกาโม",
    "name": "ร้านฉำฉา 2",
    "rating": 4.3,
    "address": "599/8 หมู่3 หนองกลับ อำเภอ หนองบัว",
    "lat": 15.867503,
    "lng": 100.611608,
    "distance_to_mu": "32.4 กม."
  },
  {
    "place_id": "ChIJbxGergkh4DAR4cuVYoALNco",
    "mu_place": "วัดธารทหาร (ห้วยด้วน) หลวงพ่อพัฒน์ ปุญญกาโม",
    "name": "ร้านลุงดุลย์ก๋วยเตี๋ยวไก่มะระอาหารตามสั่ง",
    "rating": 4.8,
    "address": "VH8V+CXQ ตำบล หนองกลับ อำเภอ หนองบัว",
    "lat": 15.8660813,
    "lng": 100.595004,
    "distance_to_mu": "8.8 กม."
  },
  {
    "place_id": "ChIJNUnSx00g4DAR_sTeyiy7yrc",
    "mu_place": "วัดธารทหาร (ห้วยด้วน) หลวงพ่อพัฒน์ ปุญญกาโม",
    "name": "ร้านอาหารแซบอีหลี",
    "rating": 4.3,
    "address": "VH7H+XJ6 ตำบล หนองบัว อำเภอ หนองบัว",
    "lat": 15.8649238,
    "lng": 100.5790246,
    "distance_to_mu": "7.3 กม."
  },
  {
    "place_id": "ChIJrb6NRlEg4DAR3yjRCQBl5k8",
    "mu_place": "วัดธารทหาร (ห้วยด้วน) หลวงพ่อพัฒน์ ปุญญกาโม",
    "name": "ร้านอาหาร ครัว 3อ.อ่าง",
    "rating": 3,
    "address": "VH5J+3HC 1119 ตำบล หนองบัว อำเภอ หนองบัว",
    "lat": 15.8577018,
    "lng": 100.5813789,
    "distance_to_mu": "6.3 กม."
  },
  {
    "place_id": "ChIJYb2FB-4h4DARCkQ93kRUNNY",
    "mu_place": "วัดธารทหาร (ห้วยด้วน) หลวงพ่อพัฒน์ ปุญญกาโม",
    "name": "แต้วชวนชิม",
    "rating": 4.6,
    "address": "186 ตำบล ธารทหาร อำเภอ หนองบัว",
    "lat": 15.8083822,
    "lng": 100.5498249,
    "distance_to_mu": "3.0 กม."
  },
  {
    "place_id": "ChIJrUJt3wUf4DAREYqyIBlO2Cg",
    "mu_place": "วัดธารทหาร (ห้วยด้วน) หลวงพ่อพัฒน์ ปุญญกาโม",
    "name": "ร้านคุณเอส",
    "rating": 4.5,
    "address": "WJF7+X3R ตำบล หนองกลับ อำเภอ หนองบัว",
    "lat": 15.9249788,
    "lng": 100.6126529,
    "distance_to_mu": "20.8 กม."
  },
  {
    "place_id": "ChIJ1TtVlY0h4DARzzf-k0TmeIs",
    "mu_place": "วัดธารทหาร (ห้วยด้วน) หลวงพ่อพัฒน์ ปุญญกาโม",
    "name": "ร้านอาหารพาฝัน",
    "rating": 5,
    "address": "7, ตำบล หนองบัว อำเภอ หนองบัว",
    "lat": 15.8661688,
    "lng": 100.5739868,
    "distance_to_mu": "8.1 กม."
  },
  {
    "place_id": "ChIJyzSPsTQh4DARAmg7oZb163E",
    "mu_place": "วัดธารทหาร (ห้วยด้วน) หลวงพ่อพัฒน์ ปุญญกาโม",
    "name": "แชมป์โภชนา",
    "rating": 4.6,
    "address": "259/29 ตำบล หนองกลับ อำเภอ หนองบัว",
    "lat": 15.8658376,
    "lng": 100.5900147,
    "distance_to_mu": "9.2 กม."
  },
  {
    "place_id": "ChIJDZgRVrAh4DARd5rpn8Y_qhQ",
    "mu_place": "วัดธารทหาร (ห้วยด้วน) หลวงพ่อพัฒน์ ปุญญกาโม",
    "name": "ร้านอาหารไพลิน",
    "rating": 3.7,
    "address": "VH88+C97 ตำบล หนองบัว อำเภอ หนองบัว",
    "lat": 15.8660783,
    "lng": 100.5659223,
    "distance_to_mu": "8.6 กม."
  },
  {
    "place_id": "ChIJKS8rNJMl4DARB8fq87MRl9E",
    "mu_place": "วัดธารทหาร (ห้วยด้วน) หลวงพ่อพัฒน์ ปุญญกาโม",
    "name": "ร้านอาหารFcพี่จุ๋มพริ้ง",
    "rating": 5,
    "address": "หมู่ 8 ต พนม รก อ อำเภอ ท่าตะโก",
    "lat": 15.7313019,
    "lng": 100.5067753,
    "distance_to_mu": "19.7 กม."
  },
  {
    "place_id": "ChIJpfHQDtof4DAR81Ds-8c2D_A",
    "mu_place": "วัดธารทหาร (ห้วยด้วน) หลวงพ่อพัฒน์ ปุญญกาโม",
    "name": "ครัว 888",
    "rating": 3.9,
    "address": "WJJ7+365 ตำบล หนองกลับ อำเภอ หนองบัว",
    "lat": 15.930137,
    "lng": 100.6131145,
    "distance_to_mu": "21.3 กม."
  },
  {
    "place_id": "ChIJWzF74U4g4DARlJP6qOE4gdY",
    "mu_place": "วัดธารทหาร (ห้วยด้วน) หลวงพ่อพัฒน์ ปุญญกาโม",
    "name": "ร้านข้าวต้ม เจ๊แตง",
    "rating": 4.2,
    "address": "VH8M+C8M ตำบล หนองบัว อำเภอ หนองบัว",
    "lat": 15.8660935,
    "lng": 100.5832843,
    "distance_to_mu": "7.8 กม."
  },
  {
    "place_id": "ChIJK1ZVhvAh4DARoIZu2NTWVIw",
    "mu_place": "วัดธารทหาร (ห้วยด้วน) หลวงพ่อพัฒน์ ปุญญกาโม",
    "name": "ร้านข้าวขวัญ",
    "rating": 4.8,
    "address": "หนองม่วง ตำบล หนองกลับ อำเภอ หนองบัว",
    "lat": 15.8753808,
    "lng": 100.5955345,
    "distance_to_mu": "10.9 กม."
  },
  {
    "place_id": "ChIJBxbTUzQv4DARo_vrXTxxmKA",
    "mu_place": "วัดธารทหาร (ห้วยด้วน) หลวงพ่อพัฒน์ ปุญญกาโม",
    "name": "ร้านต้นดอกเสลา หลัง พ.ว. ก๋วยเตี๋ยว อาหารตามสั่ง ส้มตำ และเครื่องดื่มอีกมากมาย",
    "rating": 4.5,
    "address": "PF43+GVP ถนน โครงการบ้านพนมรอก ตำบล พนมรอก อำเภอ ท่าตะโก",
    "lat": 15.7063385,
    "lng": 100.4546639,
    "distance_to_mu": "24.5 กม."
  },
  {
    "place_id": "ChIJg1KzpF4h4DAR6JhZaFff7t8",
    "mu_place": "วัดธารทหาร (ห้วยด้วน) หลวงพ่อพัฒน์ ปุญญกาโม",
    "name": "แวะกิน ปตท.หนองบัว",
    "rating": 4.6,
    "address": "225 ตำบล หนองบัว อำเภอ หนองบัว",
    "lat": 15.8652684,
    "lng": 100.5953833,
    "distance_to_mu": "8.5 กม."
  },
  {
    "place_id": "ChIJlUFToXAh4DARyYzH_fTxXWI",
    "mu_place": "วัดธารทหาร (ห้วยด้วน) หลวงพ่อพัฒน์ ปุญญกาโม",
    "name": "ร้านอาหารตามสั่งบ้านตารา (เกาะลอย)",
    "rating": 5,
    "address": "VH7H+4HC ตำบล หนองบัว อำเภอ หนองบัว",
    "lat": 15.8628068,
    "lng": 100.5788999,
    "distance_to_mu": "7.1 กม."
  },
  {
    "place_id": "ChIJ6XrLHukh4DARueQreJxf2Sk",
    "mu_place": "วัดธารทหาร (ห้วยด้วน) หลวงพ่อพัฒน์ ปุญญกาโม",
    "name": "ผัดไทป้าเต้",
    "rating": 4.9,
    "address": "VH6M+VW8 ตำบล หนองกลับ อำเภอ หนองบัว",
    "lat": 15.8621628,
    "lng": 100.5848189,
    "distance_to_mu": "7.3 กม."
  },
  {
    "place_id": "ChIJjX5FP0Ag4DAR1rZOMMDu-FY",
    "mu_place": "วัดธารทหาร (ห้วยด้วน) หลวงพ่อพัฒน์ ปุญญกาโม",
    "name": "ร้านป้าใส อาหารตามสั่ง",
    "rating": 5,
    "address": "VHCW+M8C ตำบล หนองกลับ อำเภอ หนองบัว",
    "lat": 15.8716935,
    "lng": 100.5957779,
    "distance_to_mu": "10.5 กม."
  },
  {
    "place_id": "ChIJJ0juw3uv4TARKsmJpEdXKyU",
    "mu_place": "หลวงพ่อฤาษีลิงดำ( พระราชพรหมยาน)",
    "name": "ร้านอาหารเพื่อน",
    "rating": 4.3,
    "address": "99 พิบูลย์ศิริ พิบูลย์ศิริ ตำบล อุทัยใหม่ อำเภอเมืองอุทัยธานี",
    "lat": 15.3751407,
    "lng": 100.0294173,
    "distance_to_mu": "7.8 กม."
  },
  {
    "place_id": "ChIJ_6WwXHqx4TARQwlgywGGu24",
    "mu_place": "หลวงพ่อฤาษีลิงดำ( พระราชพรหมยาน)",
    "name": "ร้านอาหารครัวโบราณ(พยุหคีรี)",
    "rating": 4.1,
    "address": "C4WM+57F ตำบล พยุหะ อำเภอพยุหะคีรี",
    "lat": 15.445438,
    "lng": 100.1333029,
    "distance_to_mu": "25.1 กม."
  },
  {
    "place_id": "ChIJO2ZJsvuv4TAROSo-Nm_5r4Q",
    "mu_place": "หลวงพ่อฤาษีลิงดำ( พระราชพรหมยาน)",
    "name": "ร้านอาหารป้าสำราญ",
    "rating": 4.1,
    "address": "93FC+7WP ตำบล เกาะเทโพ อำเภอเมืองอุทัยธานี",
    "lat": 15.3732038,
    "lng": 100.072303,
    "distance_to_mu": "10.0 กม."
  },
  {
    "place_id": "ChIJ3-CxQY6l4TARLNWh_hA08lc",
    "mu_place": "หลวงพ่อฤาษีลิงดำ( พระราชพรหมยาน)",
    "name": "ครัวคุณยาย ร้านอาหารริมน้ำ",
    "rating": 4.7,
    "address": "293 หมู่2, ตำบล น้ำซึม อำเภอ เมือง",
    "lat": 15.3545159,
    "lng": 100.0568518,
    "distance_to_mu": "6.2 กม."
  },
  {
    "place_id": "ChIJfX1L6OSv4TARAomkg_lenY4",
    "mu_place": "หลวงพ่อฤาษีลิงดำ( พระราชพรหมยาน)",
    "name": "ร้านอาหารน้องอุ๋ม",
    "rating": 4.2,
    "address": "93HF+C57 ตำบล เกาะเทโพ อำเภอเมืองอุทัยธานี",
    "lat": 15.3785347,
    "lng": 100.0729127,
    "distance_to_mu": "9.6 กม."
  },
  {
    "place_id": "ChIJsZgzHvuv4TARZaZFGDXErAk",
    "mu_place": "หลวงพ่อฤาษีลิงดำ( พระราชพรหมยาน)",
    "name": "ร้านอาหารสมบัติ ชวนชิม",
    "rating": 4.4,
    "address": "93GC+4XR Chao Phraya River, ตำบล เกาะเทโพ อำเภอเมืองอุทัยธานี",
    "lat": 15.3753547,
    "lng": 100.0723952,
    "distance_to_mu": "10.2 กม."
  },
  {
    "place_id": "ChIJA7DpgmOl4TARAgfEzRH2VkQ",
    "mu_place": "หลวงพ่อฤาษีลิงดำ( พระราชพรหมยาน)",
    "name": "Saeng Duan Restaurant",
    "rating": 4.3,
    "address": "9362+G27 ตำบล น้ำซึม อำเภอเมืองอุทัยธานี",
    "lat": 15.3612869,
    "lng": 100.0500476,
    "distance_to_mu": "5.1 กม."
  },
  {
    "place_id": "ChIJ-0Cak0Kj4TAR3ebQ_tdwLaw",
    "mu_place": "หลวงพ่อฤาษีลิงดำ( พระราชพรหมยาน)",
    "name": "ร้านอาหารหอมไกล",
    "rating": 3.6,
    "address": "7365+2Q9 ตำบล มะขามเฒ่า อำเภอ วัดสิงห์",
    "lat": 15.2600301,
    "lng": 100.0594633,
    "distance_to_mu": "17.3 กม."
  },
  {
    "place_id": "ChIJSwYb3KW94TARQGPPbHr4vTw",
    "mu_place": "หลวงพ่อฤาษีลิงดำ( พระราชพรหมยาน)",
    "name": "ร้านอาหารหนิง",
    "rating": 5,
    "address": "646J+7H9 ตำบล เขาท่าพระ อำเภอเมืองชัยนาท",
    "lat": 15.2106865,
    "lng": 100.1314604,
    "distance_to_mu": "19.7 กม."
  },
  {
    "place_id": "ChIJ9_KUSgGl4TARDlMZh_3Tp-Q",
    "mu_place": "หลวงพ่อฤาษีลิงดำ( พระราชพรหมยาน)",
    "name": "ร้านอาหารเรือนไม้ริมน้ำ",
    "rating": 4.2,
    "address": "187 ตำบล น้ำซึม เมือง",
    "lat": 15.3470578,
    "lng": 100.0612932,
    "distance_to_mu": "7.2 กม."
  },
  {
    "place_id": "ChIJTVI6EWmx4TARWD1JZEP9Atw",
    "mu_place": "หลวงพ่อฤาษีลิงดำ( พระราชพรหมยาน)",
    "name": "ร้านอาหารปรียนันท์",
    "rating": 4.3,
    "address": "C4QV+PJH ตำบล พยุหะ อำเภอพยุหะคีรี",
    "lat": 15.439323,
    "lng": 100.1441257,
    "distance_to_mu": "25.3 กม."
  },
  {
    "place_id": "ChIJq89JUxyx4TARxcu0UZ-Kask",
    "mu_place": "หลวงพ่อฤาษีลิงดำ( พระราชพรหมยาน)",
    "name": "ร้านอาหารครัวทิดเทือง",
    "rating": 4.2,
    "address": "2/3 หมู่ 1 ต.ท่าน้ำอ้อย อ.พยุหะคีรี",
    "lat": 15.4274496,
    "lng": 100.1379583,
    "distance_to_mu": "23.1 กม."
  },
  {
    "place_id": "ChIJAR_RUoav4TARfJ1F6srotgQ",
    "mu_place": "หลวงพ่อฤาษีลิงดำ( พระราชพรหมยาน)",
    "name": "นกน้อย สวนอาหาร",
    "rating": 4.1,
    "address": "9 4 ศรีอุทัย ตำบล อุทัยใหม่ อำเภอเมืองอุทัยธานี",
    "lat": 15.3695565,
    "lng": 100.0449475,
    "distance_to_mu": "6.3 กม."
  },
  {
    "place_id": "ChIJyQA8v3qv4TARvl6ALIkPFI8",
    "mu_place": "หลวงพ่อฤาษีลิงดำ( พระราชพรหมยาน)",
    "name": "ร้านอาหารเฟรชชี่",
    "rating": 4.2,
    "address": "92HG+48H ตำบล อุทัยใหม่ อำเภอเมืองอุทัยธานี",
    "lat": 15.3778182,
    "lng": 100.0258651,
    "distance_to_mu": "8.2 กม."
  },
  {
    "place_id": "ChIJfzAm5Myk4TAR7MESMitYBQ0",
    "mu_place": "หลวงพ่อฤาษีลิงดำ( พระราชพรหมยาน)",
    "name": "ครัวคุ้งสำเภา",
    "rating": 4.3,
    "address": "833H+QJF ตำบล ท่าซุง อำเภอเมืองอุทัยธานี",
    "lat": 15.3044369,
    "lng": 100.0790488,
    "distance_to_mu": "4.5 กม."
  },
  {
    "place_id": "ChIJf0p_o3uv4TAR5xL4KJ-ekcg",
    "mu_place": "หลวงพ่อฤาษีลิงดำ( พระราชพรหมยาน)",
    "name": "ร้านนายโต้ง อาหารปลาแม่น้ำ",
    "rating": 4.5,
    "address": "วงศาโรจน์ ตำบล อุทัยใหม่ อำเภอเมืองอุทัยธานี",
    "lat": 15.3749353,
    "lng": 100.0280773,
    "distance_to_mu": "7.8 กม."
  },
  {
    "place_id": "ChIJ1U08XHev4TAREuAXoDJYGvM",
    "mu_place": "หลวงพ่อฤาษีลิงดำ( พระราชพรหมยาน)",
    "name": "ครัวสมุย by อุษาวดี",
    "rating": 4.5,
    "address": "205 4 ตำบล อุทัยใหม่ อำเภอเมืองอุทัยธานี",
    "lat": 15.3792753,
    "lng": 100.03139,
    "distance_to_mu": "7.7 กม."
  },
  {
    "place_id": "ChIJcVVAp_y94TAReYDnk76MSys",
    "mu_place": "หลวงพ่อฤาษีลิงดำ( พระราชพรหมยาน)",
    "name": "ร้านลาบเป็ดชัยนาท",
    "rating": 4.4,
    "address": "6588+F54 ถ. พหลโยธิน ตำบล เขาท่าพระ อำเภอเมืองชัยนาท",
    "lat": 15.2161285,
    "lng": 100.1654687,
    "distance_to_mu": "25.7 กม."
  },
  {
    "place_id": "ChIJ1YXS6HGv4TARutV1rsI3pyo",
    "mu_place": "หลวงพ่อฤาษีลิงดำ( พระราชพรหมยาน)",
    "name": "ร้านอาหารบ้านบัวหลวง",
    "rating": 4.2,
    "address": "92MG+F97 ตำบล อุทัยใหม่ อำเภอเมืองอุทัยธานี",
    "lat": 15.3836696,
    "lng": 100.0259188,
    "distance_to_mu": "8.5 กม."
  },
  {
    "place_id": "ChIJp10X0Muv4TAR4YfN-Ow-R14",
    "mu_place": "หลวงพ่อฤาษีลิงดำ( พระราชพรหมยาน)",
    "name": "ร้านอาหาร สาขา 2",
    "rating": 4.7,
    "address": "94 ถนน วงศาโรจน์ ตำบล อุทัยใหม่ อำเภอเมืองอุทัยธานี",
    "lat": 15.3730088,
    "lng": 100.0356276,
    "distance_to_mu": "6.9 กม."
  },
  {
    "place_id": "ChIJsf_Q_i4IHTERyLea-pIKwNc",
    "mu_place": "พุทธสถาน จีเต็กลิ้ม",
    "name": "ร้านอาหารเตยใหญ่",
    "rating": 4.4,
    "address": "48 ม.7 ตำบล บางสมบูรณ์ อำเภอองครักษ์",
    "lat": 14.0199276,
    "lng": 101.124616,
    "distance_to_mu": "10.9 กม."
  },
  {
    "place_id": "ChIJo3Y86k2vHTERg2hNkh6UUcc",
    "mu_place": "พุทธสถาน จีเต็กลิ้ม",
    "name": "ครัวลมโชย",
    "rating": 4.1,
    "address": "ทล.3076 ตำบล ดงละคร อำเภอเมืองนครนายก",
    "lat": 14.1222029,
    "lng": 101.1743851,
    "distance_to_mu": "14.8 กม."
  },
  {
    "place_id": "ChIJRaVQueSsHTER6-JuCGP61RE",
    "mu_place": "พุทธสถาน จีเต็กลิ้ม",
    "name": "ร้านอาหารน้องนก (ฤาชาปราจีน)",
    "rating": 4.2,
    "address": "ตำบล โคกไม้ลาย อำเภอเมืองปราจีนบุรี",
    "lat": 14.1501738,
    "lng": 101.3100933,
    "distance_to_mu": "33.0 กม."
  },
  {
    "place_id": "ChIJj_4ogI8FHTERmjHMkO4HR0U",
    "mu_place": "พุทธสถาน จีเต็กลิ้ม",
    "name": "ร้านอาหารจันทรกานต์",
    "rating": 4.3,
    "address": "4 M6 National Highway No.3481 Bang Tean ตำบล บางแตน อำเภอ บ้านสร้าง",
    "lat": 13.9006519,
    "lng": 101.1702476,
    "distance_to_mu": "21.3 กม."
  },
  {
    "place_id": "ChIJWYex-DCpHTERDd7CN12K5L8",
    "mu_place": "พุทธสถาน จีเต็กลิ้ม",
    "name": "ร้านอาหารนายเต๋า",
    "rating": 0,
    "address": "25X8+57X ทางหลวงชนบท นครนายก ตำบล ศรีจุฬา อำเภอเมืองนครนายก",
    "lat": 14.0480247,
    "lng": 101.1657217,
    "distance_to_mu": "7.6 กม."
  },
  {
    "place_id": "ChIJB0-sxOcFHTERWEm8AbeIdpA",
    "mu_place": "พุทธสถาน จีเต็กลิ้ม",
    "name": "ร้านอาหารวิลาวัลย์",
    "rating": 3.9,
    "address": "W5FM+C24 ตำบล บางยาง อำเภอ บ้านสร้าง",
    "lat": 13.9235197,
    "lng": 101.1825878,
    "distance_to_mu": "18.4 กม."
  },
  {
    "place_id": "ChIJLWutMdqvHTERcOtUDKAZRmE",
    "mu_place": "พุทธสถาน จีเต็กลิ้ม",
    "name": "ร้านอาหาร สมใจ",
    "rating": 4.5,
    "address": "554P+9VC ถนน รังสิต - นครนายก ตำบล ดงละคร อำเภอเมืองนครนายก",
    "lat": 14.1559954,
    "lng": 101.1871486,
    "distance_to_mu": "18.9 กม."
  },
  {
    "place_id": "ChIJTxP452-vHTER95YPsS2VWCw",
    "mu_place": "พุทธสถาน จีเต็กลิ้ม",
    "name": "ร้านที่ตามหา",
    "rating": 4.5,
    "address": "ตำบล ดงละคร อำเภอเมืองนครนายก",
    "lat": 14.1512092,
    "lng": 101.1745051,
    "distance_to_mu": "18.6 กม."
  },
  {
    "place_id": "ChIJHXzduLujHTERmN2RQAuPhsY",
    "mu_place": "พุทธสถาน จีเต็กลิ้ม",
    "name": "ร้านเจ๊รีอาหารป่า",
    "rating": 4.3,
    "address": "เจ้รีอาหารป่า ตำบลบางอ้อ อำเภอบ้านนา",
    "lat": 14.1539709,
    "lng": 101.041095,
    "distance_to_mu": "31.5 กม."
  },
  {
    "place_id": "ChIJxclzZ_msHTER2AlB1LEcOnE",
    "mu_place": "พุทธสถาน จีเต็กลิ้ม",
    "name": "เรือนโอมารวย",
    "rating": 4.4,
    "address": "5823+32F ตำบล โคกไม้ลาย อำเภอเมืองปราจีนบุรี",
    "lat": 14.1501865,
    "lng": 101.3025364,
    "distance_to_mu": "33.8 กม."
  },
  {
    "place_id": "ChIJ81VLbsgFHTERKW8KkDEHb9U",
    "mu_place": "พุทธสถาน จีเต็กลิ้ม",
    "name": "ครัวโพธิ์โต",
    "rating": 4.5,
    "address": "W58G+JQH 3481 ตำบล บางยาง อำเภอ บ้านสร้าง",
    "lat": 13.9166064,
    "lng": 101.1769457,
    "distance_to_mu": "19.3 กม."
  },
  {
    "place_id": "ChIJTXyxW_wOHTERQJnOFmjeVIs",
    "mu_place": "พุทธสถาน จีเต็กลิ้ม",
    "name": "ร้านอาหารริมทางรถไฟ (ร้านนิซาเราะห์)",
    "rating": 4.6,
    "address": "บ้านคลอง19 อ.บางเปรี้ยว ตำบล โยธะกา อำเภอบางน้ำเปรี้ยว",
    "lat": 13.89983,
    "lng": 101.1126952,
    "distance_to_mu": "38.3 กม."
  },
  {
    "place_id": "ChIJwZpRuhQHHTERdbQm10u59tM",
    "mu_place": "พุทธสถาน จีเต็กลิ้ม",
    "name": "ร้านอาหารสมาคมชาวบ้านสร้าง",
    "rating": 3.8,
    "address": "X6XF+XXP ตำบล บ้านสร้าง อำเภอ บ้านสร้าง",
    "lat": 13.9999807,
    "lng": 101.2249606,
    "distance_to_mu": "8.0 กม."
  },
  {
    "place_id": "ChIJ67HjBqCd4jARPs1xPb1852s",
    "mu_place": "พุทธสถาน จีเต็กลิ้ม",
    "name": "แดกหน่อย อร่อยทุกอย่าง - นิใดตามสั่งและตามใจ",
    "rating": 4.7,
    "address": "50 1 นย.5032 ตำบล ดอนยอ เมือง",
    "lat": 14.1268963,
    "lng": 101.0834444,
    "distance_to_mu": "20.5 กม."
  },
  {
    "place_id": "ChIJhdB_E68HHTERkXlW1xu26vI",
    "mu_place": "พุทธสถาน จีเต็กลิ้ม",
    "name": "ครัว อุ่นใจดี",
    "rating": 4.7,
    "address": "227, ตำบล บ้านสร้าง อำเภอ บ้านสร้าง",
    "lat": 13.9996312,
    "lng": 101.2241952,
    "distance_to_mu": "7.9 กม."
  },
  {
    "place_id": "ChIJowhOC3wJHTER5wxYEj21HR8",
    "mu_place": "พุทธสถาน จีเต็กลิ้ม",
    "name": "ร้านพี่ตุ้ย ค.6 ก๋วยเตี๋ยวน้ำตก อาหารตามสั่ง",
    "rating": 3.3,
    "address": "X3HG+3JP ทางหลวงชนบท นครนายก 4009 ตำบล พระอาจารย์ อำเภอองครักษ์",
    "lat": 13.9777085,
    "lng": 101.0766053,
    "distance_to_mu": "22.1 กม."
  },
  {
    "place_id": "ChIJVQiunBQHHTERLgOxIQeJs70",
    "mu_place": "พุทธสถาน จีเต็กลิ้ม",
    "name": "ร้าน พี่กะน้อง",
    "rating": 4.9,
    "address": "2693+MHR 3076 ตำบล บ้านสร้าง อำเภอ บ้านสร้าง",
    "lat": 14.0192321,
    "lng": 101.2038938,
    "distance_to_mu": "4.6 กม."
  },
  {
    "place_id": "ChIJFWn4WcOhHTER3FRnlUomfJ4",
    "mu_place": "พุทธสถาน จีเต็กลิ้ม",
    "name": "ครัวศรีทอง",
    "rating": 4.2,
    "address": "130 ตำบล บางลูกเสือ อำเภอองครักษ์",
    "lat": 14.045688,
    "lng": 101.045313,
    "distance_to_mu": "26.8 กม."
  },
  {
    "place_id": "ChIJaY9jt3kGHTERbO6PiDu4dhk",
    "mu_place": "พุทธสถาน จีเต็กลิ้ม",
    "name": "ร้านอาหารถาวร",
    "rating": 3.4,
    "address": "W5PW+RWQ ตำบล บางยาง อำเภอ บ้านสร้าง",
    "lat": 13.9370942,
    "lng": 101.1974091,
    "distance_to_mu": "16.1 กม."
  },
  {
    "place_id": "ChIJR_UothIHHTERyCMRy5z57eQ",
    "mu_place": "พุทธสถาน จีเต็กลิ้ม",
    "name": "ร้านแม่บ๊วยก๋วยเตี๋ยวหมู",
    "rating": 4.5,
    "address": "77 7 ตำบล บ้านสร้าง อำเภอ บ้านสร้าง",
    "lat": 14.0018234,
    "lng": 101.2188568,
    "distance_to_mu": "7.2 กม."
  },
  {
    "place_id": "ChIJmbBtF4124jARUciyuVhLkaY",
    "mu_place": "ศาลาหลวงปู่ดู่",
    "name": "ร้านอาหารบ้านเคียงน้ำ",
    "rating": 4.1,
    "address": "8H48+W5V ตำบล บ้านรุน อำเภอ พระนครศรีอยุธยา",
    "lat": 14.3073613,
    "lng": 100.5654221,
    "distance_to_mu": "15.9 กม."
  },
  {
    "place_id": "ChIJlWh9_pF14jARivvEA9pvlMA",
    "mu_place": "ศาลาหลวงปู่ดู่",
    "name": "ร้านอาหารสบายสบาย",
    "rating": 4.6,
    "address": "ตำบล ธนู อำเภออุทัย",
    "lat": 14.3559375,
    "lng": 100.6081875,
    "distance_to_mu": "3.0 กม."
  },
  {
    "place_id": "ChIJASx5lYuLHTERxaiXQ2JSx1Q",
    "mu_place": "ศาลาหลวงปู่ดู่",
    "name": "ร้านอาหารต้นคูณ อุทัย",
    "rating": 4.4,
    "address": "8PX4+R6J ตำบล สามบัณฑิต อำเภออุทัย",
    "lat": 14.3495836,
    "lng": 100.7055245,
    "distance_to_mu": "10.5 กม."
  },
  {
    "place_id": "ChIJpRnlTrl14jARiu5Qad1uThg",
    "mu_place": "ศาลาหลวงปู่ดู่",
    "name": "ร้านอาหารศรีกรุง",
    "rating": 3.8,
    "address": "21/2 โรจนะ 1/2 ตำบล ไผ่ลิง อำเภอ พระนครศรีอยุธยา",
    "lat": 14.3552763,
    "lng": 100.5911076,
    "distance_to_mu": "5.2 กม."
  },
  {
    "place_id": "ChIJlxS9B-6JHTERvQ-CSyeIb2g",
    "mu_place": "ศาลาหลวงปู่ดู่",
    "name": "ร้านอาหารปทุมรัตน์101",
    "rating": 4.4,
    "address": "ร้าน อาหาร ปทุม รั น์ 101 หมู่บ้าน สิน ธิ วา ธานี ต จ อยุธยา, ตำบล สามเรือน อำเภอบางปะอิน",
    "lat": 14.3136306,
    "lng": 100.6366596,
    "distance_to_mu": "9.3 กม."
  },
  {
    "place_id": "ChIJM0IXnRN04jARClFFLis2YRQ",
    "mu_place": "ศาลาหลวงปู่ดู่",
    "name": "ร้านอาหารมองดูเรือ",
    "rating": 4,
    "address": "35 1 ถ. อู่ทอง ตำบล ประตูชัย อำเภอ พระนครศรีอยุธยา",
    "lat": 14.3496871,
    "lng": 100.5457087,
    "distance_to_mu": "10.4 กม."
  },
  {
    "place_id": "ChIJI5WhOId34jARwnQ2pcxGfBs",
    "mu_place": "ศาลาหลวงปู่ดู่",
    "name": "ร้านอาหารตายาย",
    "rating": 4.4,
    "address": "6HQJ+4F5 ตำบล บ้านเลน อำเภอบางปะอิน",
    "lat": 14.237761,
    "lng": 100.5812208,
    "distance_to_mu": "23.5 กม."
  },
  {
    "place_id": "ChIJRxZn515z4jARzmhRvlMgYAU",
    "mu_place": "ศาลาหลวงปู่ดู่",
    "name": "ร้านอาหาร ชบาบาร์น คาเฟ่",
    "rating": 4.4,
    "address": "เลขที่ 100 ตำบล บ้านป้อม อำเภอ พระนครศรีอยุธยา",
    "lat": 14.3359274,
    "lng": 100.5284841,
    "distance_to_mu": "15.2 กม."
  },
  {
    "place_id": "ChIJhR9PRFaPHTERcUceJyTNESo",
    "mu_place": "ศาลาหลวงปู่ดู่",
    "name": "ร้านอาหารเรือนแก้ว วังน้อย",
    "rating": 4.5,
    "address": "163 ตำบล ลำไทร อำเภอวังน้อย",
    "lat": 14.2322365,
    "lng": 100.717208,
    "distance_to_mu": "23.4 กม."
  },
  {
    "place_id": "ChIJzfN1xrx34jARnNg4Yb09H7o",
    "mu_place": "ศาลาหลวงปู่ดู่",
    "name": "ร้านอาหารโค้งเจ้าพระยา",
    "rating": 3.9,
    "address": "26 3477 ตำบล บ้านโพธิ์ อำเภอบางปะอิน",
    "lat": 14.2632039,
    "lng": 100.5859575,
    "distance_to_mu": "23.8 กม."
  },
  {
    "place_id": "ChIJ-____7934jAR-x8jKHkoFeA",
    "mu_place": "ศาลาหลวงปู่ดู่",
    "name": "ร้านอาหาร บ้านไม้ริมน้ำ อยุธยา",
    "rating": 4.2,
    "address": "หมู่ที่ 2, 43/1, ถ. อู่ทอง ต.ประตูชัย",
    "lat": 14.3479253,
    "lng": 100.5695847,
    "distance_to_mu": "7.7 กม."
  },
  {
    "place_id": "ChIJowTJh3124jARVCsxHd09fH0",
    "mu_place": "ศาลาหลวงปู่ดู่",
    "name": "ร้านชายนา",
    "rating": 3.9,
    "address": "8HCF+6W5 ตำบล เกาะเรียน อำเภอ พระนครศรีอยุธยา",
    "lat": 14.3205019,
    "lng": 100.5748659,
    "distance_to_mu": "9.6 กม."
  },
  {
    "place_id": "ChIJhVbBEqB04jARd3POIb-SLBM",
    "mu_place": "ศาลาหลวงปู่ดู่",
    "name": "ร้านอาหาร ระเบียงวิว อยุธยา",
    "rating": 4.2,
    "address": "52 3, ตำบล วัดตูม, อำเภอ พระนครศรีอยุธยา",
    "lat": 14.4007122,
    "lng": 100.5298859,
    "distance_to_mu": "18.3 กม."
  },
  {
    "place_id": "ChIJD1GJyMB14jARZTS15puRH8M",
    "mu_place": "ศาลาหลวงปู่ดู่",
    "name": "ร้านอาหาร บ้านพิมพ์",
    "rating": 4.2,
    "address": "8HXR+HVJ 3477 ตำบล ไผ่ลิง อำเภอ พระนครศรีอยุธยา",
    "lat": 14.3489643,
    "lng": 100.5921501,
    "distance_to_mu": "5.0 กม."
  },
  {
    "place_id": "ChIJId-Dc7Z14jARFiUOLQuuhJY",
    "mu_place": "ศาลาหลวงปู่ดู่",
    "name": "Venice Restaurant - ร้านอาหารเวนิส",
    "rating": 3.9,
    "address": "ข 28 1-3 ถ. อู่ทอง อำเภอ พระนครศรีอยุธยา",
    "lat": 14.3527471,
    "lng": 100.5806247,
    "distance_to_mu": "6.7 กม."
  },
  {
    "place_id": "ChIJNdwiW4J14jARq1ETr4Ngd3Q",
    "mu_place": "ศาลาหลวงปู่ดู่",
    "name": "ร้านอาหารกุ้งเพื่อนแพรว",
    "rating": 4.2,
    "address": "98/8 กุ้งเพื่อนแพรว ตลาดกลางฯ ถ.สายเอเชีย",
    "lat": 14.3707771,
    "lng": 100.6113967,
    "distance_to_mu": "3.5 กม."
  },
  {
    "place_id": "ChIJq6qqqg504jARTQUqNG0QQbY",
    "mu_place": "ศาลาหลวงปู่ดู่",
    "name": "ร้านอาหารอยุธยารมณ์",
    "rating": 4.2,
    "address": "1 1 ตำบล บ้านป้อม อำเภอ พระนครศรีอยุธยา",
    "lat": 14.3533326,
    "lng": 100.5461572,
    "distance_to_mu": "12.7 กม."
  },
  {
    "place_id": "ChIJGdwcTRV04jARDh1KZRb0Fiw",
    "mu_place": "ศาลาหลวงปู่ดู่",
    "name": "ร้านอาหารริมสวนนัดพบ",
    "rating": 4.3,
    "address": "200 ภูเขาทอง ซอย 5 ตำบล ประตูชัย อำเภอ พระนครศรีอยุธยา",
    "lat": 14.3523553,
    "lng": 100.5508883,
    "distance_to_mu": "9.7 กม."
  },
  {
    "place_id": "ChIJPZ7aUA514jARzApdibiKs4U",
    "mu_place": "ศาลาหลวงปู่ดู่",
    "name": "ร้านอาหารจ่าทุย",
    "rating": 4.3,
    "address": "ทางหลวงแผ่นดินหมายเลข 3053, ตำบล บ้านเกาะ อำเภอ พระนครศรีอยุธยา",
    "lat": 14.3823129,
    "lng": 100.5897773,
    "distance_to_mu": "9.0 กม."
  },
  {
    "place_id": "ChIJaZDUcbJ14jAR_Bmhs3KdQ4w",
    "mu_place": "ศาลาหลวงปู่ดู่",
    "name": "ชายน้ำ ร้านอาหาร",
    "rating": 4.5,
    "address": "ตำบลหอรัตนไชย อำเภอ พระนครศรีอยุธยา",
    "lat": 14.3377113,
    "lng": 100.579747,
    "distance_to_mu": "7.4 กม."
  },
  {
    "place_id": "ChIJk9235fWc4jAR4YEKKmE2FOM",
    "mu_place": "วัดดาวดึงษาราม",
    "name": "ร้านอาหารเพลิน",
    "rating": 4.2,
    "address": "7/428 ถนน วิภาวดีรังสิต แขวงจตุจักร เขตจตุจักร",
    "lat": 13.8259653,
    "lng": 100.5571122,
    "distance_to_mu": "17.8 กม."
  },
  {
    "place_id": "ChIJrfiORG6Z4jARSNgY2uztUlM",
    "mu_place": "วัดดาวดึงษาราม",
    "name": "กินลมชมสะพาน",
    "rating": 4.1,
    "address": "11 6 ถนนจักรพงษ์ แขวงวัดสามพระยา เขตพระนคร",
    "lat": 13.7666469,
    "lng": 100.497129,
    "distance_to_mu": "5.1 กม."
  },
  {
    "place_id": "ChIJm0_MlRqZ4jARCg5Yko0K4gI",
    "mu_place": "วัดดาวดึงษาราม",
    "name": "ร้านอาหารอายตี",
    "rating": 4.4,
    "address": "19, 1 ถนน มหรรณพ แขวงเสาชิงช้า เขตพระนคร",
    "lat": 13.7538247,
    "lng": 100.4992541,
    "distance_to_mu": "4.0 กม."
  },
  {
    "place_id": "ChIJgbGtNJOc4jAR7sdFCNyNwo4",
    "mu_place": "วัดดาวดึงษาราม",
    "name": "ร้านอาหารประพักตร์",
    "rating": 4.3,
    "address": "89/165 ถนน เทศบาลสงเคราะห์ แขวงลาดยาว เขตจตุจักร",
    "lat": 13.8406963,
    "lng": 100.552399,
    "distance_to_mu": "14.2 กม."
  },
  {
    "place_id": "ChIJE7tT7aaF4jARB70Cp0OIrb0",
    "mu_place": "วัดดาวดึงษาราม",
    "name": "ร้านอาหาร สามเสนไลฟ์ - เดอะริเวอร์",
    "rating": 4.6,
    "address": "10 36 ตำบล ไทรม้า เมือง",
    "lat": 13.8801577,
    "lng": 100.4773226,
    "distance_to_mu": "23.6 กม."
  },
  {
    "place_id": "ChIJg86wsZ-Z4jARYyyrIYV1rpw",
    "mu_place": "วัดดาวดึงษาราม",
    "name": "ร้านอาหาร ชมอรุณ",
    "rating": 4.4,
    "address": "392, 53 ถ. มหาราช แขวงพระบรมมหาราชวัง เขตพระนคร",
    "lat": 13.7439951,
    "lng": 100.491825,
    "distance_to_mu": "5.3 กม."
  },
  {
    "place_id": "ChIJUc_RMhyc4jAR8IcvuzNYixA",
    "mu_place": "วัดดาวดึงษาราม",
    "name": "ร้านอาหาร เหลา เหลา",
    "rating": 4.2,
    "address": "1271 7 ถ. พหลโยธิน แขวงพญาไท เขตพญาไท",
    "lat": 13.7820964,
    "lng": 100.5453428,
    "distance_to_mu": "11.4 กม."
  },
  {
    "place_id": "ChIJWYItdk-c4jARlvE1Ch9cq80",
    "mu_place": "วัดดาวดึงษาราม",
    "name": "ร้านอาหารไก่เพชร",
    "rating": 4.3,
    "address": "7 6 ซอย ลาดพร้าว 8 แยก 3 แขวงจอมพล เขตจตุจักร",
    "lat": 13.8103274,
    "lng": 100.5642949,
    "distance_to_mu": "17.6 กม."
  },
  {
    "place_id": "ChIJW5UOAaWb4jARnc6_WNZvTfM",
    "mu_place": "วัดดาวดึงษาราม",
    "name": "Three Mangoes บ้านไทย ชายคลอง",
    "rating": 4.2,
    "address": "76 1 ถ. นครอินทร์ ตำบล บางขนุน อำเภอบางกรวย",
    "lat": 13.8237315,
    "lng": 100.4670198,
    "distance_to_mu": "15.4 กม."
  },
  {
    "place_id": "ChIJNQOCPpaZ4jARfyYpLOOrMXw",
    "mu_place": "วัดดาวดึงษาราม",
    "name": "ร้านอาหารเลอ อัญญ์",
    "rating": 4.1,
    "address": "แขวงบางขุนศรี เขตบางกอกน้อย",
    "lat": 13.761189,
    "lng": 100.4693039,
    "distance_to_mu": "5.5 กม."
  },
  {
    "place_id": "ChIJ-ahQtSSX4jARtYv1EZbV_Q8",
    "mu_place": "วัดดาวดึงษาราม",
    "name": "Bajika Restaurant (ร้านอาหารบาจิกา)",
    "rating": 4.4,
    "address": "46/4 ถ. กาญจนาภิเษก แขวงศาลาธรรมสพน์ เขตทวีวัฒนา",
    "lat": 13.7701897,
    "lng": 100.4069093,
    "distance_to_mu": "15.1 กม."
  },
  {
    "place_id": "ChIJS_RPAX2c4jARjUYvGSkxoI0",
    "mu_place": "วัดดาวดึงษาราม",
    "name": "หมีแฟมิลี่ สาขา ประชาชื่น",
    "rating": 4.6,
    "address": "280/1 ถ. ประชาชื่น แขวงจตุจักร เขตจตุจักร",
    "lat": 13.8232274,
    "lng": 100.5384329,
    "distance_to_mu": "12.9 กม."
  },
  {
    "place_id": "ChIJJ4rjXROd4jARFPMLuoMvy18",
    "mu_place": "วัดดาวดึงษาราม",
    "name": "ร้านอาหาร ครกไม้ไทยลาว ซอยลาดปลาเค้า 24",
    "rating": 4.3,
    "address": "8 ซ. ลาดปลาเค้า 24 แขวงจรเข้บัว เขตลาดพร้าว",
    "lat": 13.8401614,
    "lng": 100.5958436,
    "distance_to_mu": "19.2 กม."
  },
  {
    "place_id": "ChIJdUb9eI2c4jARP0Oj55_KY44",
    "mu_place": "วัดดาวดึงษาราม",
    "name": "T and T Restaurant",
    "rating": 4.3,
    "address": "359 เทศบาลนิมิตใต้ ซอย 7 แขวงลาดยาว เขตจตุจักร",
    "lat": 13.8363602,
    "lng": 100.5495098,
    "distance_to_mu": "14.3 กม."
  },
  {
    "place_id": "ChIJWRrZ5Yee4jARlGVjGxm5nj8",
    "mu_place": "วัดดาวดึงษาราม",
    "name": "ป้าเรย์",
    "rating": 3.9,
    "address": "4-6-8 ถนนเทียนร่วมมิตร แขวงห้วยขวาง",
    "lat": 13.7667789,
    "lng": 100.5811614,
    "distance_to_mu": "16.3 กม."
  },
  {
    "place_id": "ChIJ232o9a-C4jAR7u_KJG7O3YI",
    "mu_place": "วัดดาวดึงษาราม",
    "name": "ร้านอาหารต้มยำหัวปลา",
    "rating": 4.4,
    "address": "ซ. พหลโยธิน 48 แขวงอนุสาวรีย์ เขตบางเขน",
    "lat": 13.8797791,
    "lng": 100.6093118,
    "distance_to_mu": "23.9 กม."
  },
  {
    "place_id": "ChIJJccSUCOi4jARUjH8oZl9g-w",
    "mu_place": "วัดดาวดึงษาราม",
    "name": "ร้านอาหารบ้านใบบัว",
    "rating": 4.3,
    "address": "13, 37 ถ. วงแหวนอุตสาหกรรม ลัดหลวง อำเภอพระประแดง",
    "lat": 13.6646477,
    "lng": 100.5233595,
    "distance_to_mu": "20.3 กม."
  },
  {
    "place_id": "ChIJq5RKzq6c4jARlzKIFFR7j4U",
    "mu_place": "วัดดาวดึงษาราม",
    "name": "ร้านอาหารแกงป่า(ลุงสง่า)",
    "rating": 4.3,
    "address": "285 162 ซ. งามวงศ์วาน 23 แยก 11 ตำบลบางเขน อำเภอเมือง",
    "lat": 13.8651608,
    "lng": 100.5355962,
    "distance_to_mu": "16.5 กม."
  },
  {
    "place_id": "ChIJZYukxiOW4jARhffYcpOMPtI",
    "mu_place": "วัดดาวดึงษาราม",
    "name": "ร้านอาหารนภาลัย",
    "rating": 4.1,
    "address": "1 ชุมชน นาคสถาพร 2 เพชรเกษม 69 แยก 6 แขวงหนองค้างพลู เขตหนองแขม",
    "lat": 13.7022973,
    "lng": 100.3760201,
    "distance_to_mu": "24.2 กม."
  },
  {
    "place_id": "ChIJaxq89xaZ4jARQtKhE1uqq9c",
    "mu_place": "วัดดาวดึงษาราม",
    "name": "ร้านเจ๊ไฝ",
    "rating": 3.8,
    "address": "327 ถ. มหาไชย แขวงสำราญราษฎร์ เขตพระนคร",
    "lat": 13.7525713,
    "lng": 100.5047993,
    "distance_to_mu": "4.8 กม."
  },
  {
    "place_id": "ChIJASx5lYuLHTERxaiXQ2JSx1Q",
    "mu_place": "วิหารหลวงพ่อสำเร็จศักดิ์สิทธิ์",
    "name": "ร้านอาหารต้นคูณ อุทัย",
    "rating": 4.4,
    "address": "8PX4+R6J ตำบล สามบัณฑิต อำเภออุทัย",
    "lat": 14.3495836,
    "lng": 100.7055245,
    "distance_to_mu": "13.4 กม."
  },
  {
    "place_id": "ChIJ5w3sY72THTER0Polofnr2eY",
    "mu_place": "วิหารหลวงพ่อสำเร็จศักดิ์สิทธิ์",
    "name": "ร้านอาหารบ้านสวนหนองแค",
    "rating": 4.3,
    "address": "116 ถ. พหลโยธิน ตำบล หนองแค อำเภอหนองแค",
    "lat": 14.3479942,
    "lng": 100.8680251,
    "distance_to_mu": "18.5 กม."
  },
  {
    "place_id": "ChIJjQupFK2UHTERyACgQdoP_J0",
    "mu_place": "วิหารหลวงพ่อสำเร็จศักดิ์สิทธิ์",
    "name": "ร้านอาหารคุณ",
    "rating": 4.2,
    "address": "55 ถ. สุวรรณศร ตำบล โคกแย้ อำเภอหนองแค",
    "lat": 14.4036298,
    "lng": 100.9001636,
    "distance_to_mu": "15.6 กม."
  },
  {
    "place_id": "ChIJDdwY1MmTHTERCLegtYgc7-g",
    "mu_place": "วิหารหลวงพ่อสำเร็จศักดิ์สิทธิ์",
    "name": "ร้านอาหารริมชล หนองแค",
    "rating": 4.1,
    "address": "2/2 ถ. พหลโยธินสายเก่า ตำบล หนองแค อำเภอหนองแค",
    "lat": 14.3384517,
    "lng": 100.8532867,
    "distance_to_mu": "9.5 กม."
  },
  {
    "place_id": "ChIJu_YbDRXpHTERMhGAW6q63IM",
    "mu_place": "วิหารหลวงพ่อสำเร็จศักดิ์สิทธิ์",
    "name": "ร้านคนเห็น",
    "rating": 4,
    "address": "ตำบล ปากเพรียว อำเภอเมืองสระบุรี",
    "lat": 14.5218629,
    "lng": 100.9144154,
    "distance_to_mu": "30.8 กม."
  },
  {
    "place_id": "ChIJMSzdnf2THTERNNjaNQu4eO4",
    "mu_place": "วิหารหลวงพ่อสำเร็จศักดิ์สิทธิ์",
    "name": "ร้านเฮือนอีสาน",
    "rating": 4.5,
    "address": "2/9 ถนนหนองปลากระดี่ อำเภอหนองแค",
    "lat": 14.3460397,
    "lng": 100.8566819,
    "distance_to_mu": "9.9 กม."
  },
  {
    "place_id": "ChIJpTnqzzF54jARVfRL6Svp7uI",
    "mu_place": "วิหารหลวงพ่อสำเร็จศักดิ์สิทธิ์",
    "name": "ร้านกับข้าวบ้านแม่ อาหารตามสั่งก๋วยเตี๋ยว",
    "rating": 5,
    "address": "50 โพสาวหาญ 4 ตำบล สามบัณฑิต อำเภออุทัย",
    "lat": 14.3439147,
    "lng": 100.7596173,
    "distance_to_mu": "8.2 กม."
  },
  {
    "place_id": "ChIJJ-97mN3zHTERih0BNyeKyEQ",
    "mu_place": "วิหารหลวงพ่อสำเร็จศักดิ์สิทธิ์",
    "name": "ร้านกินแล้วรวย",
    "rating": 5,
    "address": "FPJ9+R23 ตำบล ดอนหญ้านาง อำเภอ ภาชี",
    "lat": 14.4821394,
    "lng": 100.7175681,
    "distance_to_mu": "13.4 กม."
  },
  {
    "place_id": "ChIJc6AdQSXpHTERLDRjMjc8Y4c",
    "mu_place": "วิหารหลวงพ่อสำเร็จศักดิ์สิทธิ์",
    "name": "ร้าน สเต็กคุณเตียง",
    "rating": 4.5,
    "address": "GWH7+W6R อำเภอเมืองสระบุรี",
    "lat": 14.5298218,
    "lng": 100.9130123,
    "distance_to_mu": "27.8 กม."
  },
  {
    "place_id": "ChIJAQAAABTpHTERnJzu2foXoPE",
    "mu_place": "วิหารหลวงพ่อสำเร็จศักดิ์สิทธิ์",
    "name": "ร้านบ้านน้ำเคียงฟ้า",
    "rating": 4.2,
    "address": "สุดบรรทัด ตำบล ปากเพรียว อำเภอเมืองสระบุรี",
    "lat": 14.527157,
    "lng": 100.9311819,
    "distance_to_mu": "29.6 กม."
  },
  {
    "place_id": "ChIJue-ie8_1HTERt8fXlv2MsB0",
    "mu_place": "วิหารหลวงพ่อสำเร็จศักดิ์สิทธิ์",
    "name": "ร้านเจ๊ปู อาหารตามสั่ง",
    "rating": 4.6,
    "address": "FMV3+FHR ตำบล สามไถ อำเภอนครหลวง",
    "lat": 14.4937498,
    "lng": 100.6538921,
    "distance_to_mu": "27.9 กม."
  },
  {
    "place_id": "ChIJPcP3kg_pHTERXdVBT8u31t0",
    "mu_place": "วิหารหลวงพ่อสำเร็จศักดิ์สิทธิ์",
    "name": "ร้านจุ๋มอาหารตามสั่ง",
    "rating": 3.8,
    "address": "28, ถนนสุดบรรทัด, ตำบลปากเพรียว อำเภอเมืองสระบุรี จังหวัดสระบุรี, 18000",
    "lat": 14.5296799,
    "lng": 100.9257843,
    "distance_to_mu": "30.1 กม."
  },
  {
    "place_id": "ChIJP4bQ_BXpHTERMR8OzKopTDU",
    "mu_place": "วิหารหลวงพ่อสำเร็จศักดิ์สิทธิ์",
    "name": "ใต้เล่งฮวด ข้าวต้มปลาสระบุรี",
    "rating": 3.9,
    "address": "อำเภอเมืองสระบุรี",
    "lat": 14.5251359,
    "lng": 100.9136218,
    "distance_to_mu": "28.5 กม."
  },
  {
    "place_id": "ChIJExTsN6XsHTERHgnL907cyOc",
    "mu_place": "วิหารหลวงพ่อสำเร็จศักดิ์สิทธิ์",
    "name": "ร้านครัวใบไม้",
    "rating": 4.4,
    "address": "99/9 ห้วยขมิ้น อำเภอหนองแค",
    "lat": 14.419345,
    "lng": 100.879661,
    "distance_to_mu": "14.0 กม."
  },
  {
    "place_id": "ChIJrYA-tTjpHTERuqv2rWmAca8",
    "mu_place": "วิหารหลวงพ่อสำเร็จศักดิ์สิทธิ์",
    "name": "ร้านเจ้ปู อาหารตามสั่ง",
    "rating": 4.1,
    "address": "GW94+HW8 อำเภอเมืองสระบุรี",
    "lat": 14.518906,
    "lng": 100.9073638,
    "distance_to_mu": "27.5 กม."
  },
  {
    "place_id": "ChIJq7oWVEuSHTERNtZt1GlU1wo",
    "mu_place": "วิหารหลวงพ่อสำเร็จศักดิ์สิทธิ์",
    "name": "ร้านคุ้มอีสาน สาขา 2",
    "rating": 4.2,
    "address": "8RVV+RWH ตำบล ไผ่ต่ำ อำเภอหนองแค",
    "lat": 14.344491,
    "lng": 100.8450155,
    "distance_to_mu": "8.3 กม."
  },
  {
    "place_id": "ChIJ-bbO5AvpHTERnFaImpem3QU",
    "mu_place": "วิหารหลวงพ่อสำเร็จศักดิ์สิทธิ์",
    "name": "ร้านข้าวต้มช้อนทอง",
    "rating": 3.9,
    "address": "215 สุดบรรทัด อำเภอเมืองสระบุรี",
    "lat": 14.5240565,
    "lng": 100.9304081,
    "distance_to_mu": "28.9 กม."
  },
  {
    "place_id": "ChIJ1dR_Hor1HTERAdfdM6p5zYY",
    "mu_place": "วิหารหลวงพ่อสำเร็จศักดิ์สิทธิ์",
    "name": "ร้านอาหารโค้งตัวเอส",
    "rating": 3.8,
    "address": "14 2 พระแก้ว อำเภอ ภาชี",
    "lat": 14.4499334,
    "lng": 100.6958112,
    "distance_to_mu": "24.1 กม."
  },
  {
    "place_id": "ChIJv-GPtr7rHTERZfigufX5al8",
    "mu_place": "วิหารหลวงพ่อสำเร็จศักดิ์สิทธิ์",
    "name": "ร้านแวะที่นี่ (Waetheenee)",
    "rating": 4.1,
    "address": "51, 3 ตำบล หนองปลาไหล อำเภอเมืองสระบุรี",
    "lat": 14.4689209,
    "lng": 100.9181918,
    "distance_to_mu": "24.6 กม."
  },
  {
    "place_id": "ChIJlbGFDRLpHTERw_D2itbIIY0",
    "mu_place": "วิหารหลวงพ่อสำเร็จศักดิ์สิทธิ์",
    "name": "ร้านอินโภชนา",
    "rating": 4,
    "address": "GWFF+FC2 สุดบรรทัด ตำบล ปากเพรียว อำเภอเมืองสระบุรี",
    "lat": 14.5236483,
    "lng": 100.9235201,
    "distance_to_mu": "30.0 กม."
  },
  {
    "place_id": "ChIJlWh9_pF14jARivvEA9pvlMA",
    "mu_place": "หลวงพ่อรวย วัดตะโก",
    "name": "ร้านอาหารสบายสบาย",
    "rating": 4.6,
    "address": "ตำบล ธนู อำเภออุทัย",
    "lat": 14.3559375,
    "lng": 100.6081875,
    "distance_to_mu": "27.0 กม."
  },
  {
    "place_id": "ChIJASx5lYuLHTERxaiXQ2JSx1Q",
    "mu_place": "หลวงพ่อรวย วัดตะโก",
    "name": "ร้านอาหารต้นคูณ อุทัย",
    "rating": 4.4,
    "address": "8PX4+R6J ตำบล สามบัณฑิต อำเภออุทัย",
    "lat": 14.3495836,
    "lng": 100.7055245,
    "distance_to_mu": "22.3 กม."
  },
  {
    "place_id": "ChIJpRnlTrl14jARiu5Qad1uThg",
    "mu_place": "หลวงพ่อรวย วัดตะโก",
    "name": "ร้านอาหารศรีกรุง",
    "rating": 3.8,
    "address": "21/2 โรจนะ 1/2 ตำบล ไผ่ลิง อำเภอ พระนครศรีอยุธยา",
    "lat": 14.3552763,
    "lng": 100.5911076,
    "distance_to_mu": "29.1 กม."
  },
  {
    "place_id": "ChIJVfYJYuLvHTERCVvGeUgeTMw",
    "mu_place": "หลวงพ่อรวย วัดตะโก",
    "name": "ร้านอาหารครัวคุณติ๋ม",
    "rating": 4.3,
    "address": "HRH2+Q9H ตำบล บ้านยาง อำเภอ เสาไห้",
    "lat": 14.5794259,
    "lng": 100.8009949,
    "distance_to_mu": "19.6 กม."
  },
  {
    "place_id": "ChIJs-sJSPb1HTERPSUC4cNLNfU",
    "mu_place": "หลวงพ่อรวย วัดตะโก",
    "name": "ร้านอาหารน้องนุช",
    "rating": 4.3,
    "address": "FJWC+2F2 ตำบล แม่ลา อำเภอนครหลวง",
    "lat": 14.4949454,
    "lng": 100.6212757,
    "distance_to_mu": "18.2 กม."
  },
  {
    "place_id": "ChIJD1GJyMB14jARZTS15puRH8M",
    "mu_place": "หลวงพ่อรวย วัดตะโก",
    "name": "ร้านอาหาร บ้านพิมพ์",
    "rating": 4.2,
    "address": "8HXR+HVJ 3477 ตำบล ไผ่ลิง อำเภอ พระนครศรีอยุธยา",
    "lat": 14.3489643,
    "lng": 100.5921501,
    "distance_to_mu": "28.9 กม."
  },
  {
    "place_id": "ChIJId-Dc7Z14jARFiUOLQuuhJY",
    "mu_place": "หลวงพ่อรวย วัดตะโก",
    "name": "Venice Restaurant - ร้านอาหารเวนิส",
    "rating": 3.9,
    "address": "ข 28 1-3 ถ. อู่ทอง อำเภอ พระนครศรีอยุธยา",
    "lat": 14.3527471,
    "lng": 100.5806247,
    "distance_to_mu": "30.6 กม."
  },
  {
    "place_id": "ChIJJQOqJOPvHTERhqnY-brwy4w",
    "mu_place": "หลวงพ่อรวย วัดตะโก",
    "name": "ร้านอาหารครัวคนไท",
    "rating": 4.3,
    "address": "16/1 71/1 บ้าน ยาง, ตำบล บ้านยาง อำเภอ เสาไห้",
    "lat": 14.5812793,
    "lng": 100.8035473,
    "distance_to_mu": "19.9 กม."
  },
  {
    "place_id": "ChIJNdwiW4J14jARq1ETr4Ngd3Q",
    "mu_place": "หลวงพ่อรวย วัดตะโก",
    "name": "ร้านอาหารกุ้งเพื่อนแพรว",
    "rating": 4.2,
    "address": "98/8 กุ้งเพื่อนแพรว ตลาดกลางฯ ถ.สายเอเชีย",
    "lat": 14.3707771,
    "lng": 100.6113967,
    "distance_to_mu": "27.7 กม."
  },
  {
    "place_id": "ChIJP0VXVSjxHTERCXNqgicfIEo",
    "mu_place": "หลวงพ่อรวย วัดตะโก",
    "name": "ร้านอาหาร \"สวนไผ่นายอ๊อด\"",
    "rating": 4.4,
    "address": "39 39 2 ตำบล ท่าเจ้าสนุก อำเภอ ท่าเรือ",
    "lat": 14.5488202,
    "lng": 100.7183708,
    "distance_to_mu": "7.9 กม."
  },
  {
    "place_id": "ChIJ_feXKgTxHTER-F18agwOOY8",
    "mu_place": "หลวงพ่อรวย วัดตะโก",
    "name": "ร้านอาหารมายเฟรนด์",
    "rating": 4,
    "address": "ร้านอาหารมายเฟรนด์ 7/11 ตำบล ท่าเรือ อำเภอ ท่าเรือ",
    "lat": 14.5700209,
    "lng": 100.7264601,
    "distance_to_mu": "11.0 กม."
  },
  {
    "place_id": "ChIJPZ7aUA514jARzApdibiKs4U",
    "mu_place": "หลวงพ่อรวย วัดตะโก",
    "name": "ร้านอาหารจ่าทุย",
    "rating": 4.3,
    "address": "ทางหลวงแผ่นดินหมายเลข 3053, ตำบล บ้านเกาะ อำเภอ พระนครศรีอยุธยา",
    "lat": 14.3823129,
    "lng": 100.5897773,
    "distance_to_mu": "31.6 กม."
  },
  {
    "place_id": "ChIJfQ1KsxrvHTERHnfa7oBLSd8",
    "mu_place": "หลวงพ่อรวย วัดตะโก",
    "name": "ร้านอาหารต้อมแควป่าสัก",
    "rating": 4,
    "address": "ตำบล เสาไห้ อำเภอ เสาไห้",
    "lat": 14.5554085,
    "lng": 100.8563926,
    "distance_to_mu": "22.1 กม."
  },
  {
    "place_id": "ChIJ28klELJ14jARmxJNRlWgMbw",
    "mu_place": "หลวงพ่อรวย วัดตะโก",
    "name": "Kung Im Aroy 1 Jae Ao - ร้าน กุ้ง อิ่ม อร่อย 1 เจ๊อ๋า",
    "rating": 3.9,
    "address": "50, 2 ถ. อู่ทอง ตำบลหอรัตนไชย อำเภอ พระนครศรีอยุธยา",
    "lat": 14.3555829,
    "lng": 100.5804668,
    "distance_to_mu": "30.9 กม."
  },
  {
    "place_id": "ChIJzbKteZrwHTERcY2sqe4bbeY",
    "mu_place": "หลวงพ่อรวย วัดตะโก",
    "name": "ร้านอาหารครูปรานอม",
    "rating": 4.5,
    "address": "HPPR+43H ตำบล บางโขมด อำเภอ บ้านหมอ",
    "lat": 14.5853125,
    "lng": 100.7401782,
    "distance_to_mu": "19.5 กม."
  },
  {
    "place_id": "ChIJT116oKWY4jARrNrK-D4N1e8",
    "mu_place": "หลวงพ่อรวย วัดตะโก",
    "name": "ร้านอาหารระเบียงกะเพรา ท่าเรือ",
    "rating": 4.5,
    "address": "ซินแสน้อย ถนนสายท่าเรือ(เทศบาล5)-บ้านร่อม ใกล้สนามชนไก่เพชรชมพู-ศาลเจ้า ตำบล ท่าเจ้าสนุก อำเภอ ท่าเรือ",
    "lat": 14.5645462,
    "lng": 100.7073592,
    "distance_to_mu": "10.8 กม."
  },
  {
    "place_id": "ChIJuycQZjt14jARGc7-x-e21VQ",
    "mu_place": "หลวงพ่อรวย วัดตะโก",
    "name": "ร้านอาหารซุ้มป่าสัก",
    "rating": 3.6,
    "address": "หมู่ 2, Amphoe Mueang 116/6, ตำบล บ่อโพง อำเภอนครหลวง",
    "lat": 14.4031042,
    "lng": 100.5870675,
    "distance_to_mu": "26.2 กม."
  },
  {
    "place_id": "ChIJjTkwArZ14jARupz9f67nxYM",
    "mu_place": "หลวงพ่อรวย วัดตะโก",
    "name": "ร้านอาหารบ้านส้มตำ",
    "rating": 4,
    "address": "9H2J+G7R ถ. อู่ทอง ตำบลหอรัตนไชย อำเภอ พระนครศรีอยุธยา",
    "lat": 14.35137,
    "lng": 100.580644,
    "distance_to_mu": "30.5 กม."
  },