[
  {
    "mu_place": "ถ้ำนาคา",
    "name": "ร้านเข้าซอยอาหารเช้า 69",
    "rating": 4.7,
    "address": "276 หมู่7 ตำบล เซกา อำเภอ เซกา",
    "lat": 17.9301498,
    "lng": 103.9549545
  },
  {
    "mu_place": "ถ้ำนาคา",
    "name": "ร้านอาหารสะพานไม้",
    "rating": 4.2,
    "address": "WXF3+4CM ตำบล เซกา อำเภอ เซกา",
    "lat": 17.9228332,
    "lng": 103.953535
  },
  {
    "mu_place": "ถ้ำนาคา",
    "name": "ร้านระเบียงไม้",
    "rating": 3.8,
    "address": "58 อำเภอ บึงโขงหลง",
    "lat": 17.9836893,
    "lng": 104.0261314
  },
  {
    "mu_place": "ถ้ำนาคา",
    "name": "ร้านอาหารอุ้มทอง",
    "rating": 4,
    "address": "X659+4QG ตำบล บ้านแพง อำเภอ บ้านแพง",
    "lat": 17.9578148,
    "lng": 104.2194446
  },
  {
    "mu_place": "ถ้ำนาคา",
    "name": "ปรมินทร์ อาหารตามสั่ง",
    "rating": 4.6,
    "address": "254 หมู่ 16 ตำบล เซกา เซกา อำเภอ เซกา",
    "lat": 17.9293802,
    "lng": 103.9607024
  },
  {
    "mu_place": "ถ้ำนาคา",
    "name": "ครัวเพ็ญพิชชา เบียร์วุ้น",
    "rating": 4.4,
    "address": "49 หมู่3 ตำบล บึงโขงหลง อำเภอ บึงโขงหลง",
    "lat": 17.9792992,
    "lng": 104.0273476
  },
  {
    "mu_place": "ถ้ำนาคา",
    "name": "ครัวคุณเพชร",
    "rating": 4.2,
    "address": "ตำบล บึงโขงหลง อำเภอ บึงโขงหลง",
    "lat": 17.9864375,
    "lng": 104.0248125
  },
  {
    "mu_place": "ถ้ำนาคา",
    "name": "ร้านอาหาร ติ๋มโภชนา",
    "rating": 5,
    "address": "R5M2+X58 นพ.3004 ตำบล หนองซน อำเภอ นาทม",
    "lat": 17.8349158,
    "lng": 104.1504388
  },
  {
    "mu_place": "ถ้ำนาคา",
    "name": "ร้านอาหารระเบียงบึงการ์เด้น",
    "rating": 3.4,
    "address": "X2QF+2R8 ตำบล บึงโขงหลง อำเภอ บึงโขงหลง",
    "lat": 17.9875364,
    "lng": 104.0245647
  },
  {
    "mu_place": "ถ้ำนาคา",
    "name": "ร้านหลบมุมซอย8",
    "rating": 4.3,
    "address": "บ้านดอนกลาง ตำบล บึงโขงหลง อำเภอ บึงโขงหลง",
    "lat": 17.9600675,
    "lng": 104.0376229
  },
  {
    "mu_place": "ถ้ำนาคา",
    "name": "ร้านอาหารทองจันทร์การ์เด้น",
    "rating": 4.1,
    "address": "ร้านทองจันทร์การ์เด้น ตำบล บึงโขงหลง อำเภอ บึงโขงหลง",
    "lat": 17.9866813,
    "lng": 104.0246688
  },
  {
    "mu_place": "ถ้ำนาคา",
    "name": "ครัวจันทมาลี",
    "rating": 4.7,
    "address": "อ, 403 อำเภอ บึงโขงหลง",
    "lat": 17.9620861,
    "lng": 104.0472768
  },
  {
    "mu_place": "ถ้ำนาคา",
    "name": "สวนอาหารเลาะภู",
    "rating": 4.3,
    "address": "X35R+CM5 บก.4017 ตำบล โพธิ์หมากแข้ง อำเภอ บึงโขงหลง",
    "lat": 17.9584952,
    "lng": 104.091705
  },
  {
    "mu_place": "ถ้ำนาคา",
    "name": "ร้านอาหารน้องเพลง",
    "rating": 2.9,
    "address": "Unnamed Road ตำบล บึงโขงหลง อำเภอ บึงโขงหลง",
    "lat": 17.9800411,
    "lng": 104.0270933
  },
  {
    "mu_place": "ถ้ำนาคา",
    "name": "ร้านอาหาร เอ็มมี่ปลาเผา",
    "rating": 5,
    "address": "X2HG+QXJ ตำบล บึงโขงหลง อำเภอ บึงโขงหลง",
    "lat": 17.9794587,
    "lng": 104.0273998
  },
  {
    "mu_place": "ถ้ำนาคา",
    "name": "ร้านแยกดงบัง",
    "rating": 4.1,
    "address": "24JQ+7X9 ตำบล ดงบัง อำเภอ บึงโขงหลง",
    "lat": 18.0306658,
    "lng": 104.1399974
  },
  {
    "mu_place": "ถ้ำนาคา",
    "name": "ล้านแสนแซบ อ.เซกา",
    "rating": 4.3,
    "address": "WXJ4+QGG ตำบล เซกา อำเภอ เซกา",
    "lat": 17.9319073,
    "lng": 103.9563189
  },
  {
    "mu_place": "ถ้ำนาคา",
    "name": "ร้านบ้านสวนตังสุมา",
    "rating": 4.4,
    "address": "X32V+633 บก.4017 ตำบล โพธิ์หมากแข้ง อำเภอ บึงโขงหลง",
    "lat": 17.9504108,
    "lng": 104.0926709
  },
  {
    "mu_place": "ถ้ำนาคา",
    "name": "ร้านอาหารบูม",
    "rating": 3.9,
    "address": "X677+4GC ตำบล บ้านแพง อำเภอ บ้านแพง",
    "lat": 17.9628166,
    "lng": 104.2138303
  },
  {
    "mu_place": "ถ้ำนาคา",
    "name": "ร้านบันเทิงนาวา@หาดคำสมบูรณ์",
    "rating": 4.1,
    "address": "X2PG+54F ตำบล บึงโขงหลง อำเภอ บึงโขงหลง",
    "lat": 17.9854375,
    "lng": 104.0253125
  },
  {
    "mu_place": "ท้าวเวสสุวรรณ วัดพระศรีรัตนมหาธาตุวิหาร(วัดใหญ่)",
    "name": "ร้านอาหารใบตอง",
    "rating": 4.4,
    "address": "Q57R+5HC ตำบล ท่าโพธิ์ อำเภอเมืองพิษณุโลก",
    "lat": 16.7629407,
    "lng": 100.1913892
  },
  {
    "mu_place": "ท้าวเวสสุวรรณ วัดพระศรีรัตนมหาธาตุวิหาร(วัดใหญ่)",
    "name": "ร้านอาหารเพลิน",
    "rating": 4.5,
    "address": "ตำบล ท่าโพธิ์ อำเภอเมืองพิษณุโลก",
    "lat": 16.752826,
    "lng": 100.2015879
  },
  {
    "mu_place": "ท้าวเวสสุวรรณ วัดพระศรีรัตนมหาธาตุวิหาร(วัดใหญ่)",
    "name": "ฝาชี อาหารไทยพื้นบ้าน",
    "rating": 4.4,
    "address": "ถนน สีหราชเดโชชัย ตำบลบ้านคลอง อำเภอเมืองพิษณุโลก",
    "lat": 16.816259,
    "lng": 100.2400787
  },
  {
    "mu_place": "ท้าวเวสสุวรรณ วัดพระศรีรัตนมหาธาตุวิหาร(วัดใหญ่)",
    "name": "ร้านอาหารอีซ้ายรสเด็ด",
    "rating": 4.3,
    "address": "137 8 ตำบลพลายชุมพล อำเภอเมืองพิษณุโลก",
    "lat": 16.8551721,
    "lng": 100.2243036
  },
  {
    "mu_place": "ท้าวเวสสุวรรณ วัดพระศรีรัตนมหาธาตุวิหาร(วัดใหญ่)",
    "name": "ร้านอาหารพรศรี",
    "rating": 4.4,
    "address": "121 หมู่2 ตำบลวัดโบสถ์ อำเภอวัดโบสถ์ จังหวัดพิษณุโลก 65160",
    "lat": 17.0022185,
    "lng": 100.3266031
  },
  {
    "mu_place": "ท้าวเวสสุวรรณ วัดพระศรีรัตนมหาธาตุวิหาร(วัดใหญ่)",
    "name": "ครัวน่านน้ำ - KruaNannum",
    "rating": 4.2,
    "address": "94/2 ถนน วังจันทน์ ตำบล ในเมือง อำเภอเมืองพิษณุโลก",
    "lat": 16.8117816,
    "lng": 100.2568215
  },
  {
    "mu_place": "ท้าวเวสสุวรรณ วัดพระศรีรัตนมหาธาตุวิหาร(วัดใหญ่)",
    "name": "ครัว",
    "rating": 4.5,
    "address": "172 14 ถนน สนามบิน เมือง, อำเภอเมืองพิษณุโลก",
    "lat": 16.8025935,
    "lng": 100.2708271
  },
  {
    "mu_place": "ท้าวเวสสุวรรณ วัดพระศรีรัตนมหาธาตุวิหาร(วัดใหญ่)",
    "name": "ร้านอาหารบ้านไม้",
    "rating": 4.4,
    "address": "ตำบล ในเมือง อำเภอเมืองพิษณุโลก",
    "lat": 16.8174299,
    "lng": 100.2685862
  },
  {
    "mu_place": "ท้าวเวสสุวรรณ วัดพระศรีรัตนมหาธาตุวิหาร(วัดใหญ่)",
    "name": "ร้านอาหารอาหุย",
    "rating": 4.4,
    "address": "RCFG+8HM ตำบลวังทอง อำเภอวังทอง",
    "lat": 16.8233297,
    "lng": 100.4264158
  },
  {
    "mu_place": "ท้าวเวสสุวรรณ วัดพระศรีรัตนมหาธาตุวิหาร(วัดใหญ่)",
    "name": "ร้านอาหารตั้งหลัก",
    "rating": 4.3,
    "address": "ตำบล ในเมือง อำเภอเมืองพิษณุโลก",
    "lat": 16.8279055,
    "lng": 100.2654983
  },
  {
    "mu_place": "ท้าวเวสสุวรรณ วัดพระศรีรัตนมหาธาตุวิหาร(วัดใหญ่)",
    "name": "ร้านอาหารสี่ทิศ",
    "rating": 3.5,
    "address": "V83X+QCF ตำบล สมอแข อำเภอเมืองพิษณุโลก",
    "lat": 16.854439,
    "lng": 100.3485587
  },
  {
    "mu_place": "ท้าวเวสสุวรรณ วัดพระศรีรัตนมหาธาตุวิหาร(วัดใหญ่)",
    "name": "ร้านอาหารลุงแย้ม",
    "rating": 4.4,
    "address": "112 1 ตำบลหัวรอ อำเภอเมืองพิษณุโลก",
    "lat": 16.8646769,
    "lng": 100.2821514
  },
  {
    "mu_place": "ท้าวเวสสุวรรณ วัดพระศรีรัตนมหาธาตุวิหาร(วัดใหญ่)",
    "name": "ร้านอาหารลุงเด",
    "rating": 4.7,
    "address": "240/33 ซอย พญาเสือ 12 ตำบล ในเมือง อำเภอเมืองพิษณุโลก",
    "lat": 16.8227477,
    "lng": 100.2737086
  },
  {
    "mu_place": "ท้าวเวสสุวรรณ วัดพระศรีรัตนมหาธาตุวิหาร(วัดใหญ่)",
    "name": "ร้านอาหารลุงเทิง",
    "rating": 4.2,
    "address": "48 3 ตำบลพลายชุมพล อำเภอเมืองพิษณุโลก",
    "lat": 16.8555737,
    "lng": 100.2266213
  },
  {
    "mu_place": "ท้าวเวสสุวรรณ วัดพระศรีรัตนมหาธาตุวิหาร(วัดใหญ่)",
    "name": "ร้านอาหารอิ่มอร่อย",
    "rating": 4.1,
    "address": "R89C+28F ตำบล สมอแข อำเภอเมืองพิษณุโลก",
    "lat": 16.8175705,
    "lng": 100.3208785
  },
  {
    "mu_place": "ท้าวเวสสุวรรณ วัดพระศรีรัตนมหาธาตุวิหาร(วัดใหญ่)",
    "name": "Lada ร้านอาหาร",
    "rating": 4.1,
    "address": "Q53W+4HG ตำบล ท่าโพธิ์ อำเภอเมืองพิษณุโลก",
    "lat": 16.7528124,
    "lng": 100.1964335
  },
  {
    "mu_place": "ท้าวเวสสุวรรณ วัดพระศรีรัตนมหาธาตุวิหาร(วัดใหญ่)",
    "name": "ครัวนายลาบเป็ด ร้านอาหารพิษณุโลก",
    "rating": 4.3,
    "address": "12/8 69/9 ท่าโพธิ์ อำเภอเมืองพิษณุโลก",
    "lat": 16.738846,
    "lng": 100.179681
  },
  {
    "mu_place": "ท้าวเวสสุวรรณ วัดพระศรีรัตนมหาธาตุวิหาร(วัดใหญ่)",
    "name": "ร้านอาหารป้าบัวโรย",
    "rating": 4.1,
    "address": "R7G5+7HV ตำบล ในเมือง อำเภอเมืองพิษณุโลก",
    "lat": 16.8257097,
    "lng": 100.2589112
  },
  {
    "mu_place": "ท้าวเวสสุวรรณ วัดพระศรีรัตนมหาธาตุวิหาร(วัดใหญ่)",
    "name": "ร้านอาหารสวนดอกไม้",
    "rating": 4.4,
    "address": "25 18 ม.9 ตำบล ท่าโพธิ์ เมือง",
    "lat": 16.7369676,
    "lng": 100.1900392
  },
  {
    "mu_place": "ท้าวเวสสุวรรณ วัดพระศรีรัตนมหาธาตุวิหาร(วัดใหญ่)",
    "name": "ร้านอาหารหมู่เฮา โดยนายนิรันดร์ ประเสริฐศรี",
    "rating": 4.2,
    "address": "888/13 ถ.มิตรภาพ ในเมือง เมือง",
    "lat": 16.8222995,
    "lng": 100.2814341
  },
  {
    "mu_place": "วัดมณีวงศ์",
    "name": "ร้าน ศ พิสดาร",
    "rating": 3.9,
    "address": "133 23-24 ถ. สุวรรณศร ตำบล บ้านใหญ่ อำเภอเมืองนครนายก",
    "lat": 14.2069432,
    "lng": 101.2169531
  },
  {
    "mu_place": "วัดมณีวงศ์",
    "name": "ร้านอาหารเต็ม10",
    "rating": 4.4,
    "address": "189 ตำบล ป่าขะ ตำบล บ้านนา",
    "lat": 14.3203437,
    "lng": 101.0652764
  },
  {
    "mu_place": "วัดมณีวงศ์",
    "name": "ร้านอาหารแป๊ะฮก",
    "rating": 3.8,
    "address": "เลขที่ 117 4 ตำบล พรหมณี อำเภอเมืองนครนายก",
    "lat": 14.2226406,
    "lng": 101.1510393
  },
  {
    "mu_place": "วัดมณีวงศ์",
    "name": "ร้านอาหารอร่อยริมทาง จ.นครนายก(ก่อนแยกไฟแดงเขื่อนขุนด่านฯ)",
    "rating": 3.9,
    "address": "75 2 หินตั้ง อำเภอเมืองนครนายก",
    "lat": 14.322217,
    "lng": 101.309853
  },
  {
    "mu_place": "วัดมณีวงศ์",
    "name": "ร้านสามสาว ข้าวแกง",
    "rating": 3.8,
    "address": "305 ตำบล ท่าช้าง อำเภอเมืองนครนายก",
    "lat": 14.2004451,
    "lng": 101.1915144
  },
  {
    "mu_place": "วัดมณีวงศ์",
    "name": "ร้านอาหารลุงยังปลาเผา",
    "rating": 4.2,
    "address": "169 ตำบลองครักษ์ อำเภอองครักษ์",
    "lat": 14.1172296,
    "lng": 101.0143004
  },
  {
    "mu_place": "วัดมณีวงศ์",
    "name": "ร้านอาหารพรอีสาน",
    "rating": 4.1,
    "address": "ตำบล บ้านใหญ่ อำเภอเมืองนครนายก",
    "lat": 14.2183469,
    "lng": 101.2147843
  },
  {
    "mu_place": "วัดมณีวงศ์",
    "name": "ร้านบ้านนายโอ",
    "rating": 4.4,
    "address": "66RW+2H2 ตำบล สาริกา อำเภอเมืองนครนายก",
    "lat": 14.2400091,
    "lng": 101.2463773
  },
  {
    "mu_place": "วัดมณีวงศ์",
    "name": "ร้านอาหารเตยใหญ่",
    "rating": 4.4,
    "address": "48 ม.7 ตำบล บางสมบูรณ์ อำเภอองครักษ์",
    "lat": 14.0199276,
    "lng": 101.124616
  },
  {
    "mu_place": "วัดมณีวงศ์",
    "name": "ร้านอาหารเรือนลอมฟาง",
    "rating": 4,
    "address": "21 ม.10 ถ. สุวรรณศร ตำบล ป่าขะ อำเภอบ้านนา",
    "lat": 14.2722881,
    "lng": 101.0572808
  },
  {
    "mu_place": "วัดมณีวงศ์",
    "name": "ร้านอาหารครัวลุงดำ",
    "rating": 4.2,
    "address": "18 ถนนศาลเจ้าพ่อองครักษ์ ตำบล ทรายมูล อำเภอองครักษ์",
    "lat": 14.1269528,
    "lng": 101.0137246
  },
  {
    "mu_place": "วัดมณีวงศ์",
    "name": "ร้านอาหารครัวน้องออย",
    "rating": 3.5,
    "address": "877W+CHM ทางหลวงแผ่นดินหมายเลข. 3049 สาริกา อำเภอเมืองนครนายก",
    "lat": 14.3135998,
    "lng": 101.2964359
  },
  {
    "mu_place": "วัดมณีวงศ์",
    "name": "ร้านอาหาร น้องต้นปาล์ม",
    "rating": 4.9,
    "address": "88C5+VR2 ทางหลวงแผ่นดินหมายเลข. 3049 ตำบล หินตั้ง อำเภอเมืองนครนายก",
    "lat": 14.322146,
    "lng": 101.3095068
  },
  {
    "mu_place": "วัดมณีวงศ์",
    "name": "ร้านอาหารเรือนศรีนครนายก",
    "rating": 4.3,
    "address": "7724+HR7 ทางหลวงแผ่นดินหมายเลข. 3049 สาริกา อำเภอเมืองนครนายก",
    "lat": 14.251405,
    "lng": 101.2570432
  },
  {
    "mu_place": "วัดมณีวงศ์",
    "name": "ร้านอาหารป่า ลุงหมูกับตุ๊ดตู่จ๋า",
    "rating": 4.7,
    "address": "6588+8HP ถนน รังสิต - นครนายก ตำบล พรหมณี อำเภอเมืองนครนายก",
    "lat": 14.2158376,
    "lng": 101.1664611
  },
  {
    "mu_place": "วัดมณีวงศ์",
    "name": "ร้านอาหารครัวสากเพชร",
    "rating": 4.6,
    "address": "66FM+WGX ตำบล บ้านใหญ่ อำเภอเมืองนครนายก",
    "lat": 14.2248555,
    "lng": 101.233869
  },
  {
    "mu_place": "วัดมณีวงศ์",
    "name": "ร้านอาหารครัวอีสานบ้านเฮา",
    "rating": 4.1,
    "address": "667J+G5R ตำบล บ้านใหญ่ อำเภอเมืองนครนายก",
    "lat": 14.2137674,
    "lng": 101.2303858
  },
  {
    "mu_place": "วัดมณีวงศ์",
    "name": "ร้านอาหาร เจ วี",
    "rating": 4.5,
    "address": "ตำบล พรหมณี อำเภอเมืองนครนายก",
    "lat": 14.2556141,
    "lng": 101.1584095
  },
  {
    "mu_place": "วัดมณีวงศ์",
    "name": "ร้านอาหารเรือนแพ ปราจีนบุรี",
    "rating": 3.9,
    "address": "77 1 ตำบล บางเดชะ อำเภอเมืองปราจีนบุรี",
    "lat": 14.027225,
    "lng": 101.3410985
  },
  {
    "mu_place": "วัดมณีวงศ์",
    "name": "J V Restaurant",
    "rating": 4.2,
    "address": "ตำบล พรหมณี อำเภอเมืองนครนายก",
    "lat": 14.2556093,
    "lng": 101.1584646
  },
  {
    "mu_place": "วัดอินทรวิหาร พระอารามหลวง (บางขุนพรหม)",
    "name": "ร้านอาหารเพลิน",
    "rating": 4.2,
    "address": "7/428 ถนน วิภาวดีรังสิต แขวงจตุจักร เขตจตุจักร",
    "lat": 13.8259653,
    "lng": 100.5571122
  },
  {
    "mu_place": "วัดอินทรวิหาร พระอารามหลวง (บางขุนพรหม)",
    "name": "กินลมชมสะพาน",
    "rating": 4.1,
    "address": "11 6 ถนนจักรพงษ์ แขวงวัดสามพระยา เขตพระนคร",
    "lat": 13.7666469,
    "lng": 100.497129
  },
  {
    "mu_place": "วัดอินทรวิหาร พระอารามหลวง (บางขุนพรหม)",
    "name": "ร้านอาหารประพักตร์",
    "rating": 4.3,
    "address": "89/165 ถนน เทศบาลสงเคราะห์ แขวงลาดยาว เขตจตุจักร",
    "lat": 13.8406963,
    "lng": 100.552399
  },
  {
    "mu_place": "วัดอินทรวิหาร พระอารามหลวง (บางขุนพรหม)",
    "name": "ร้านอาหารข้าวใหม่",
    "rating": 4.6,
    "address": "RHMH+3CX แขวงจันทรเกษม เขตจตุจักร",
    "lat": 13.8327455,
    "lng": 100.578617
  },
  {
    "mu_place": "วัดอินทรวิหาร พระอารามหลวง (บางขุนพรหม)",
    "name": "ร้านอาหารเสี่ยครัวไทย",
    "rating": 4,
    "address": "33/3 ถ.เฉลิมพระเกียรติ ร.9 ดอกไม้ ประเวศ",
    "lat": 13.6999014,
    "lng": 100.6784954
  },
  {
    "mu_place": "วัดอินทรวิหาร พระอารามหลวง (บางขุนพรหม)",
    "name": "Three Mangoes บ้านไทย ชายคลอง",
    "rating": 4.2,
    "address": "76 1 ถ. นครอินทร์ ตำบล บางขนุน อำเภอบางกรวย",
    "lat": 13.8237315,
    "lng": 100.4670198
  },
  {
    "mu_place": "วัดอินทรวิหาร พระอารามหลวง (บางขุนพรหม)",
    "name": "ร้านอาหารเลอ อัญญ์",
    "rating": 4.1,
    "address": "แขวงบางขุนศรี เขตบางกอกน้อย",
    "lat": 13.761189,
    "lng": 100.4693039
  },
  {
    "mu_place": "วัดอินทรวิหาร พระอารามหลวง (บางขุนพรหม)",
    "name": "Bajika Restaurant (ร้านอาหารบาจิกา)",
    "rating": 4.4,
    "address": "46/4 ถ. กาญจนาภิเษก แขวงศาลาธรรมสพน์ เขตทวีวัฒนา",
    "lat": 13.7701897,
    "lng": 100.4069093
  },
  {
    "mu_place": "วัดอินทรวิหาร พระอารามหลวง (บางขุนพรหม)",
    "name": "ร้านอาหารรับลม",
    "rating": 4.1,
    "address": "หมู่ที่1 26/2 ถ. บางกรวย - ไทรน้อย ตำบล บางรักพัฒนา อำเภอบางบัวทอง",
    "lat": 13.9063534,
    "lng": 100.4272884
  },
  {
    "mu_place": "วัดอินทรวิหาร พระอารามหลวง (บางขุนพรหม)",
    "name": "หมีแฟมิลี่ สาขา ประชาชื่น",
    "rating": 4.6,
    "address": "280/1 ถ. ประชาชื่น แขวงจตุจักร เขตจตุจักร",
    "lat": 13.8232274,
    "lng": 100.5384329
  },
  {
    "mu_place": "วัดอินทรวิหาร พระอารามหลวง (บางขุนพรหม)",
    "name": "ร้านอาหาร สวนลุงพร",
    "rating": 4.6,
    "address": "2 2 ตำบล แพรกษา อำเภอเมืองสมุทรปราการ",
    "lat": 13.5877449,
    "lng": 100.6419076
  },
  {
    "mu_place": "วัดอินทรวิหาร พระอารามหลวง (บางขุนพรหม)",
    "name": "ร้านอาหาร ครกไม้ไทยลาว ซอยลาดปลาเค้า 24",
    "rating": 4.3,
    "address": "8 ซ. ลาดปลาเค้า 24 แขวงจรเข้บัว เขตลาดพร้าว",
    "lat": 13.8401614,
    "lng": 100.5958436
  },
  {
    "mu_place": "วัดอินทรวิหาร พระอารามหลวง (บางขุนพรหม)",
    "name": "ร้านอาหารรสสุคนธ์",
    "rating": 4.1,
    "address": "299 12 หมู่ 5 ถ. ศรีนครินทร์ ตำบล บางเมือง อำเภอเมืองสมุทรปราการ",
    "lat": 13.6151095,
    "lng": 100.6209244
  },
  {
    "mu_place": "วัดอินทรวิหาร พระอารามหลวง (บางขุนพรหม)",
    "name": "T and T Restaurant",
    "rating": 4.3,
    "address": "359 เทศบาลนิมิตใต้ ซอย 7 แขวงลาดยาว เขตจตุจักร",
    "lat": 13.8363602,
    "lng": 100.5495098
  },
  {
    "mu_place": "วัดอินทรวิหาร พระอารามหลวง (บางขุนพรหม)",
    "name": "ร้านอาหารแกงป่า(ลุงสง่า)",
    "rating": 4.4,
    "address": "285 162 ซ. งามวงศ์วาน 23 แยก 11 ตำบลบางเขน อำเภอเมือง",
    "lat": 13.8651608,
    "lng": 100.5355962
  },
  {
    "mu_place": "วัดอินทรวิหาร พระอารามหลวง (บางขุนพรหม)",
    "name": "ร้านอาหารลงแพ หรือ @บางขวด",
    "rating": 4.3,
    "address": "3 ซอย นวลจันทร์ 56 แขวงนวลจันทร์ เขตบึงกุ่ม",
    "lat": 13.8328813,
    "lng": 100.6462978
  },
  {
    "mu_place": "วัดอินทรวิหาร พระอารามหลวง (บางขุนพรหม)",
    "name": "ร้านอาหารบ้านใบบัว",
    "rating": 4.3,
    "address": "13, 37 ถ. วงแหวนอุตสาหกรรม ลัดหลวง อำเภอพระประแดง",
    "lat": 13.6646477,
    "lng": 100.5233595
  },
  {
    "mu_place": "วัดอินทรวิหาร พระอารามหลวง (บางขุนพรหม)",
    "name": "ร้านอาหารอีสาน เป็นตาแซ่บ",
    "rating": 4.3,
    "address": "23 ซอย เทิดราชัน 43 แขวงสีกัน เขตดอนเมือง",
    "lat": 13.9441119,
    "lng": 100.5863427
  },
  {
    "mu_place": "วัดอินทรวิหาร พระอารามหลวง (บางขุนพรหม)",
    "name": "ร้านระเบียงเคียงน้ำ 77",
    "rating": 4.1,
    "address": "เลขที่ 76/1 ซอย หมู่ 3 ตำบล บางตะไนย์ อำเภอปากเกร็ด",
    "lat": 13.9180431,
    "lng": 100.4951132
  },
  {
    "mu_place": "วัดอินทรวิหาร พระอารามหลวง (บางขุนพรหม)",
    "name": "ร้านอาหาร ศรีกร",
    "rating": 4.3,
    "address": "233 ถ. สุขุมวิท ตำบลปากน้ำ อำเภอเมืองสมุทรปราการ",
    "lat": 13.601827,
    "lng": 100.5974659
  },
  {
    "mu_place": "ศาลเจ้าพ่อกรมหลวงชุมพร อุดมศักดิ์",
    "name": "ร้านอาหารเพลิน",
    "rating": 4.2,
    "address": "7/428 ถนน วิภาวดีรังสิต แขวงจตุจักร เขตจตุจักร",
    "lat": 13.8259653,
    "lng": 100.5571122
  },
  {
    "mu_place": "ศาลเจ้าพ่อกรมหลวงชุมพร อุดมศักดิ์",
    "name": "กินลมชมสะพาน",
    "rating": 4.1,
    "address": "11 6 ถนนจักรพงษ์ แขวงวัดสามพระยา เขตพระนคร",
    "lat": 13.7666469,
    "lng": 100.497129
  },
  {
    "mu_place": "ศาลเจ้าพ่อกรมหลวงชุมพร อุดมศักดิ์",
    "name": "ร้านอาหารประพักตร์",
    "rating": 4.3,
    "address": "89/165 ถนน เทศบาลสงเคราะห์ แขวงลาดยาว เขตจตุจักร",
    "lat": 13.8406963,
    "lng": 100.552399
  },
  {
    "mu_place": "ศาลเจ้าพ่อกรมหลวงชุมพร อุดมศักดิ์",
    "name": "ร้านอาหารเสี่ยครัวไทย",
    "rating": 4,
    "address": "33/3 ถ.เฉลิมพระเกียรติ ร.9 ดอกไม้ ประเวศ",
    "lat": 13.6999014,
    "lng": 100.6784954
  },
  {
    "mu_place": "ศาลเจ้าพ่อกรมหลวงชุมพร อุดมศักดิ์",
    "name": "Three Mangoes บ้านไทย ชายคลอง",
    "rating": 4.2,
    "address": "76 1 ถ. นครอินทร์ ตำบล บางขนุน อำเภอบางกรวย",
    "lat": 13.8237315,
    "lng": 100.4670198
  },
  {
    "mu_place": "ศาลเจ้าพ่อกรมหลวงชุมพร อุดมศักดิ์",
    "name": "ร้านอาหารไก่เพชร",
    "rating": 4.3,
    "address": "7 6 ซอย ลาดพร้าว 8 แยก 3 แขวงจอมพล เขตจตุจักร",
    "lat": 13.8103274,
    "lng": 100.5642949
  },
  {
    "mu_place": "ศาลเจ้าพ่อกรมหลวงชุมพร อุดมศักดิ์",
    "name": "ร้านอาหาร เมลโล่การ์เด้น",
    "rating": 4.5,
    "address": "10/804 เกษตร - นวมินทร์ แขวงนวลจันทร์ เขตบึงกุ่ม",
    "lat": 13.8276017,
    "lng": 100.6307115
  },
  {
    "mu_place": "ศาลเจ้าพ่อกรมหลวงชุมพร อุดมศักดิ์",
    "name": "ร้านอาหารเลอ อัญญ์",
    "rating": 4.1,
    "address": "แขวงบางขุนศรี เขตบางกอกน้อย",
    "lat": 13.761189,
    "lng": 100.4693039
  },
  {
    "mu_place": "ศาลเจ้าพ่อกรมหลวงชุมพร อุดมศักดิ์",
    "name": "Bajika Restaurant (ร้านอาหารบาจิกา)",
    "rating": 4.4,
    "address": "46/4 ถ. กาญจนาภิเษก แขวงศาลาธรรมสพน์ เขตทวีวัฒนา",
    "lat": 13.7701897,
    "lng": 100.4069093
  },
  {
    "mu_place": "ศาลเจ้าพ่อกรมหลวงชุมพร อุดมศักดิ์",
    "name": "ร้านอาหารรับลม",
    "rating": 4.1,
    "address": "หมู่ที่1 26/2 ถ. บางกรวย - ไทรน้อย ตำบล บางรักพัฒนา อำเภอบางบัวทอง",
    "lat": 13.9063534,
    "lng": 100.4272884
  },
  {
    "mu_place": "ศาลเจ้าพ่อกรมหลวงชุมพร อุดมศักดิ์",
    "name": "หมีแฟมิลี่ สาขา ประชาชื่น",
    "rating": 4.6,
    "address": "280/1 ถ. ประชาชื่น แขวงจตุจักร เขตจตุจักร",
    "lat": 13.8232274,
    "lng": 100.5384329
  },
  {
    "mu_place": "ศาลเจ้าพ่อกรมหลวงชุมพร อุดมศักดิ์",
    "name": "ร้านอาหาร สวนลุงพร",
    "rating": 4.6,
    "address": "2 2 ตำบล แพรกษา อำเภอเมืองสมุทรปราการ",
    "lat": 13.5877449,
    "lng": 100.6419076
  },
  {
    "mu_place": "ศาลเจ้าพ่อกรมหลวงชุมพร อุดมศักดิ์",
    "name": "ร้านอาหาร ครกไม้ไทยลาว ซอยลาดปลาเค้า 24",
    "rating": 4.3,
    "address": "8 ซ. ลาดปลาเค้า 24 แขวงจรเข้บัว เขตลาดพร้าว",
    "lat": 13.8401614,
    "lng": 100.5958436
  },
  {
    "mu_place": "ศาลเจ้าพ่อกรมหลวงชุมพร อุดมศักดิ์",
    "name": "ร้านอาหารรสสุคนธ์",
    "rating": 4.1,
    "address": "299 12 หมู่ 5 ถ. ศรีนครินทร์ ตำบล บางเมือง อำเภอเมืองสมุทรปราการ",
    "lat": 13.6151095,
    "lng": 100.6209244
  },
  {
    "mu_place": "ศาลเจ้าพ่อกรมหลวงชุมพร อุดมศักดิ์",
    "name": "T and T Restaurant",
    "rating": 4.3,
    "address": "359 เทศบาลนิมิตใต้ ซอย 7 แขวงลาดยาว เขตจตุจักร",
    "lat": 13.8363602,
    "lng": 100.5495098
  },
  {
    "mu_place": "ศาลเจ้าพ่อกรมหลวงชุมพร อุดมศักดิ์",
    "name": "ร้านอาหารแกงป่า(ลุงสง่า)",
    "rating": 4.4,
    "address": "285 162 ซ. งามวงศ์วาน 23 แยก 11 ตำบลบางเขน อำเภอเมือง",
    "lat": 13.8651608,
    "lng": 100.5355962
  },
  {
    "mu_place": "ศาลเจ้าพ่อกรมหลวงชุมพร อุดมศักดิ์",
    "name": "ร้านอาหารลงแพ หรือ @บางขวด",
    "rating": 4.3,
    "address": "3 ซอย นวลจันทร์ 56 แขวงนวลจันทร์ เขตบึงกุ่ม",
    "lat": 13.8328813,
    "lng": 100.6462978
  },
  {
    "mu_place": "ศาลเจ้าพ่อกรมหลวงชุมพร อุดมศักดิ์",
    "name": "ร้านอาหารบ้านใบบัว",
    "rating": 4.3,
    "address": "13, 37 ถ. วงแหวนอุตสาหกรรม ลัดหลวง อำเภอพระประแดง",
    "lat": 13.6646477,
    "lng": 100.5233595
  },
  {
    "mu_place": "ศาลเจ้าพ่อกรมหลวงชุมพร อุดมศักดิ์",
    "name": "ร้านระเบียงเคียงน้ำ 77",
    "rating": 4.1,
    "address": "เลขที่ 76/1 ซอย หมู่ 3 ตำบล บางตะไนย์ อำเภอปากเกร็ด",
    "lat": 13.9180431,
    "lng": 100.4951132
  },
  {
    "mu_place": "ศาลเจ้าพ่อกรมหลวงชุมพร อุดมศักดิ์",
    "name": "ร้านอาหาร ศรีกร",
    "rating": 4.3,
    "address": "233 ถ. สุขุมวิท ตำบลปากน้ำ อำเภอเมืองสมุทรปราการ",
    "lat": 13.601827,
    "lng": 100.5974659
  },
  {
    "mu_place": "วิหารพระพุทธชินราชมงคลปราการ",
    "name": "กินลมชมสะพาน",
    "rating": 4.1,
    "address": "11 6 ถนนจักรพงษ์ แขวงวัดสามพระยา เขตพระนคร",
    "lat": 13.7666469,
    "lng": 100.497129
  },
  {
    "mu_place": "วิหารพระพุทธชินราชมงคลปราการ",
    "name": "ร้านอาหาร โค้งไผ่หลิว",
    "rating": 4.2,
    "address": "1/1 ม.9 ถ.พระราชวิริยาภรณ์ ต.บางพึ่ง อ.พระประแดง, อำเภอพระประแดง",
    "lat": 13.6683159,
    "lng": 100.5207053
  },
  {
    "mu_place": "วิหารพระพุทธชินราชมงคลปราการ",
    "name": "ร้านอาหาร เอ้เต",
    "rating": 3.9,
    "address": "56 ซอย สมปรารถนา แขวงดินแดง เขตดินแดง",
    "lat": 13.7675246,
    "lng": 100.559853
  },
  {
    "mu_place": "วิหารพระพุทธชินราชมงคลปราการ",
    "name": "ร้านอาหารเสี่ยครัวไทย",
    "rating": 4,
    "address": "33/3 ถ.เฉลิมพระเกียรติ ร.9 ดอกไม้ ประเวศ",
    "lat": 13.6999014,
    "lng": 100.6784954
  },
  {
    "mu_place": "วิหารพระพุทธชินราชมงคลปราการ",
    "name": "ร้านอาหารเลอ อัญญ์",
    "rating": 4.1,
    "address": "แขวงบางขุนศรี เขตบางกอกน้อย",
    "lat": 13.761189,
    "lng": 100.4693039
  },
  {
    "mu_place": "วิหารพระพุทธชินราชมงคลปราการ",
    "name": "ร้านอาหารเรือนแสน",
    "rating": 4.1,
    "address": "JPMQ+RV5 ตำบลบางโฉลง อำเภอบางพลี",
    "lat": 13.6345017,
    "lng": 100.7397468
  },
  {
    "mu_place": "วิหารพระพุทธชินราชมงคลปราการ",
    "name": "ร้านอาหารต้นทอง",
    "rating": 4.1,
    "address": "38, 2 ถนน เพชรพระราม แขวง ห้วยขวาง, เขตบางกะปิ",
    "lat": 13.7467027,
    "lng": 100.5984029
  },
  {
    "mu_place": "วิหารพระพุทธชินราชมงคลปราการ",
    "name": "ร้านอาหาร สวนลุงพร",
    "rating": 4.6,
    "address": "2 2 ตำบล แพรกษา อำเภอเมืองสมุทรปราการ",
    "lat": 13.5877449,
    "lng": 100.6419076
  },
  {
    "mu_place": "วิหารพระพุทธชินราชมงคลปราการ",
    "name": "ร้านอาหารรสสุคนธ์",
    "rating": 4.1,
    "address": "299 12 หมู่ 5 ถ. ศรีนครินทร์ ตำบล บางเมือง อำเภอเมืองสมุทรปราการ",
    "lat": 13.6151095,
    "lng": 100.6209244
  },
  {
    "mu_place": "วิหารพระพุทธชินราชมงคลปราการ",
    "name": "ป้าเรย์",
    "rating": 3.9,
    "address": "4-6-8 ถนนเทียนร่วมมิตร แขวงห้วยขวาง",
    "lat": 13.7667789,
    "lng": 100.5811614
  },
  {
    "mu_place": "วิหารพระพุทธชินราชมงคลปราการ",
    "name": "ร้านอาหารมิตรโกหย่วน",
    "rating": 4.4,
    "address": "186 ถนน ดินสอ แขวงเสาชิงช้า เขตพระนคร",
    "lat": 13.7537797,
    "lng": 100.5010968
  },
  {
    "mu_place": "วิหารพระพุทธชินราชมงคลปราการ",
    "name": "ร้านอาหารบ้านใบบัว",
    "rating": 4.3,
    "address": "13, 37 ถ. วงแหวนอุตสาหกรรม ลัดหลวง อำเภอพระประแดง",
    "lat": 13.6646477,
    "lng": 100.5233595
  },
  {
    "mu_place": "วิหารพระพุทธชินราชมงคลปราการ",
    "name": "ร้านอาหาร ศรีกร",
    "rating": 4.3,
    "address": "233 ถ. สุขุมวิท ตำบลปากน้ำ อำเภอเมืองสมุทรปราการ",
    "lat": 13.601827,
    "lng": 100.5974659
  },
  {
    "mu_place": "วิหารพระพุทธชินราชมงคลปราการ",
    "name": "ประจักษ์",
    "rating": 4.2,
    "address": "1415 ถ. เจริญกรุง แขวงสีลม เขตบางรัก",
    "lat": 13.7203946,
    "lng": 100.5160089
  },
  {
    "mu_place": "วิหารพระพุทธชินราชมงคลปราการ",
    "name": "ร้านอาหาร​บ้าน​แบบ​ไทย",
    "rating": 4.7,
    "address": "​ ​ 307 ซอย สาทร 19 แขวงยานนาวา เขตยานนาวา",
    "lat": 13.7178337,
    "lng": 100.517159
  },
  {
    "mu_place": "วิหารพระพุทธชินราชมงคลปราการ",
    "name": "ร้านอาหารแต้จิ๋ว",
    "rating": 4.2,
    "address": "MGV5+C7X ซอยแฉล้มนิมิตร แขวงบางโคล่ เขตบางคอแหลม",
    "lat": 13.6936123,
    "lng": 100.5082329
  },
  {
    "mu_place": "วิหารพระพุทธชินราชมงคลปราการ",
    "name": "Amorn Lake Front ร้านอาหาร ริมทะเลสาบ สัมมากร",
    "rating": 4.3,
    "address": "ซอย รามคำแหง 112 แขวงสะพานสูง เขตสะพานสูง",
    "lat": 13.7627527,
    "lng": 100.6786588
  },
  {
    "mu_place": "วิหารพระพุทธชินราชมงคลปราการ",
    "name": "อร่อย",
    "rating": 4.1,
    "address": "2309 ถนนสุขุมวิท93 แขวงบางจาก เขตพระโขนง",
    "lat": 13.6989074,
    "lng": 100.6045301
  },
  {
    "mu_place": "วิหารพระพุทธชินราชมงคลปราการ",
    "name": "บึงตลิ่งชัน ร้านอาหารและบ่อตกเล่น",
    "rating": 4.4,
    "address": "QC2C+3PF ถนน บางเชือกหนัง แขวงบางเชือกหนัง เขตตลิ่งชัน",
    "lat": 13.750177,
    "lng": 100.421786
  },
  {
    "mu_place": "วิหารพระพุทธชินราชมงคลปราการ",
    "name": "แสนอร่อยโภชนา",
    "rating": 4.3,
    "address": "Soi Bangna 48, บางนาใต้ เขตบางนา",
    "lat": 13.6643772,
    "lng": 100.6427948
  },
  {
    "mu_place": "ท้าวเวสสุวรรณ วัดจุฬามณี",
    "name": "ร้านอาหารคุณจ๋า",
    "rating": 4.4,
    "address": "8W23+FFC ตำบล ยี่สาร อำเภออัมพวา",
    "lat": 13.3012316,
    "lng": 99.90357910000002
  },
  {
    "mu_place": "ท้าวเวสสุวรรณ วัดจุฬามณี",
    "name": "ร้านอาหารครัวแม่อุไร",
    "rating": 4.4,
    "address": "84 4 ตำบล บ้านปรก อำเภอเมืองสมุทรสงคราม",
    "lat": 13.410067,
    "lng": 99.9773857
  },
  {
    "mu_place": "ท้าวเวสสุวรรณ วัดจุฬามณี",
    "name": "ร้านแดงอาหารทะเล (เจ้าเก่า)",
    "rating": 4.3,
    "address": "40/25 ถนน ราษฎร์ประสิทธิ์ ตำบล แม่กลอง อำเภอเมืองสมุทรสงคราม",
    "lat": 13.3879712,
    "lng": 99.98819089999999
  },
  {
    "mu_place": "ท้าวเวสสุวรรณ วัดจุฬามณี",
    "name": "ร้านอาหารเพื่อคุณดำเนินสะดวก",
    "rating": 4.4,
    "address": "60 หมู่3 ตำบล ท่านัด อำเภอดำเนินสะดวก",
    "lat": 13.5491599,
    "lng": 99.96145039999999
  },
  {
    "mu_place": "ท้าวเวสสุวรรณ วัดจุฬามณี",
    "name": "ร้านอาหารคุ้มพี่หลวง",
    "rating": 4.2,
    "address": "56 2 ตำบล ลาดใหญ่ เมือง",
    "lat": 13.4255093,
    "lng": 99.999826
  },
  {
    "mu_place": "ท้าวเวสสุวรรณ วัดจุฬามณี",
    "name": "ร้านอาหาร 3 ด.",
    "rating": 4.5,
    "address": "GRJC+2W5 ตำบล หน้าเมือง อำเภอเมืองราชบุรี",
    "lat": 13.5300113,
    "lng": 99.8223033
  },
  {
    "mu_place": "ท้าวเวสสุวรรณ วัดจุฬามณี",
    "name": "ร้านอาหารริมน้ำ",
    "rating": 4.3,
    "address": "9XVP+8M4 ตำบล แม่กลอง อำเภอเมืองสมุทรสงคราม",
    "lat": 13.3932627,
    "lng": 99.9866735
  },
  {
    "mu_place": "ท้าวเวสสุวรรณ วัดจุฬามณี",
    "name": "ร้านอาหารบางตะบูนเบย์",
    "rating": 4.4,
    "address": "14 ถนน พระครูวชิระกิจโกศล ตำบล บางตะบูน อำเภอ บ้านแหลม",
    "lat": 13.2671727,
    "lng": 99.93676839999999
  },
  {
    "mu_place": "ท้าวเวสสุวรรณ วัดจุฬามณี",
    "name": "ร้านอาหารเรือนป้าห่อ",
    "rating": 4.2,
    "address": "34 ถนน แม้นรำลึก ตำบล หน้าเมือง อำเภอเมืองราชบุรี",
    "lat": 13.5260266,
    "lng": 99.81811119999999
  },
  {
    "mu_place": "ท้าวเวสสุวรรณ วัดจุฬามณี",
    "name": "ร้านอาหารปีเถาะ",
    "rating": 4.1,
    "address": "GRCG+94C ตำบลดอนตะโก อำเภอเมืองราชบุรี",
    "lat": 13.5209435,
    "lng": 99.82525899999999
  },
  {
    "mu_place": "ท้าวเวสสุวรรณ วัดจุฬามณี",
    "name": "ร้านอาหารเจดีย์หักโภชนา ราชบุรี",
    "rating": 4.2,
    "address": "588 หมู่ 3 ตำบล เจดีย์หัก อำเภอเมืองราชบุรี",
    "lat": 13.5436979,
    "lng": 99.79590080000001
  },
  {
    "mu_place": "ท้าวเวสสุวรรณ วัดจุฬามณี",
    "name": "ร้านอาหารคลายเครียด",
    "rating": 4.5,
    "address": "GRH5+QPQ ตำบล หน้าเมือง อำเภอเมืองราชบุรี",
    "lat": 13.5294625,
    "lng": 99.8093648
  },
  {
    "mu_place": "ท้าวเวสสุวรรณ วัดจุฬามณี",
    "name": "ร้านอาหารเจ้าสำราญ",
    "rating": 4.1,
    "address": "14 ถนน พวงสมบูรณ์ ตำบล อัมพวา อำเภออัมพวา",
    "lat": 13.4242667,
    "lng": 99.9560813
  },
  {
    "mu_place": "ท้าวเวสสุวรรณ วัดจุฬามณี",
    "name": "ร้านอาหารเคียงทะเล",
    "rating": 4,
    "address": "ตำบล บางจะเกร็ง อำเภอเมืองสมุทรสงคราม",
    "lat": 13.3644664,
    "lng": 100.0256221
  },
  {
    "mu_place": "ท้าวเวสสุวรรณ วัดจุฬามณี",
    "name": "ร้านอาหารเจ๊ใจ ชายทะเลกาหลง",
    "rating": 4.5,
    "address": "58 4 ตำบล กาหลง อำเภอเมืองสมุทรสาคร",
    "lat": 13.4485203,
    "lng": 100.1506473
  },
  {
    "mu_place": "ท้าวเวสสุวรรณ วัดจุฬามณี",
    "name": "ร้านอาหารลอยแก้ว",
    "rating": 4,
    "address": "161/11-15 ซอย ชาวดิน ตำบล หน้าเมือง อำเภอเมืองราชบุรี",
    "lat": 13.5287437,
    "lng": 99.798425
  },
  {
    "mu_place": "ท้าวเวสสุวรรณ วัดจุฬามณี",
    "name": "ร้านอาหารลูกปลา",
    "rating": 4,
    "address": "F473+W8Q ตำบล นาโคก อำเภอเมืองสมุทรสาคร",
    "lat": 13.4649102,
    "lng": 100.1033334
  },
  {
    "mu_place": "ท้าวเวสสุวรรณ วัดจุฬามณี",
    "name": "ร้านอาหารสามัญชน",
    "rating": 4.2,
    "address": "389 Moo 3 ตำบล หน้าเมือง อำเภอเมืองราชบุรี",
    "lat": 13.5233117,
    "lng": 99.8156051
  },
  {
    "mu_place": "ท้าวเวสสุวรรณ วัดจุฬามณี",
    "name": "ร้านอาหารเรือนวารี",
    "rating": 4.2,
    "address": "153 2 ตำบล แม่กลอง อำเภอเมือง",
    "lat": 13.3871166,
    "lng": 99.9835284
  },
  {
    "mu_place": "ท้าวเวสสุวรรณ วัดจุฬามณี",
    "name": "ร้านอาหารขวัญดำเนิน (แยกไฟแดง)Kwan Damnoen (original).",
    "rating": 4.2,
    "address": "33 หมู่ 9 ถนนแม่กลอง-บางแพ แยกทางเข้าตลาดน้ำดำเนินสะดวก ตำบล ดำเนินสะดวก อำเภอดำเนินสะดวก",
    "lat": 13.5236941,
    "lng": 99.97038590000001
  },
  {
    "mu_place": "หลวงพ่อปลดหนี้ วัดห้วยน้ำทรัพย์ หรือ วัดพระธาตุวาโย",
    "name": "ร้านอาหารบ้านปรุงแต่ง",
    "rating": 4.8,
    "address": "HFF3+PF7 ตำบล ลาดกระทิง อำเภอสนามชัยเขต",
    "lat": 13.5742833,
    "lng": 101.4536621
  },
  {
    "mu_place": "หลวงพ่อปลดหนี้ วัดห้วยน้ำทรัพย์ หรือ วัดพระธาตุวาโย",
    "name": "สวนอาหารบึงบัว",
    "rating": 4.1,
    "address": "97XM+X65 ตำบลท่าบุญมี อำเภอเกาะจันทร์",
    "lat": 13.3999161,
    "lng": 101.2831789
  },
  {
    "mu_place": "หลวงพ่อปลดหนี้ วัดห้วยน้ำทรัพย์ หรือ วัดพระธาตุวาโย",
    "name": "ร้านเจ้อ๋อ อาหารตามสั่ง ข้าวต้มทะเล",
    "rating": 4.4,
    "address": "ตำบล คลองตะเกรา อำเภอท่าตะเกียบ",
    "lat": 13.4415525,
    "lng": 101.6130122
  },
  {
    "mu_place": "หลวงพ่อปลดหนี้ วัดห้วยน้ำทรัพย์ หรือ วัดพระธาตุวาโย",
    "name": "ครัวเล็กเล็ก",
    "rating": 4.5,
    "address": "75/2 หมู่6 ,ตำบล ท่าถ่าน อำเภอ พนมสารคาม ฉะเชิงเทรา 24120 ท่าถ่าน อำเภอพนมสารคาม",
    "lat": 13.7124711,
    "lng": 101.3500882
  },
  {
    "mu_place": "หลวงพ่อปลดหนี้ วัดห้วยน้ำทรัพย์ หรือ วัดพระธาตุวาโย",
    "name": "ร้านอาหารน้องพร ตำบลเกาะจันทร์",
    "rating": 4.4,
    "address": "C87W+RJH 3341 ตำบล เกาะจันทร์ อำเภอเกาะจันทร์",
    "lat": 13.4147602,
    "lng": 101.3466032
  },
  {
    "mu_place": "หลวงพ่อปลดหนี้ วัดห้วยน้ำทรัพย์ หรือ วัดพระธาตุวาโย",
    "name": "ครัวร่มไม้ชายคลอง",
    "rating": 4.2,
    "address": "P8QW+7RX ตำบล ท่าถ่าน อำเภอพนมสารคาม",
    "lat": 13.7382325,
    "lng": 101.3471087
  },
  {
    "mu_place": "หลวงพ่อปลดหนี้ วัดห้วยน้ำทรัพย์ หรือ วัดพระธาตุวาโย",
    "name": "ร้านอาหารป่า",
    "rating": 4.3,
    "address": "J83G+VXR ซอย เกตเวย์ซิตี้ใต้ ตำบล หัวสำโรง อำเภอแปลงยาว",
    "lat": 13.6047459,
    "lng": 101.3274032
  },
  {
    "mu_place": "หลวงพ่อปลดหนี้ วัดห้วยน้ำทรัพย์ หรือ วัดพระธาตุวาโย",
    "name": "ร้านอาหารเจ๊จง",
    "rating": 4.2,
    "address": "H7XG+72F ตำบล แปลงยาว อำเภอแปลงยาว",
    "lat": 13.5981806,
    "lng": 101.2750466
  },
  {
    "mu_place": "หลวงพ่อปลดหนี้ วัดห้วยน้ำทรัพย์ หรือ วัดพระธาตุวาโย",
    "name": "ร้านดวงพร",
    "rating": 4.1,
    "address": "C8FW+J3C ตำบล เกาะจันทร์ อำเภอเกาะจันทร์",
    "lat": 13.424068,
    "lng": 101.3451514
  },
  {
    "mu_place": "หลวงพ่อปลดหนี้ วัดห้วยน้ำทรัพย์ หรือ วัดพระธาตุวาโย",
    "name": "ร้านอาหารครัวอุษา",
    "rating": 4.5,
    "address": "F6MW+7CC ตำบลหนองเหียง อำเภอพนัสนิคม",
    "lat": 13.4832128,
    "lng": 101.2460142
  },
  {
    "mu_place": "หลวงพ่อปลดหนี้ วัดห้วยน้ำทรัพย์ หรือ วัดพระธาตุวาโย",
    "name": "ร้านอาหารตามสั่งหมูนุ่มบ้านนอก",
    "rating": 4.8,
    "address": "J7VQ+P2G Unnamed Road ตำบล หัวสำโรง อำเภอแปลงยาว",
    "lat": 13.6443068,
    "lng": 101.287572
  },
  {
    "mu_place": "หลวงพ่อปลดหนี้ วัดห้วยน้ำทรัพย์ หรือ วัดพระธาตุวาโย",
    "name": "ครัวลุงเปีย",
    "rating": 4.1,
    "address": "50 ตำบล หนองแหน อำเภอพนมสารคาม",
    "lat": 13.6448044,
    "lng": 101.3423707
  },
  {
    "mu_place": "หลวงพ่อปลดหนี้ วัดห้วยน้ำทรัพย์ หรือ วัดพระธาตุวาโย",
    "name": "ครัวตัวเอ็ม",
    "rating": 4.4,
    "address": "หมู่18 168/4 ตำบล คลองตะเกรา อำเภอท่าตะเกียบ",
    "lat": 13.4417154,
    "lng": 101.6119751
  },
  {
    "mu_place": "หลวงพ่อปลดหนี้ วัดห้วยน้ำทรัพย์ หรือ วัดพระธาตุวาโย",
    "name": "ครัวสวนป่าสัก",
    "rating": 4.3,
    "address": "HFG4+5FX ตำบล ลาดกระทิง อำเภอสนามชัยเขต",
    "lat": 13.5755135,
    "lng": 101.4562783
  },
  {
    "mu_place": "หลวงพ่อปลดหนี้ วัดห้วยน้ำทรัพย์ หรือ วัดพระธาตุวาโย",
    "name": "สวนอาหารบ้านใหม่",
    "rating": 4.5,
    "address": "P75X+C6Q ตำบลเมืองเก่า อำเภอพนมสารคาม",
    "lat": 13.7086195,
    "lng": 101.2981573
  },
  {
    "mu_place": "หลวงพ่อปลดหนี้ วัดห้วยน้ำทรัพย์ หรือ วัดพระธาตุวาโย",
    "name": "ร้านธรรมดาดี",
    "rating": 4.2,
    "address": "3245 ตำบล พนมสารคาม อำเภอพนมสารคาม",
    "lat": 13.7456036,
    "lng": 101.3310054
  },
  {
    "mu_place": "หลวงพ่อปลดหนี้ วัดห้วยน้ำทรัพย์ หรือ วัดพระธาตุวาโย",
    "name": "ร้านบ้านห้วยพลู",
    "rating": 4.5,
    "address": "MCF2+8GW ฉช.3017 ตำบล เกาะขนุน อำเภอพนมสารคาม",
    "lat": 13.6733591,
    "lng": 101.401344
  },
  {
    "mu_place": "หลวงพ่อปลดหนี้ วัดห้วยน้ำทรัพย์ หรือ วัดพระธาตุวาโย",
    "name": "ร้านแปด โภชนา",
    "rating": 3.9,
    "address": "PFHG+98W 331 ตำบล เขาหินซ้อน อำเภอพนมสารคาม",
    "lat": 13.7284111,
    "lng": 101.4758552
  },
  {
    "mu_place": "หลวงพ่อปลดหนี้ วัดห้วยน้ำทรัพย์ หรือ วัดพระธาตุวาโย",
    "name": "ร้านเยาวมาลย์ชวนชิม",
    "rating": 4.1,
    "address": "HCPR+5V5 ตำบล ลาดกระทิง อำเภอสนามชัยเขต",
    "lat": 13.5853872,
    "lng": 101.442238
  },
  {
    "mu_place": "หลวงพ่อปลดหนี้ วัดห้วยน้ำทรัพย์ หรือ วัดพระธาตุวาโย",
    "name": "ร้านอาหารเจ๊จิตร",
    "rating": 4.1,
    "address": "H737+XR4 ตำบล สระสี่เหลี่ยม อำเภอพนัสนิคม",
    "lat": 13.554882,
    "lng": 101.2645776
  },
  {
    "mu_place": "ลานพญาศรีสัตตนาคราช",
    "name": "ยอดฟ้า ร้านอาหาร",
    "rating": 3.8,
    "address": "140 บำรุงเมือง ตำบล ในเมือง อำเภอเมืองนครพนม",
    "lat": 17.4033704,
    "lng": 104.7851466
  },
  {
    "mu_place": "ลานพญาศรีสัตตนาคราช",
    "name": "ร้านอาหารสามเด้ง",
    "rating": 4.1,
    "address": "ที่ว่าการอำเภอเมืองนครพนม 68/2 ในเมือง อำเภอเมืองนครพนม",
    "lat": 17.4049985,
    "lng": 104.7843911
  },
  {
    "mu_place": "ลานพญาศรีสัตตนาคราช",
    "name": "ครัวริมโขง อาหารตามสั่ง",
    "rating": 5,
    "address": "CQ9H+8FW ถ. ชยางกูร ตำบล ในเมือง อำเภอเมืองนครพนม",
    "lat": 17.4183179,
    "lng": 104.7785957
  },
  {
    "mu_place": "ลานพญาศรีสัตตนาคราช",
    "name": "ร้านอาหารระเบียงโขง นครพนม",
    "rating": 4.3,
    "address": "137 ถนน สุนทรวิจิตร ในเมือง เมือง",
    "lat": 17.4056697,
    "lng": 104.7869915
  },
  {
    "mu_place": "ลานพญาศรีสัตตนาคราช",
    "name": "ร้านอาหารเรือนริมน้ำ",
    "rating": 3.8,
    "address": "83 ถนน สุนทรวิจิตร ตำบล ในเมือง อำเภอเมืองนครพนม",
    "lat": 17.4188371,
    "lng": 104.7782598
  },
  {
    "mu_place": "ลานพญาศรีสัตตนาคราช",
    "name": "สบายดี นครพนม",
    "rating": 4.3,
    "address": "414 6 ถนน สุนทรวิจิตร ตำบล ในเมือง อำเภอเมืองนครพนม",
    "lat": 17.4052706,
    "lng": 104.7869671
  },
  {
    "mu_place": "ลานพญาศรีสัตตนาคราช",
    "name": "ร้านเป๋นปลาเป็น",
    "rating": 4.4,
    "address": "115 หมู่ที่ 6 หมู่บ้าน อาจสามารถ ตำบล อาจสามารถ อำเภอเมืองนครพนม",
    "lat": 17.4497508,
    "lng": 104.7470192
  },
  {
    "mu_place": "ลานพญาศรีสัตตนาคราช",
    "name": "ร้าน ชมจันทร์",
    "rating": 3.9,
    "address": "ตำบล ในเมือง อำเภอเมืองนครพนม",
    "lat": 17.4156143,
    "lng": 104.780432
  },
  {
    "mu_place": "ลานพญาศรีสัตตนาคราช",
    "name": "ร้านอาหารจำปาสัก นครพนม",
    "rating": 3.8,
    "address": "CQ4P+5PX ซอย สุนทรวิจิตร ตำบล ในเมือง อำเภอเมืองนครพนม",
    "lat": 17.4054996,
    "lng": 104.786849
  },
  {
    "mu_place": "ลานพญาศรีสัตตนาคราช",
    "name": "ร้านอาหารสวนรุ่งเรือง",
    "rating": 3.8,
    "address": "64/2 ถ. ชยางกูร ในเมือง เมือง",
    "lat": 17.3736098,
    "lng": 104.7927629
  },
  {
    "mu_place": "ลานพญาศรีสัตตนาคราช",
    "name": "ร้านอาหารตามสั่ง",
    "rating": 3.4,
    "address": "50 1 ตำบล ในเมือง อำเภอเมืองนครพนม",
    "lat": 17.4046946,
    "lng": 104.7848075
  },
  {
    "mu_place": "ลานพญาศรีสัตตนาคราช",
    "name": "สามอนงค์",
    "rating": 4.3,
    "address": "5/4 ซอย สมุทรบรรหาร ตำบล ในเมือง อำเภอเมืองนครพนม",
    "lat": 17.4136875,
    "lng": 104.7813377
  },
  {
    "mu_place": "ลานพญาศรีสัตตนาคราช",
    "name": "ร้านอาหารบ้านลุงหมาน",
    "rating": 4.3,
    "address": "9QMV+J9R ทางหลวงจังหวัด นครพนม-มุกดาหาร ตำบล ในเมือง อำเภอเมืองนครพนม",
    "lat": 17.3841173,
    "lng": 104.793393
  },
  {
    "mu_place": "ลานพญาศรีสัตตนาคราช",
    "name": "ร้านอาหารต้นคูณ กาแฟโบราณ",
    "rating": 4.8,
    "address": "197 หมู่ที่ 1 บ.ดงโชค ตำบล หนองญาติ เมือง",
    "lat": 17.3592052,
    "lng": 104.7606623
  },
  {
    "mu_place": "ลานพญาศรีสัตตนาคราช",
    "name": "ริมน้ำริเวอร์ไซด์ นครพนม by เรือนริมน้ำ",
    "rating": 4.1,
    "address": "9/6 ถนนนครพนม-ท่าอุเทน อาจสามารถ อำเภอเมืองนครพนม",
    "lat": 17.4397393,
    "lng": 104.7530522
  },
  {
    "mu_place": "ลานพญาศรีสัตตนาคราช",
    "name": "ร้านอาหารสตางค์",
    "rating": 4.3,
    "address": "9QRR+RXM ตำบล ในเมือง อำเภอเมืองนครพนม",
    "lat": 17.3920154,
    "lng": 104.7924441
  },
  {
    "mu_place": "ลานพญาศรีสัตตนาคราช",
    "name": "ร้านอาหารป้าลำใย",
    "rating": 4,
    "address": "FPGG+QC4 ตำบล อาจสามารถ อำเภอเมืองนครพนม",
    "lat": 17.4768788,
    "lng": 104.7260397
  },
  {
    "mu_place": "ลานพญาศรีสัตตนาคราช",
    "name": "River Bar & Restaurant",
    "rating": 4.2,
    "address": "ตำบล ในเมือง อำเภอเมืองนครพนม",
    "lat": 17.3762316,
    "lng": 104.7937829
  },
  {
    "mu_place": "ลานพญาศรีสัตตนาคราช",
    "name": "ร้าน จ๊ะเอ๋อาหารไทย",
    "rating": 4.7,
    "address": "CQ2H+2G3 เฟื่องนคร ตำบล ในเมือง อำเภอเมืองนครพนม",
    "lat": 17.3999989,
    "lng": 104.77881
  },
  {
    "mu_place": "ลานพญาศรีสัตตนาคราช",
    "name": "ร้านอาหารเจ้าสำราญ",
    "rating": 4.9,
    "address": "132 อาจสามารถ ตำบล อาจสามารถ เมือง",
    "lat": 17.4519939,
    "lng": 104.7461013
  },
  {
    "mu_place": "วัดธารทหาร (ห้วยด้วน) หลวงพ่อพัฒน์ ปุญญกาโม",
    "name": "ร้านอาหารครูณี",
    "rating": 4.2,
    "address": "JFQH+QQC ตำบล ท่าตะโก อำเภอ ท่าตะโก",
    "lat": 15.6394392,
    "lng": 100.4794061
  },
  {
    "mu_place": "วัดธารทหาร (ห้วยด้วน) หลวงพ่อพัฒน์ ปุญญกาโม",
    "name": "ครัวจิตตมาส",
    "rating": 4.4,
    "address": "199/2 หมู่ที่ 12 ตำบล หนองกลับ อำเภอ หนองบัว",
    "lat": 15.8716583,
    "lng": 100.606175
  },
  {
    "mu_place": "วัดธารทหาร (ห้วยด้วน) หลวงพ่อพัฒน์ ปุญญกาโม",
    "name": "คนกันเอง อาหารตามสั่ง",
    "rating": 4.1,
    "address": "WPPX+RH2 ตำบล ทุ่งทอง อำเภอ หนองบัว",
    "lat": 15.9370363,
    "lng": 100.7488802
  },
  {
    "mu_place": "วัดธารทหาร (ห้วยด้วน) หลวงพ่อพัฒน์ ปุญญกาโม",
    "name": "ร้านอาหารหนุ่มสยาม",
    "rating": 4.1,
    "address": "VJ95+4GC ตำบล หนองกลับ อำเภอ หนองบัว",
    "lat": 15.8678179,
    "lng": 100.6087597
  },
  {
    "mu_place": "วัดธารทหาร (ห้วยด้วน) หลวงพ่อพัฒน์ ปุญญกาโม",
    "name": "ร้านฉำฉา 2",
    "rating": 4.3,
    "address": "599/8 หมู่3 หนองกลับ อำเภอ หนองบัว",
    "lat": 15.867503,
    "lng": 100.611608
  },
  {
    "mu_place": "วัดธารทหาร (ห้วยด้วน) หลวงพ่อพัฒน์ ปุญญกาโม",
    "name": "สวนอาหารคุณเล็ก",
    "rating": 2.3,
    "address": "JHFF+7C6 ตำบล โคกเดื่อ อำเภอ ไพศาลี",
    "lat": 15.6231589,
    "lng": 100.5735339
  },
  {
    "mu_place": "วัดธารทหาร (ห้วยด้วน) หลวงพ่อพัฒน์ ปุญญกาโม",
    "name": "ร้านอาหารมาลอง Ma'Long ท่าตะโก",
    "rating": 4,
    "address": "JFPH+P35 แก้วหมื่นราม ตำบล ท่าตะโก อำเภอ ท่าตะโก",
    "lat": 15.6367537,
    "lng": 100.4777387
  },
  {
    "mu_place": "วัดธารทหาร (ห้วยด้วน) หลวงพ่อพัฒน์ ปุญญกาโม",
    "name": "ร้านอนงค์โภชนา",
    "rating": 4.1,
    "address": "JFQJ+XR7 ตำบล ท่าตะโก อำเภอ ท่าตะโก",
    "lat": 15.639899,
    "lng": 100.4820534
  },
  {
    "mu_place": "วัดธารทหาร (ห้วยด้วน) หลวงพ่อพัฒน์ ปุญญกาโม",
    "name": "ร้านลุงดุลย์ก๋วยเตี๋ยวไก่มะระอาหารตามสั่ง",
    "rating": 4.8,
    "address": "VH8V+CXQ ตำบล หนองกลับ อำเภอ หนองบัว",
    "lat": 15.8660813,
    "lng": 100.595004
  },
  {
    "mu_place": "วัดธารทหาร (ห้วยด้วน) หลวงพ่อพัฒน์ ปุญญกาโม",
    "name": "ร้านอาหารแซบอีหลี",
    "rating": 4.3,
    "address": "VH7H+XJ6 ตำบล หนองบัว อำเภอ หนองบัว",
    "lat": 15.8649238,
    "lng": 100.5790246
  },
  {
    "mu_place": "วัดธารทหาร (ห้วยด้วน) หลวงพ่อพัฒน์ ปุญญกาโม",
    "name": "ร้านอาหาร ครัว 3อ.อ่าง",
    "rating": 3,
    "address": "VH5J+3HC 1119 ตำบล หนองบัว อำเภอ หนองบัว",
    "lat": 15.8577018,
    "lng": 100.5813789
  },
  {
    "mu_place": "วัดธารทหาร (ห้วยด้วน) หลวงพ่อพัฒน์ ปุญญกาโม",
    "name": "แต้วชวนชิม",
    "rating": 4.6,
    "address": "186 ตำบล ธารทหาร อำเภอ หนองบัว",
    "lat": 15.8083822,
    "lng": 100.5498249
  },
  {
    "mu_place": "วัดธารทหาร (ห้วยด้วน) หลวงพ่อพัฒน์ ปุญญกาโม",
    "name": "ร้านคุณเอส",
    "rating": 4.5,
    "address": "WJF7+X3R ตำบล หนองกลับ อำเภอ หนองบัว",
    "lat": 15.9249788,
    "lng": 100.6126529
  },
  {
    "mu_place": "วัดธารทหาร (ห้วยด้วน) หลวงพ่อพัฒน์ ปุญญกาโม",
    "name": "ร้านอาหารบ้านเพื่อน",
    "rating": 4.3,
    "address": "JFVR+3X4 ตำบล ท่าตะโก อำเภอ ท่าตะโก",
    "lat": 15.6426467,
    "lng": 100.4924545
  },
  {
    "mu_place": "วัดธารทหาร (ห้วยด้วน) หลวงพ่อพัฒน์ ปุญญกาโม",
    "name": "สุปราณี อาหารสด",
    "rating": 4.4,
    "address": "JFPH+JH2 แก้วหมื่นราม ตำบล ท่าตะโก อำเภอ ท่าตะโก",
    "lat": 15.6365052,
    "lng": 100.4788741
  },
  {
    "mu_place": "วัดธารทหาร (ห้วยด้วน) หลวงพ่อพัฒน์ ปุญญกาโม",
    "name": "ร้านอาหารพาฝัน",
    "rating": 5,
    "address": "7, ตำบล หนองบัว อำเภอ หนองบัว",
    "lat": 15.8661688,
    "lng": 100.5739868
  },
  {
    "mu_place": "วัดธารทหาร (ห้วยด้วน) หลวงพ่อพัฒน์ ปุญญกาโม",
    "name": "แชมป์โภชนา",
    "rating": 4.6,
    "address": "259/29 ตำบล หนองกลับ อำเภอ หนองบัว",
    "lat": 15.8658376,
    "lng": 100.5900147
  },
  {
    "mu_place": "วัดธารทหาร (ห้วยด้วน) หลวงพ่อพัฒน์ ปุญญกาโม",
    "name": "ร้านอาหารครัวลาภปาก",
    "rating": 3.9,
    "address": "JFRR+CFJ ตำบล ท่าตะโก อำเภอ ท่าตะโก",
    "lat": 15.6410834,
    "lng": 100.4912039
  },
  {
    "mu_place": "วัดธารทหาร (ห้วยด้วน) หลวงพ่อพัฒน์ ปุญญกาโม",
    "name": "เจ้มาดี อาหารตามสั่ง",
    "rating": 0,
    "address": "ตำบล ห้วยพุก อำเภอ ดงเจริญ",
    "lat": 15.9754047,
    "lng": 100.5758299
  },
  {
    "mu_place": "วัดธารทหาร (ห้วยด้วน) หลวงพ่อพัฒน์ ปุญญกาโม",
    "name": "ร้านอาหารFcพี่จุ๋มพริ้ง",
    "rating": 5,
    "address": "หมู่ 8 ต พนม รก อ อำเภอ ท่าตะโก",
    "lat": 15.7313019,
    "lng": 100.5067753
  },
  {
    "mu_place": "หลวงพ่อฤาษีลิงดำ( พระราชพรหมยาน)",
    "name": "ร้านอาหารต้นตะขบ",
    "rating": 4.2,
    "address": "557Q+6X9 ตำบล บางหลวง อำเภอสรรพยา",
    "lat": 15.163027,
    "lng": 100.1899815
  },
  {
    "mu_place": "หลวงพ่อฤาษีลิงดำ( พระราชพรหมยาน)",
    "name": "ร้านอาหารเพื่อน",
    "rating": 4.3,
    "address": "99 พิบูลย์ศิริ พิบูลย์ศิริ ตำบล อุทัยใหม่ อำเภอเมืองอุทัยธานี",
    "lat": 15.3751407,
    "lng": 100.0294173
  },
  {
    "mu_place": "หลวงพ่อฤาษีลิงดำ( พระราชพรหมยาน)",
    "name": "ร้านอาหารครัวโบราณ(พยุหคีรี)",
    "rating": 4.1,
    "address": "C4WM+57F ตำบล พยุหะ อำเภอพยุหะคีรี",
    "lat": 15.445438,
    "lng": 100.1333029
  },
  {
    "mu_place": "หลวงพ่อฤาษีลิงดำ( พระราชพรหมยาน)",
    "name": "ร้านอาหารป้าสำราญ",
    "rating": 4.1,
    "address": "93FC+7WP ตำบล เกาะเทโพ อำเภอเมืองอุทัยธานี",
    "lat": 15.3732038,
    "lng": 100.072303
  },
  {
    "mu_place": "หลวงพ่อฤาษีลิงดำ( พระราชพรหมยาน)",
    "name": "ร้านอาหารเกษยานันท์",
    "rating": 3.9,
    "address": "54PF+42C ตำบล ในเมือง อำเภอเมืองชัยนาท",
    "lat": 15.1853084,
    "lng": 100.1225078
  },
  {
    "mu_place": "หลวงพ่อฤาษีลิงดำ( พระราชพรหมยาน)",
    "name": "ร้านอาหารน้องอุ๋ม",
    "rating": 4.2,
    "address": "93HF+C57 ตำบล เกาะเทโพ อำเภอเมืองอุทัยธานี",
    "lat": 15.3785347,
    "lng": 100.0729127
  },
  {
    "mu_place": "หลวงพ่อฤาษีลิงดำ( พระราชพรหมยาน)",
    "name": "ร้านอาหารสมบัติ ชวนชิม",
    "rating": 4.4,
    "address": "93GC+4XR Chao Phraya River, ตำบล เกาะเทโพ อำเภอเมืองอุทัยธานี",
    "lat": 15.3753547,
    "lng": 100.0723952
  },
  {
    "mu_place": "หลวงพ่อฤาษีลิงดำ( พระราชพรหมยาน)",
    "name": "ร้านอาหารปุ๊",
    "rating": 4.5,
    "address": "เลขที่ 335 5 ตำบล บ้านกล้วย อำเภอเมืองชัยนาท",
    "lat": 15.1897939,
    "lng": 100.1306848
  },
  {
    "mu_place": "หลวงพ่อฤาษีลิงดำ( พระราชพรหมยาน)",
    "name": "Saeng Duan Restaurant",
    "rating": 4.3,
    "address": "9362+G27 ตำบล น้ำซึม อำเภอเมืองอุทัยธานี",
    "lat": 15.3612869,
    "lng": 100.0500476
  },
  {
    "mu_place": "หลวงพ่อฤาษีลิงดำ( พระราชพรหมยาน)",
    "name": "ร้านอาหารหอมไกล",
    "rating": 3.6,
    "address": "7365+2Q9 ตำบล มะขามเฒ่า อำเภอ วัดสิงห์",
    "lat": 15.2600301,
    "lng": 100.0594633
  },
  {
    "mu_place": "หลวงพ่อฤาษีลิงดำ( พระราชพรหมยาน)",
    "name": "ร้านป้าเจนครัวริมน้ำ",
    "rating": 4.1,
    "address": "547M+G5Q ตำบล ท่าชัย อำเภอเมืองชัยนาท",
    "lat": 15.1637947,
    "lng": 100.1329951
  },
  {
    "mu_place": "หลวงพ่อฤาษีลิงดำ( พระราชพรหมยาน)",
    "name": "ร้านอาหารหนิง",
    "rating": 5,
    "address": "646J+7H9 ตำบล เขาท่าพระ อำเภอเมืองชัยนาท",
    "lat": 15.2106865,
    "lng": 100.1314604
  },
  {
    "mu_place": "หลวงพ่อฤาษีลิงดำ( พระราชพรหมยาน)",
    "name": "ร้านอาหารเรือนไม้ริมน้ำ",
    "rating": 4.2,
    "address": "187 ตำบล น้ำซึม เมือง",
    "lat": 15.3470578,
    "lng": 100.0612932
  },
  {
    "mu_place": "หลวงพ่อฤาษีลิงดำ( พระราชพรหมยาน)",
    "name": "ร้านอาหารปรียนันท์",
    "rating": 4.3,
    "address": "C4QV+PJH ตำบล พยุหะ อำเภอพยุหะคีรี",
    "lat": 15.439323,
    "lng": 100.1441257
  },
  {
    "mu_place": "หลวงพ่อฤาษีลิงดำ( พระราชพรหมยาน)",
    "name": "นกน้อย สวนอาหาร",
    "rating": 4.1,
    "address": "9 4 ศรีอุทัย ตำบล อุทัยใหม่ อำเภอเมืองอุทัยธานี",
    "lat": 15.3695565,
    "lng": 100.0449475
  },
  {
    "mu_place": "หลวงพ่อฤาษีลิงดำ( พระราชพรหมยาน)",
    "name": "ร้านอาหารบ้านสวน",
    "rating": 4.2,
    "address": "54FG+4XG ตำบล ในเมือง อำเภอเมืองชัยนาท",
    "lat": 15.1728128,
    "lng": 100.1274416
  },
  {
    "mu_place": "หลวงพ่อฤาษีลิงดำ( พระราชพรหมยาน)",
    "name": "ร้านอาหารเฟรชชี่",
    "rating": 4.2,
    "address": "92HG+48H ตำบล อุทัยใหม่ อำเภอเมืองอุทัยธานี",
    "lat": 15.3778182,
    "lng": 100.0258651
  },
  {
    "mu_place": "หลวงพ่อฤาษีลิงดำ( พระราชพรหมยาน)",
    "name": "ร้านอาหารครัวทิดเทือง",
    "rating": 4.2,
    "address": "2/3 หมู่ 1 ต.ท่าน้ำอ้อย อ.พยุหะคีรี",
    "lat": 15.4274496,
    "lng": 100.1379583
  },
  {
    "mu_place": "หลวงพ่อฤาษีลิงดำ( พระราชพรหมยาน)",
    "name": "ครัวคุ้งสำเภา",
    "rating": 4.3,
    "address": "833H+QJF ตำบล ท่าซุง อำเภอเมืองอุทัยธานี",
    "lat": 15.3044369,
    "lng": 100.0790488
  },
  {
    "mu_place": "หลวงพ่อฤาษีลิงดำ( พระราชพรหมยาน)",
    "name": "ร้านอาหารชบา ชัยนาท",
    "rating": 3.9,
    "address": "180 ตำบล บ้านกล้วย อำเภอเมืองชัยนาท",
    "lat": 15.1565762,
    "lng": 100.1617535
  },
  {
    "mu_place": "วัดสายไหม",
    "name": "ร้านอาหารเพลิน",
    "rating": 4.2,
    "address": "7/428 ถนน วิภาวดีรังสิต แขวงจตุจักร เขตจตุจักร",
    "lat": 13.8259653,
    "lng": 100.5571122
  },
  {
    "mu_place": "วัดสายไหม",
    "name": "Chantana - ร้านอาหาร จันทนา",
    "rating": 4.3,
    "address": "852 854 ถ. ประชาอุทิศ แขวงสามเสนนอก เขตห้วยขวาง",
    "lat": 13.7690873,
    "lng": 100.5903625
  },
  {
    "mu_place": "วัดสายไหม",
    "name": "ร้านอาหารแม่น้ำ ปทุมธานี",
    "rating": 4.9,
    "address": "อาคารเรือนแพขาว ตำบล บางปรอก อำเภอเมืองปทุมธานี",
    "lat": 14.0218219,
    "lng": 100.5351672
  },
  {
    "mu_place": "วัดสายไหม",
    "name": "ร้านอาหารหลานโกฮับ",
    "rating": 4.1,
    "address": "RMVF+369 ถนนวงแหวนรอบนอกตะวันออก แขวงคันนายาว เขตคันนายาว",
    "lat": 13.8426082,
    "lng": 100.6731185
  },
  {
    "mu_place": "วัดสายไหม",
    "name": "กินลมชมสะพาน",
    "rating": 4.1,
    "address": "11 6 ถนนจักรพงษ์ แขวงวัดสามพระยา เขตพระนคร",
    "lat": 13.7666469,
    "lng": 100.497129
  },
  {
    "mu_place": "วัดสายไหม",
    "name": "ร้านอาหาร สามเสนวิลล่า พญาไท",
    "rating": 4.5,
    "address": "49/2 ถนน เศรษฐศิริ แขวงพญาไท เขตพญาไท",
    "lat": 13.7806484,
    "lng": 100.5318687
  },
  {
    "mu_place": "วัดสายไหม",
    "name": "ร้านอาหาร ครัวสายไหม",
    "rating": 4.2,
    "address": "6/31 ซอย สายไหม 32 ถนน สายไหม แขวงสายไหม เขตสายไหม",
    "lat": 13.9212257,
    "lng": 100.644538
  },
  {
    "mu_place": "วัดสายไหม",
    "name": "ร้านอาหารมุมทอง",
    "rating": 4.1,
    "address": "155/51 หมู่ 5 หมู่บ้านสมชาย ตำบลบางกรวย อำเภอบางกรวย",
    "lat": 13.8083203,
    "lng": 100.4986441
  },
  {
    "mu_place": "วัดสายไหม",
    "name": "บ้านตา-ยาย ร้านอาหารไทย",
    "rating": 4.4,
    "address": "10 ซอย วิภาวดีรังสิต 13 แขวงจตุจักร เขตจตุจักร",
    "lat": 13.8222788,
    "lng": 100.557107
  },
  {
    "mu_place": "วัดสายไหม",
    "name": "กังตงย้ง ร้านอาหาร",
    "rating": 4.3,
    "address": "12120 ถนน พหลโยธิน 54 1 ตำบล คลองสาม อำเภอคลองหลวง",
    "lat": 14.0232524,
    "lng": 100.6632695
  },
  {
    "mu_place": "วัดสายไหม",
    "name": "ร้านอาหารประพักตร์",
    "rating": 4.3,
    "address": "89/165 ถนน เทศบาลสงเคราะห์ แขวงลาดยาว เขตจตุจักร",
    "lat": 13.8406963,
    "lng": 100.552399
  },
  {
    "mu_place": "วัดสายไหม",
    "name": "ร้านอาหารคุณอี้ด",
    "rating": 3.8,
    "address": "23, 8 ซอย งามวงศ์วาน 54 แยก 1 แขวงลาดยาว เขตจตุจักร",
    "lat": 13.83962,
    "lng": 100.569853
  },
  {
    "mu_place": "วัดสายไหม",
    "name": "ร้านอาหารครัวคุณไก่",
    "rating": 4.3,
    "address": "เลขที่ 489-491 อำเภอธัญบุรี",
    "lat": 13.9897632,
    "lng": 100.6398132
  },
  {
    "mu_place": "วัดสายไหม",
    "name": "ร้านอาหารข้าวใหม่",
    "rating": 4.6,
    "address": "RHMH+3CX แขวงจันทรเกษม เขตจตุจักร",
    "lat": 13.8327455,
    "lng": 100.578617
  },
  {
    "mu_place": "วัดสายไหม",
    "name": "ร้านอาหารโอมออม OHM AOM",
    "rating": 4,
    "address": "ร้านวิเชียรเคหะภัณฑ์ ตำบล คลองสาม อำเภอคลองหลวง",
    "lat": 14.0186076,
    "lng": 100.6635905
  },
  {
    "mu_place": "วัดสายไหม",
    "name": "ร้านอาหาร เอ้เต",
    "rating": 3.9,
    "address": "56 ซอย สมปรารถนา แขวงดินแดง เขตดินแดง",
    "lat": 13.7675246,
    "lng": 100.559853
  },
  {
    "mu_place": "วัดสายไหม",
    "name": "ร้านอาหารไก่เพชร",
    "rating": 4.3,
    "address": "7 6 ซอย ลาดพร้าว 8 แยก 3 แขวงจอมพล เขตจตุจักร",
    "lat": 13.8103274,
    "lng": 100.5642949
  },
  {
    "mu_place": "วัดสายไหม",
    "name": "ร้านอาหาร เมลโล่การ์เด้น",
    "rating": 4.5,
    "address": "10/804 เกษตร - นวมินทร์ แขวงนวลจันทร์ เขตบึงกุ่ม",
    "lat": 13.8276017,
    "lng": 100.6307115
  },
  {
    "mu_place": "วัดสายไหม",
    "name": "ร้านอาหารริมชล",
    "rating": 4.4,
    "address": "811 ถ. นครไชยศรี แขวงถนนนครไชยศรี เขตดุสิต",
    "lat": 13.7894495,
    "lng": 100.5104817
  },
  {
    "mu_place": "วัดสายไหม",
    "name": "หมีแฟมิลี่ สาขา ประชาชื่น",
    "rating": 4.6,
    "address": "280/1 ถ. ประชาชื่น แขวงจตุจักร เขตจตุจักร",
    "lat": 13.8232274,
    "lng": 100.5384329
  },
  {
    "mu_place": "พุทธสถาน จีเต็กลิ้ม",
    "name": "ร้าน ศ พิสดาร",
    "rating": 3.9,
    "address": "133 23-24 ถ. สุวรรณศร ตำบล บ้านใหญ่ อำเภอเมืองนครนายก",
    "lat": 14.2069432,
    "lng": 101.2169531
  },
  {
    "mu_place": "พุทธสถาน จีเต็กลิ้ม",
    "name": "ร้านเลิศรสโภชนา",
    "rating": 4.2,
    "address": "663H+8MP อำเภอเมืองนครนายก",
    "lat": 14.2033019,
    "lng": 101.2291281
  },
  {
    "mu_place": "พุทธสถาน จีเต็กลิ้ม",
    "name": "ครัวมัจฉา Krua Matcha",
    "rating": 4.2,
    "address": "55VW+6HG ตำบล ท่าช้าง อำเภอเมืองนครนายก",
    "lat": 14.1930503,
    "lng": 101.1964571
  },
  {
    "mu_place": "พุทธสถาน จีเต็กลิ้ม",
    "name": "ร้านสามสาว ข้าวแกง",
    "rating": 3.8,
    "address": "305 ตำบล ท่าช้าง อำเภอเมืองนครนายก",
    "lat": 14.2004451,
    "lng": 101.1915144
  },
  {
    "mu_place": "พุทธสถาน จีเต็กลิ้ม",
    "name": "ร้านอาหาร ราดหน้ายอดผัก",
    "rating": 3.7,
    "address": "6635+P9R ตำบล บ้านใหญ่ อำเภอเมืองนครนายก",
    "lat": 14.204359,
    "lng": 101.2083832
  },
  {
    "mu_place": "พุทธสถาน จีเต็กลิ้ม",
    "name": "ร้านอาหารเตยใหญ่",
    "rating": 4.4,
    "address": "48 ม.7 ตำบล บางสมบูรณ์ อำเภอองครักษ์",
    "lat": 14.0199276,
    "lng": 101.124616
  },
  {
    "mu_place": "พุทธสถาน จีเต็กลิ้ม",
    "name": "ร้านอาหารลุงยังปลาเผา",
    "rating": 4.2,
    "address": "169 ตำบลองครักษ์ อำเภอองครักษ์",
    "lat": 14.1172296,
    "lng": 101.0143004
  },
  {
    "mu_place": "พุทธสถาน จีเต็กลิ้ม",
    "name": "ร้านอาหารฌอกะเฌอ",
    "rating": 4.2,
    "address": "98 105 319 ตำบล ไม้เค็ด อำเภอเมืองปราจีนบุรี",
    "lat": 14.1198343,
    "lng": 101.3245503
  },
  {
    "mu_place": "พุทธสถาน จีเต็กลิ้ม",
    "name": "ร้านอาหารครัวลุงดำ",
    "rating": 4.2,
    "address": "18 ถนนศาลเจ้าพ่อองครักษ์ ตำบล ทรายมูล อำเภอองครักษ์",
    "lat": 14.1269528,
    "lng": 101.0137246
  },
  {
    "mu_place": "พุทธสถาน จีเต็กลิ้ม",
    "name": "ร้านอาหารน้องนก (ฤาชาปราจีน)",
    "rating": 4.2,
    "address": "ตำบล โคกไม้ลาย อำเภอเมืองปราจีนบุรี",
    "lat": 14.1501738,
    "lng": 101.3100933
  },
  {
    "mu_place": "พุทธสถาน จีเต็กลิ้ม",
    "name": "ร้านอาหารจันทรกานต์",
    "rating": 4.3,
    "address": "4 M6 National Highway No.3481 Bang Tean ตำบล บางแตน อำเภอ บ้านสร้าง",
    "lat": 13.9006519,
    "lng": 101.1702476
  },
  {
    "mu_place": "พุทธสถาน จีเต็กลิ้ม",
    "name": "ครัวคุ้งน้ำ Khung Nam Restaurant",
    "rating": 4.2,
    "address": "19/1 ม.7 ตำบล ทรายมูล อำเภอองครักษ์",
    "lat": 14.1266468,
    "lng": 101.012983
  },
  {
    "mu_place": "พุทธสถาน จีเต็กลิ้ม",
    "name": "ร้านอาหารเรือนแพ ปราจีนบุรี",
    "rating": 3.9,
    "address": "77 1 ตำบล บางเดชะ อำเภอเมืองปราจีนบุรี",
    "lat": 14.027225,
    "lng": 101.3410985
  },
  {
    "mu_place": "พุทธสถาน จีเต็กลิ้ม",
    "name": "ร้านอาหารนายเต๋า",
    "rating": 0,
    "address": "25X8+57X ทางหลวงชนบท นครนายก ตำบล ศรีจุฬา อำเภอเมืองนครนายก",
    "lat": 14.0480247,
    "lng": 101.1657217
  },
  {
    "mu_place": "พุทธสถาน จีเต็กลิ้ม",
    "name": "ร้านอาหารวิลาวัลย์",
    "rating": 3.9,
    "address": "W5FM+C24 ตำบล บางยาง อำเภอ บ้านสร้าง",
    "lat": 13.9235197,
    "lng": 101.1825878
  },
  {
    "mu_place": "พุทธสถาน จีเต็กลิ้ม",
    "name": "ห้องอาหารสุวดี",
    "rating": 3.5,
    "address": "ข/2 258 ถนนสุวรรณศร ตำบล บ้านใหญ่ อำเภอเมืองนครนายก",
    "lat": 14.2058728,
    "lng": 101.2112655
  },
  {
    "mu_place": "พุทธสถาน จีเต็กลิ้ม",
    "name": "ร้านอาหาร สมใจ",
    "rating": 4.5,
    "address": "554P+9VC ถนน รังสิต - นครนายก ตำบล ดงละคร อำเภอเมืองนครนายก",
    "lat": 14.1559954,
    "lng": 101.1871486
  },
  {
    "mu_place": "พุทธสถาน จีเต็กลิ้ม",
    "name": "ร้านอาหาร",
    "rating": 0,
    "address": "อำเภอเมืองนครนายก",
    "lat": 14.1965201,
    "lng": 101.221707
  },
  {
    "mu_place": "พุทธสถาน จีเต็กลิ้ม",
    "name": "ร้านอาหารมุมเสบียง",
    "rating": 3.9,
    "address": "93 หมู่ 11 ตำบล ไม้เค็ด อำเภอเมืองปราจีนบุรี",
    "lat": 14.1042146,
    "lng": 101.3303389
  },
  {
    "mu_place": "พุทธสถาน จีเต็กลิ้ม",
    "name": "ร้านที่ตามหา",
    "rating": 4.5,
    "address": "ตำบล ดงละคร อำเภอเมืองนครนายก",
    "lat": 14.1512092,
    "lng": 101.1745051
  },
  {
    "mu_place": "ศาลาหลวงปู่ดู่",
    "name": "ร้านอาหารบ้านเคียงน้ำ",
    "rating": 4.1,
    "address": "8H48+W5V ตำบล บ้านรุน อำเภอ พระนครศรีอยุธยา",
    "lat": 14.3073613,
    "lng": 100.5654221
  },
  {
    "mu_place": "ศาลาหลวงปู่ดู่",
    "name": "ร้านอาหารสบายสบาย",
    "rating": 4.6,
    "address": "ตำบล ธนู อำเภออุทัย",
    "lat": 14.3559375,
    "lng": 100.6081875
  },
  {
    "mu_place": "ศาลาหลวงปู่ดู่",
    "name": "ร้านอาหารต้นคูณ อุทัย",
    "rating": 4.4,
    "address": "8PX4+R6J ตำบล สามบัณฑิต อำเภออุทัย",
    "lat": 14.3495836,
    "lng": 100.7055245
  },
  {
    "mu_place": "ศาลาหลวงปู่ดู่",
    "name": "ร้านอาหารศรีกรุง",
    "rating": 3.8,
    "address": "21/2 โรจนะ 1/2 ตำบล ไผ่ลิง อำเภอ พระนครศรีอยุธยา",
    "lat": 14.3552763,
    "lng": 100.5911076
  },
  {
    "mu_place": "ศาลาหลวงปู่ดู่",
    "name": "ร้านอาหารปทุมรัตน์101",
    "rating": 4.4,
    "address": "ร้าน อาหาร ปทุม รั น์ 101 หมู่บ้าน สิน ธิ วา ธานี ต จ อยุธยา, ตำบล สามเรือน อำเภอบางปะอิน",
    "lat": 14.3136306,
    "lng": 100.6366596
  },
  {
    "mu_place": "ศาลาหลวงปู่ดู่",
    "name": "ร้านอาหารมองดูเรือ",
    "rating": 4,
    "address": "35 1 ถ. อู่ทอง ตำบล ประตูชัย อำเภอ พระนครศรีอยุธยา",
    "lat": 14.3496871,
    "lng": 100.5457087
  },
  {
    "mu_place": "ศาลาหลวงปู่ดู่",
    "name": "ร้านอาหารสีกุก",
    "rating": 4.3,
    "address": "118 1 ตำบล พระขาว อำเภอ บางบาล",
    "lat": 14.3230392,
    "lng": 100.4663468
  },
  {
    "mu_place": "ศาลาหลวงปู่ดู่",
    "name": "ร้านอาหารตายาย",
    "rating": 4.4,
    "address": "6HQJ+4F5 ตำบล บ้านเลน อำเภอบางปะอิน",
    "lat": 14.237761,
    "lng": 100.5812208
  },
  {
    "mu_place": "ศาลาหลวงปู่ดู่",
    "name": "ร้านอาหารภูตะวัน",
    "rating": 4.1,
    "address": "58 ตำบล คลองจิก อำเภอบางปะอิน",
    "lat": 14.195342,
    "lng": 100.6106846
  },
  {
    "mu_place": "ศาลาหลวงปู่ดู่",
    "name": "ร้านอาหาร ชบาบาร์น คาเฟ่",
    "rating": 4.4,
    "address": "เลขที่ 100 ตำบล บ้านป้อม อำเภอ พระนครศรีอยุธยา",
    "lat": 14.3359274,
    "lng": 100.5284841
  },
  {
    "mu_place": "ศาลาหลวงปู่ดู่",
    "name": "ร้านอาหาร บ้านไม้ริมน้ำ อยุธยา",
    "rating": 4.2,
    "address": "หมู่ที่ 2, 43/1, ถ. อู่ทอง ต.ประตูชัย",
    "lat": 14.3479253,
    "lng": 100.5695847
  },
  {
    "mu_place": "ศาลาหลวงปู่ดู่",
    "name": "ร้านอาหารโค้งเจ้าพระยา",
    "rating": 3.9,
    "address": "26 3477 ตำบล บ้านโพธิ์ อำเภอบางปะอิน",
    "lat": 14.2632039,
    "lng": 100.5859575
  },
  {
    "mu_place": "ศาลาหลวงปู่ดู่",
    "name": "ร้านคนดีศรีอยุธยา",
    "rating": 4.6,
    "address": "39 76 ม.1 ตำบล บางกระสั้น อำเภอบางปะอิน",
    "lat": 14.2029725,
    "lng": 100.5658526
  },
  {
    "mu_place": "ศาลาหลวงปู่ดู่",
    "name": "ร้านอาหารเรือนแก้ว วังน้อย",
    "rating": 4.6,
    "address": "163 ตำบล ลำไทร อำเภอวังน้อย",
    "lat": 14.2322365,
    "lng": 100.717208
  },
  {
    "mu_place": "ศาลาหลวงปู่ดู่",
    "name": "ร้านอาหารระเบียงแม่น้ำ",
    "rating": 4.1,
    "address": "120 ตำบล คลองสวนพลู ตำบลคลองสวนพลู อำเภอ พระนครศรีอยุธยา",
    "lat": 14.329362,
    "lng": 100.5762202
  },
  {
    "mu_place": "ศาลาหลวงปู่ดู่",
    "name": "ร้านอาหารน้องนุช",
    "rating": 4.3,
    "address": "FJWC+2F2 ตำบล แม่ลา อำเภอนครหลวง",
    "lat": 14.4949454,
    "lng": 100.6212757
  },
  {
    "mu_place": "ศาลาหลวงปู่ดู่",
    "name": "ร้านชายนา",
    "rating": 3.9,
    "address": "8HCF+6W5 ตำบล เกาะเรียน อำเภอ พระนครศรีอยุธยา",
    "lat": 14.3205019,
    "lng": 100.5748659
  },
  {
    "mu_place": "ศาลาหลวงปู่ดู่",
    "name": "ร้านอาหาร ระเบียงวิว อยุธยา",
    "rating": 4.2,
    "address": "52 3, ตำบล วัดตูม, อำเภอ พระนครศรีอยุธยา",
    "lat": 14.4007122,
    "lng": 100.5298859
  },
  {
    "mu_place": "ศาลาหลวงปู่ดู่",
    "name": "ร้านอาหาร บ้านพิมพ์",
    "rating": 4.2,
    "address": "8HXR+HVJ 3477 ตำบล ไผ่ลิง อำเภอ พระนครศรีอยุธยา",
    "lat": 14.3489643,
    "lng": 100.5921501
  },
  {
    "mu_place": "ศาลาหลวงปู่ดู่",
    "name": "Venice Restaurant - ร้านอาหารเวนิส",
    "rating": 3.9,
    "address": "ข 28 1-3 ถ. อู่ทอง อำเภอ พระนครศรีอยุธยา",
    "lat": 14.3527471,
    "lng": 100.5806247
  },
  {
    "mu_place": "วัดดาวดึงษาราม",
    "name": "ร้านอาหารเพลิน",
    "rating": 4.2,
    "address": "7/428 ถนน วิภาวดีรังสิต แขวงจตุจักร เขตจตุจักร",
    "lat": 13.8259653,
    "lng": 100.5571122
  },
  {
    "mu_place": "วัดดาวดึงษาราม",
    "name": "กินลมชมสะพาน",
    "rating": 4.1,
    "address": "11 6 ถนนจักรพงษ์ แขวงวัดสามพระยา เขตพระนคร",
    "lat": 13.7666469,
    "lng": 100.497129
  },
  {
    "mu_place": "วัดดาวดึงษาราม",
    "name": "ร้านอาหารประพักตร์",
    "rating": 4.3,
    "address": "89/165 ถนน เทศบาลสงเคราะห์ แขวงลาดยาว เขตจตุจักร",
    "lat": 13.8406963,
    "lng": 100.552399
  },
  {
    "mu_place": "วัดดาวดึงษาราม",
    "name": "ร้านอาหารข้าวใหม่",
    "rating": 4.6,
    "address": "RHMH+3CX แขวงจันทรเกษม เขตจตุจักร",
    "lat": 13.8327455,
    "lng": 100.578617
  },
  {
    "mu_place": "วัดดาวดึงษาราม",
    "name": "Three Mangoes บ้านไทย ชายคลอง",
    "rating": 4.2,
    "address": "76 1 ถ. นครอินทร์ ตำบล บางขนุน อำเภอบางกรวย",
    "lat": 13.8237315,
    "lng": 100.4670198
  },
  {
    "mu_place": "วัดดาวดึงษาราม",
    "name": "ร้านอาหารเลอ อัญญ์",
    "rating": 4.1,
    "address": "แขวงบางขุนศรี เขตบางกอกน้อย",
    "lat": 13.761189,
    "lng": 100.4693039
  },
  {
    "mu_place": "วัดดาวดึงษาราม",
    "name": "Bajika Restaurant (ร้านอาหารบาจิกา)",
    "rating": 4.4,
    "address": "46/4 ถ. กาญจนาภิเษก แขวงศาลาธรรมสพน์ เขตทวีวัฒนา",
    "lat": 13.7701897,
    "lng": 100.4069093
  },
  {
    "mu_place": "วัดดาวดึงษาราม",
    "name": "ร้านอาหารรับลม",
    "rating": 4.1,
    "address": "หมู่ที่1 26/2 ถ. บางกรวย - ไทรน้อย ตำบล บางรักพัฒนา อำเภอบางบัวทอง",
    "lat": 13.9063534,
    "lng": 100.4272884
  },
  {
    "mu_place": "วัดดาวดึงษาราม",
    "name": "หมีแฟมิลี่ สาขา ประชาชื่น",
    "rating": 4.6,
    "address": "280/1 ถ. ประชาชื่น แขวงจตุจักร เขตจตุจักร",
    "lat": 13.8232274,
    "lng": 100.5384329
  },
  {
    "mu_place": "วัดดาวดึงษาราม",
    "name": "ร้านอาหาร สวนลุงพร",
    "rating": 4.6,
    "address": "2 2 ตำบล แพรกษา อำเภอเมืองสมุทรปราการ",
    "lat": 13.5877449,
    "lng": 100.6419076
  },
  {
    "mu_place": "วัดดาวดึงษาราม",
    "name": "ร้านอาหาร ครกไม้ไทยลาว ซอยลาดปลาเค้า 24",
    "rating": 4.3,
    "address": "8 ซ. ลาดปลาเค้า 24 แขวงจรเข้บัว เขตลาดพร้าว",
    "lat": 13.8401614,
    "lng": 100.5958436
  },
  {
    "mu_place": "วัดดาวดึงษาราม",
    "name": "ร้านอาหารรสสุคนธ์",
    "rating": 4.1,
    "address": "299 12 หมู่ 5 ถ. ศรีนครินทร์ ตำบล บางเมือง อำเภอเมืองสมุทรปราการ",
    "lat": 13.6151095,
    "lng": 100.6209244
  },
  {
    "mu_place": "วัดดาวดึงษาราม",
    "name": "T and T Restaurant",
    "rating": 4.3,
    "address": "359 เทศบาลนิมิตใต้ ซอย 7 แขวงลาดยาว เขตจตุจักร",
    "lat": 13.8363602,
    "lng": 100.5495098
  },
  {
    "mu_place": "วัดดาวดึงษาราม",
    "name": "ร้านอาหารแกงป่า(ลุงสง่า)",
    "rating": 4.4,
    "address": "285 162 ซ. งามวงศ์วาน 23 แยก 11 ตำบลบางเขน อำเภอเมือง",
    "lat": 13.8651608,
    "lng": 100.5355962
  },
  {
    "mu_place": "วัดดาวดึงษาราม",
    "name": "ร้านอาหารลงแพ หรือ @บางขวด",
    "rating": 4.3,
    "address": "3 ซอย นวลจันทร์ 56 แขวงนวลจันทร์ เขตบึงกุ่ม",
    "lat": 13.8328813,
    "lng": 100.6462978
  },
  {
    "mu_place": "วัดดาวดึงษาราม",
    "name": "ร้านอาหารบ้านใบบัว",
    "rating": 4.3,
    "address": "13, 37 ถ. วงแหวนอุตสาหกรรม ลัดหลวง อำเภอพระประแดง",
    "lat": 13.6646477,
    "lng": 100.5233595
  },
  {
    "mu_place": "วัดดาวดึงษาราม",
    "name": "ร้านอาหารอีสาน เป็นตาแซ่บ",
    "rating": 4.3,
    "address": "23 ซอย เทิดราชัน 43 แขวงสีกัน เขตดอนเมือง",
    "lat": 13.9441119,
    "lng": 100.5863427
  },
  {
    "mu_place": "วัดดาวดึงษาราม",
    "name": "ร้านระเบียงเคียงน้ำ 77",
    "rating": 4.1,
    "address": "เลขที่ 76/1 ซอย หมู่ 3 ตำบล บางตะไนย์ อำเภอปากเกร็ด",
    "lat": 13.9180431,
    "lng": 100.4951132
  },
  {
    "mu_place": "วัดดาวดึงษาราม",
    "name": "ร้านอาหาร ศรีกร",
    "rating": 4.3,
    "address": "233 ถ. สุขุมวิท ตำบลปากน้ำ อำเภอเมืองสมุทรปราการ",
    "lat": 13.601827,
    "lng": 100.5974659
  },
  {
    "mu_place": "วัดดาวดึงษาราม",
    "name": "ประจักษ์",
    "rating": 4.2,
    "address": "1415 ถ. เจริญกรุง แขวงสีลม เขตบางรัก",
    "lat": 13.7203946,
    "lng": 100.5160089
  },
  {
    "mu_place": "วิหารหลวงพ่อสำเร็จศักดิ์สิทธิ์",
    "name": "ร้านอาหารสบายสบาย",
    "rating": 4.6,
    "address": "ตำบล ธนู อำเภออุทัย",
    "lat": 14.3559375,
    "lng": 100.6081875
  },
  {
    "mu_place": "วิหารหลวงพ่อสำเร็จศักดิ์สิทธิ์",
    "name": "ร้านอาหารต้นคูณ อุทัย",
    "rating": 4.4,
    "address": "8PX4+R6J ตำบล สามบัณฑิต อำเภออุทัย",
    "lat": 14.3495836,
    "lng": 100.7055245
  },
  {
    "mu_place": "วิหารหลวงพ่อสำเร็จศักดิ์สิทธิ์",
    "name": "ร้านอาหารบ้านสวนหนองแค",
    "rating": 4.3,
    "address": "116 ถ. พหลโยธิน ตำบล หนองแค อำเภอหนองแค",
    "lat": 14.3479942,
    "lng": 100.8680251
  },
  {
    "mu_place": "วิหารหลวงพ่อสำเร็จศักดิ์สิทธิ์",
    "name": "ร้านอาหารซุ้มกอ",
    "rating": 4.1,
    "address": "GVXR+6VQ ถ. เทศบาล 5 ตำบล ดาวเรือง อำเภอเมืองสระบุรี",
    "lat": 14.5480483,
    "lng": 100.8921944
  },
  {
    "mu_place": "วิหารหลวงพ่อสำเร็จศักดิ์สิทธิ์",
    "name": "ร้านอาหารปทุมรัตน์101",
    "rating": 4.4,
    "address": "ร้าน อาหาร ปทุม รั น์ 101 หมู่บ้าน สิน ธิ วา ธานี ต จ อยุธยา, ตำบล สามเรือน อำเภอบางปะอิน",
    "lat": 14.3136306,
    "lng": 100.6366596
  },
  {
    "mu_place": "วิหารหลวงพ่อสำเร็จศักดิ์สิทธิ์",
    "name": "ร้านอาหารริมคลองชล",
    "rating": 4.2,
    "address": "700/15 ปากเพรียว",
    "lat": 14.5401085,
    "lng": 100.892542
  },
  {
    "mu_place": "วิหารหลวงพ่อสำเร็จศักดิ์สิทธิ์",
    "name": "ร้านอาหารคุณ",
    "rating": 4.2,
    "address": "55 ถ. สุวรรณศร ตำบล โคกแย้ อำเภอหนองแค",
    "lat": 14.4036298,
    "lng": 100.9001636
  },
  {
    "mu_place": "วิหารหลวงพ่อสำเร็จศักดิ์สิทธิ์",
    "name": "ร้านอาหารน้องนุช",
    "rating": 4.3,
    "address": "FJWC+2F2 ตำบล แม่ลา อำเภอนครหลวง",
    "lat": 14.4949454,
    "lng": 100.6212757
  },
  {
    "mu_place": "วิหารหลวงพ่อสำเร็จศักดิ์สิทธิ์",
    "name": "ร้านอาหารเรือนแก้ว วังน้อย",
    "rating": 4.6,
    "address": "163 ตำบล ลำไทร อำเภอวังน้อย",
    "lat": 14.2322365,
    "lng": 100.717208
  },
  {
    "mu_place": "วิหารหลวงพ่อสำเร็จศักดิ์สิทธิ์",
    "name": "ร้านอาหารริมชล หนองแค",
    "rating": 4.1,
    "address": "2/2 ถ. พหลโยธินสายเก่า ตำบล หนองแค อำเภอหนองแค",
    "lat": 14.3384517,
    "lng": 100.8532867
  },
  {
    "mu_place": "วิหารหลวงพ่อสำเร็จศักดิ์สิทธิ์",
    "name": "ร้านอาหารกุ้งเพื่อนแพรว",
    "rating": 4.2,
    "address": "98/8 กุ้งเพื่อนแพรว ตลาดกลางฯ ถ.สายเอเชีย",
    "lat": 14.3707771,
    "lng": 100.6113967
  },
  {
    "mu_place": "วิหารหลวงพ่อสำเร็จศักดิ์สิทธิ์",
    "name": "ร้านอาหาร \"สวนไผ่นายอ๊อด\"",
    "rating": 4.4,
    "address": "39 39 2 ตำบล ท่าเจ้าสนุก อำเภอ ท่าเรือ",
    "lat": 14.5488202,
    "lng": 100.7183708
  },
  {
    "mu_place": "วิหารหลวงพ่อสำเร็จศักดิ์สิทธิ์",
    "name": "ร้านอาหารมายเฟรนด์",
    "rating": 4,
    "address": "ร้านอาหารมายเฟรนด์ 7/11 ตำบล ท่าเรือ อำเภอ ท่าเรือ",
    "lat": 14.5700209,
    "lng": 100.7264601
  },
  {
    "mu_place": "วิหารหลวงพ่อสำเร็จศักดิ์สิทธิ์",
    "name": "ร้านอาหารบ้านนาปลาเผา",
    "rating": 4.2,
    "address": "HW77+FG3 ตำบล ดาวเรือง อำเภอเมืองสระบุรี",
    "lat": 14.5636093,
    "lng": 100.9137977
  },
  {
    "mu_place": "วิหารหลวงพ่อสำเร็จศักดิ์สิทธิ์",
    "name": "ร้านอาหารต้อมแควป่าสัก",
    "rating": 4,
    "address": "ตำบล เสาไห้ อำเภอ เสาไห้",
    "lat": 14.5554085,
    "lng": 100.8563926
  },
  {
    "mu_place": "วิหารหลวงพ่อสำเร็จศักดิ์สิทธิ์",
    "name": "ร้านบ้านน้ำเคียงฟ้า",
    "rating": 4.2,
    "address": "สุดบรรทัด ตำบล ปากเพรียว อำเภอเมืองสระบุรี",
    "lat": 14.527157,
    "lng": 100.9311819
  },
  {
    "mu_place": "วิหารหลวงพ่อสำเร็จศักดิ์สิทธิ์",
    "name": "ร้านอาหาร เจ็ดทับสอง",
    "rating": 4.8,
    "address": "HV3P+566 ตำบล นาโฉง อำเภอเมืองสระบุรี",
    "lat": 14.5529124,
    "lng": 100.8855123
  },
  {
    "mu_place": "วิหารหลวงพ่อสำเร็จศักดิ์สิทธิ์",
    "name": "ร้านอาหารระเบียงกะเพรา ท่าเรือ",
    "rating": 4.5,
    "address": "ซินแสน้อย ถนนสายท่าเรือ(เทศบาล5)-บ้านร่อม ใกล้สนามชนไก่เพชรชมพู-ศาลเจ้า ตำบล ท่าเจ้าสนุก อำเภอ ท่าเรือ",
    "lat": 14.5645462,
    "lng": 100.7073592
  },
  {
    "mu_place": "วิหารหลวงพ่อสำเร็จศักดิ์สิทธิ์",
    "name": "ร้านอาหารครัวไทย",
    "rating": 3.9,
    "address": "GXV4+F5X ตำบล ตลิ่งชัน อำเภอเมืองสระบุรี",
    "lat": 14.5437383,
    "lng": 100.9554824
  },
  {
    "mu_place": "วิหารหลวงพ่อสำเร็จศักดิ์สิทธิ์",
    "name": "ร้านอาหารส.ข้าวหอม",
    "rating": 4.4,
    "address": "HP8G+X8W ทางหลวงแผ่นดินหมายเลข 3023 ตำบล ท่าเรือ อำเภอ ท่าเรือ",
    "lat": 14.5674887,
    "lng": 100.725833
  },
  {
    "mu_place": "หลวงพ่อรวย วัดตะโก",
    "name": "ร้านอาหารสบายสบาย",
    "rating": 4.6,
    "address": "ตำบล ธนู อำเภออุทัย",
    "lat": 14.3559375,
    "lng": 100.6081875
  },
  {
    "mu_place": "หลวงพ่อรวย วัดตะโก",
    "name": "ร้านอาหารคลองบุญ เจ้าปลุก 3",
    "rating": 4.4,
    "address": "ตำบล เจ้าปลุก อำเภอมหาราช",
    "lat": 14.5756785,
    "lng": 100.5334636
  },
  {
    "mu_place": "หลวงพ่อรวย วัดตะโก",
    "name": "ร้านอาหารต้นคูณ อุทัย",
    "rating": 4.4,
    "address": "8PX4+R6J ตำบล สามบัณฑิต อำเภออุทัย",
    "lat": 14.3495836,
    "lng": 100.7055245
  },
  {
    "mu_place": "หลวงพ่อรวย วัดตะโก",
    "name": "ร้านอาหารบ้านสวนหนองแค",
    "rating": 4.3,
    "address": "116 ถ. พหลโยธิน ตำบล หนองแค อำเภอหนองแค",
    "lat": 14.3479942,
    "lng": 100.8680251
  },
  {
    "mu_place": "หลวงพ่อรวย วัดตะโก",
    "name": "ร้านอาหารศรีกรุง",
    "rating": 3.8,
    "address": "21/2 โรจนะ 1/2 ตำบล ไผ่ลิง อำเภอ พระนครศรีอยุธยา",
    "lat": 14.3552763,
    "lng": 100.5911076
  },
  {
    "mu_place": "หลวงพ่อรวย วัดตะโก",
    "name": "ร้านอาหารครัวคุณติ๋ม",
    "rating": 4.3,
    "address": "HRH2+Q9H ตำบล บ้านยาง อำเภอ เสาไห้",
    "lat": 14.5794259,
    "lng": 100.8009949
  },
  {
    "mu_place": "หลวงพ่อรวย วัดตะโก",
    "name": "ร้านอาหารซุ้มกอ",
    "rating": 4.1,
    "address": "GVXR+6VQ ถ. เทศบาล 5 ตำบล ดาวเรือง อำเภอเมืองสระบุรี",
    "lat": 14.5480483,
    "lng": 100.8921944
  },
  {
    "mu_place": "หลวงพ่อรวย วัดตะโก",
    "name": "ร้านอาหารปทุมรัตน์101",
    "rating": 4.4,
    "address": "ร้าน อาหาร ปทุม รั น์ 101 หมู่บ้าน สิน ธิ วา ธานี ต จ อยุธยา, ตำบล สามเรือน อำเภอบางปะอิน",
    "lat": 14.3136306,
    "lng": 100.6366596
  },
  {
    "mu_place": "หลวงพ่อรวย วัดตะโก",
    "name": "ร้านอาหารริมคลองชล",
    "rating": 4.2,
    "address": "700/15 ปากเพรียว",
    "lat": 14.5401085,
    "lng": 100.892542
  },
  {
    "mu_place": "หลวงพ่อรวย วัดตะโก",
    "name": "ร้านอาหารมองดูเรือ",
    "rating": 4,
    "address": "35 1 ถ. อู่ทอง ตำบล ประตูชัย อำเภอ พระนครศรีอยุธยา",
    "lat": 14.3496871,
    "lng": 100.5457087
  },
  {
    "mu_place": "หลวงพ่อรวย วัดตะโก",
    "name": "ร้านอาหาร บ้านไม้ริมน้ำ อยุธยา",
    "rating": 4.2,
    "address": "หมู่ที่ 2, 43/1, ถ. อู่ทอง ต.ประตูชัย",
    "lat": 14.3479253,
    "lng": 100.5695847
  },
  {
    "mu_place": "หลวงพ่อรวย วัดตะโก",
    "name": "ร้านอาหารคุณ",
    "rating": 4.2,
    "address": "55 ถ. สุวรรณศร ตำบล โคกแย้ อำเภอหนองแค",
    "lat": 14.4036298,
    "lng": 100.9001636
  },
  {
    "mu_place": "หลวงพ่อรวย วัดตะโก",
    "name": "ร้านอาหารระเบียงแม่น้ำ",
    "rating": 4.1,
    "address": "120 ตำบล คลองสวนพลู ตำบลคลองสวนพลู อำเภอ พระนครศรีอยุธยา",
    "lat": 14.329362,
    "lng": 100.5762202
  },
  {
    "mu_place": "หลวงพ่อรวย วัดตะโก",
    "name": "ร้านอาหารน้องนุช",
    "rating": 4.3,
    "address": "FJWC+2F2 ตำบล แม่ลา อำเภอนครหลวง",
    "lat": 14.4949454,
    "lng": 100.6212757
  },
  {
    "mu_place": "หลวงพ่อรวย วัดตะโก",
    "name": "ร้านชายนา",
    "rating": 3.9,
    "address": "8HCF+6W5 ตำบล เกาะเรียน อำเภอ พระนครศรีอยุธยา",
    "lat": 14.3205019,
    "lng": 100.5748659
  },
  {
    "mu_place": "หลวงพ่อรวย วัดตะโก",
    "name": "ร้านอาหารริมชล หนองแค",
    "rating": 4.1,
    "address": "2/2 ถ. พหลโยธินสายเก่า ตำบล หนองแค อำเภอหนองแค",
    "lat": 14.3384517,
    "lng": 100.8532867
  },
  {
    "mu_place": "หลวงพ่อรวย วัดตะโก",
    "name": "ร้านอาหาร บ้านพิมพ์",
    "rating": 4.2,
    "address": "8HXR+HVJ 3477 ตำบล ไผ่ลิง อำเภอ พระนครศรีอยุธยา",
    "lat": 14.3489643,
    "lng": 100.5921501
  },
  {
    "mu_place": "หลวงพ่อรวย วัดตะโก",
    "name": "Venice Restaurant - ร้านอาหารเวนิส",
    "rating": 3.9,
    "address": "ข 28 1-3 ถ. อู่ทอง อำเภอ พระนครศรีอยุธยา",
    "lat": 14.3527471,
    "lng": 100.5806247
  },
  {
    "mu_place": "หลวงพ่อรวย วัดตะโก",
    "name": "ร้านอาหารครัวคนไท",
    "rating": 4.3,
    "address": "16/1 71/1 บ้าน ยาง, ตำบล บ้านยาง อำเภอ เสาไห้",
    "lat": 14.5812793,
    "lng": 100.8035473
  },
  {
    "mu_place": "หลวงพ่อรวย วัดตะโก",
    "name": "ร้านอาหารอยุธยารมณ์",
    "rating": 4.2,
    "address": "1 1 ตำบล บ้านป้อม อำเภอ พระนครศรีอยุธยา",
    "lat": 14.3533326,
    "lng": 100.5461572
  },
  {
    "mu_place": "ศาลเจ้าหน่าจาซาไท้จื้อ อ่างศิลา",
    "name": "ร้านอาหารคุณเหมียว",
    "rating": 4.2,
    "address": "ถนนบายพาส ตำบล หนองไม้แดง อำเภอเมืองชลบุรี",
    "lat": 13.3966159,
    "lng": 101.0085631
  },
  {
    "mu_place": "ศาลเจ้าหน่าจาซาไท้จื้อ อ่างศิลา",
    "name": "ร้านอาหารครัวยายชิ้น",
    "rating": 4.2,
    "address": "เลขที่ 348 ถนน ซอย ศรีบัญญัติ อำเภอเมืองชลบุรี",
    "lat": 13.3660339,
    "lng": 100.9786688
  },
  {
    "mu_place": "ศาลเจ้าหน่าจาซาไท้จื้อ อ่างศิลา",
    "name": "ร้านอาหารสิริรส",
    "rating": 4.4,
    "address": "วชิรปราการ ตำบล บางปลาสร้อย อำเภอเมืองชลบุรี",
    "lat": 13.3576974,
    "lng": 100.9834612
  },
  {
    "mu_place": "ศาลเจ้าหน่าจาซาไท้จื้อ อ่างศิลา",
    "name": "ร้านอาหารแม่พลอยโภชนา",
    "rating": 4.6,
    "address": "369/115 สุรศักดิ์ อำเภอศรีราชา",
    "lat": 13.1535927,
    "lng": 100.939995
  },
  {
    "mu_place": "ศาลเจ้าหน่าจาซาไท้จื้อ อ่างศิลา",
    "name": "ห้องอาหารดีพร้อม​",
    "rating": 4.4,
    "address": "No.7, ถนน ลงหาดบางแสน อำเภอเมืองชลบุรี",
    "lat": 13.3005936,
    "lng": 100.9020602
  },
  {
    "mu_place": "ศาลเจ้าหน่าจาซาไท้จื้อ อ่างศิลา",
    "name": "ร้านอาหารป้า (เจ้าเก่านาเกลือ)",
    "rating": 4.2,
    "address": "หมู่ที่ 4 257 ตำบล บางพระ อำเภอศรีราชา",
    "lat": 13.1830729,
    "lng": 100.9689492
  },
  {
    "mu_place": "ศาลเจ้าหน่าจาซาไท้จื้อ อ่างศิลา",
    "name": "ร้านอาหารบ้านกลางสวน",
    "rating": 4.7,
    "address": "สุรศักดิ์ อำเภอศรีราชา",
    "lat": 13.155077,
    "lng": 100.9712186
  },
  {
    "mu_place": "ศาลเจ้าหน่าจาซาไท้จื้อ อ่างศิลา",
    "name": "ร้านอาหาร บัวหลวง",
    "rating": 4.4,
    "address": "ตำบล ดอนหัวฬอ อำเภอเมืองชลบุรี",
    "lat": 13.4380783,
    "lng": 101.0606346
  },
  {
    "mu_place": "ศาลเจ้าหน่าจาซาไท้จื้อ อ่างศิลา",
    "name": "ร้านอาหารเดชา ศรีราชา",
    "rating": 4.2,
    "address": "5W9X+PPF สุรศักดิ์ อำเภอศรีราชา",
    "lat": 13.1693552,
    "lng": 100.9493576
  },
  {
    "mu_place": "ศาลเจ้าหน่าจาซาไท้จื้อ อ่างศิลา",
    "name": "ร้านอาหารหลังเขา",
    "rating": 4,
    "address": "เลขที่ 84/8 ถนน สายบายพาส ตำบล หนองไม้แดง อำเภอเมืองชลบุรี",
    "lat": 13.3999954,
    "lng": 101.0053018
  },
  {
    "mu_place": "ศาลเจ้าหน่าจาซาไท้จื้อ อ่างศิลา",
    "name": "ร้านอาหารไผ่ทะเล",
    "rating": 3.9,
    "address": "FVFM+34G จันทร์เกษม ตำบล สองคลอง อำเภอบางปะกง",
    "lat": 13.4727421,
    "lng": 100.8828493
  },
  {
    "mu_place": "ศาลเจ้าหน่าจาซาไท้จื้อ อ่างศิลา",
    "name": "ร้านอาหารDream2Dream",
    "rating": 4.6,
    "address": "1/4 หมู่ 1 ทองเหลือง ตำบล ดอน หัว ฬ่ อ อ เมือง ชลบุรี",
    "lat": 13.4030269,
    "lng": 101.0550073
  },
  {
    "mu_place": "ศาลเจ้าหน่าจาซาไท้จื้อ อ่างศิลา",
    "name": "ร้านอาหารกลิ่นแก้ว",
    "rating": 4,
    "address": "ซอย ศรีราชา-หนองยายบู่ 10 สุรศักดิ์ อำเภอศรีราชา",
    "lat": 13.1584748,
    "lng": 100.9404233
  },
  {
    "mu_place": "ศาลเจ้าหน่าจาซาไท้จื้อ อ่างศิลา",
    "name": "ร้านอาหารช่อชบา อ.บ้านบึง",
    "rating": 4.4,
    "address": "999/51, ถนน ชลบุรี-บ้านบึง ตำบล บ้านบึง อำเภอบ้านบึง",
    "lat": 13.321104,
    "lng": 101.1017138
  },
  {
    "mu_place": "ศาลเจ้าหน่าจาซาไท้จื้อ อ่างศิลา",
    "name": "คุณรักษ์ ร้านอาหาร",
    "rating": 4.2,
    "address": "178 ถ. สุขุมวิท ตำบลแสนสุข อำเภอเมืองชลบุรี",
    "lat": 13.2809781,
    "lng": 100.9365471
  },
  {
    "mu_place": "ศาลเจ้าหน่าจาซาไท้จื้อ อ่างศิลา",
    "name": "ร้านอาหารไทยชาววังเทียบทอง",
    "rating": 4.2,
    "address": "880 6-7 ถ. สุขุมวิท ตำบล บางปลาสร้อย อำเภอเมืองชลบุรี",
    "lat": 13.3660881,
    "lng": 100.9903785
  },
  {
    "mu_place": "ศาลเจ้าหน่าจาซาไท้จื้อ อ่างศิลา",
    "name": "ร้านอาหารพูพาน",
    "rating": 4,
    "address": "253/26 ถ.นาพร้าว (อัสสัม-สวนเสือ สุรศักดิ์ อำเภอศรีราชา",
    "lat": 13.1566169,
    "lng": 100.9728199
  },
  {
    "mu_place": "ศาลเจ้าหน่าจาซาไท้จื้อ อ่างศิลา",
    "name": "ร้านอาหาร อ อูมซีฟู้ด",
    "rating": 4,
    "address": "89/4 3 ตำบล บางทราย อำเภอเมืองชลบุรี",
    "lat": 13.3850667,
    "lng": 100.9883508
  },
  {
    "mu_place": "ศาลเจ้าหน่าจาซาไท้จื้อ อ่างศิลา",
    "name": "ไก่อบโอ่งเขาเขียว (สูตรต้นตำรับ)​",
    "rating": 4.2,
    "address": "6238+WWM ตำบล บางพระ อำเภอศรีราชา",
    "lat": 13.2048286,
    "lng": 101.0173093
  },
  {
    "mu_place": "ศาลเจ้าหน่าจาซาไท้จื้อ อ่างศิลา",
    "name": "ร้านอาหารครัวต้นปีบ",
    "rating": 4.3,
    "address": "8XJ6+6QH ตำบล เสม็ด อำเภอเมืองชลบุรี",
    "lat": 13.3305902,
    "lng": 100.9619725
  },
  {
    "mu_place": "อนุสาวรีย์ พระนางเลือดขาว แม่เจ้าอยู่หัว",
    "name": "ร้านเยี่ยมโอชา",
    "rating": 4.4,
    "address": "51 ถ.จันทรานนท์ ตำบล ชะอวด อำเภอ ชะอวด",
    "lat": 7.9649344,
    "lng": 99.9953507
  },
  {
    "mu_place": "อนุสาวรีย์ พระนางเลือดขาว แม่เจ้าอยู่หัว",
    "name": "ร้านครูหนั่น",
    "rating": 4.8,
    "address": "11 ม .10 บ้านลำคลอง เขาพังไกร อำเภอ หัวไทร",
    "lat": 7.9997474,
    "lng": 100.2703073
  },
  {
    "mu_place": "อนุสาวรีย์ พระนางเลือดขาว แม่เจ้าอยู่หัว",
    "name": "ร้านอาหารโอเค",
    "rating": 4.1,
    "address": "ชะอวด 28 ถ.วุฒิราษฎร์รังสฤษดิ์ ข้างโลตัสสาขาละอวด เขตเทศบาล อำเภอ ชะอวด",
    "lat": 7.967057,
    "lng": 99.9966541
  },
  {
    "mu_place": "อนุสาวรีย์ พระนางเลือดขาว แม่เจ้าอยู่หัว",
    "name": "ร้านอาหารนั่งเล่นชะอวด",
    "rating": 4,
    "address": "1ซ.บุญช่วย ชะอวด อำเภอ ชะอวด",
    "lat": 7.968742600000001,
    "lng": 99.99561089999999
  },
  {
    "mu_place": "อนุสาวรีย์ พระนางเลือดขาว แม่เจ้าอยู่หัว",
    "name": "ร้าน พรเพ็ญ อาหารตามสั่ง ก๋วยเตี๋ยว",
    "rating": 3.9,
    "address": "268Q+4QR Unnamed Road ตำบล ทรายขาว อำเภอ หัวไทร",
    "lat": 8.0153531,
    "lng": 100.2393996
  },
  {
    "mu_place": "อนุสาวรีย์ พระนางเลือดขาว แม่เจ้าอยู่หัว",
    "name": "ร้านอาหารบ้านแม่เอียด โดยนางประโลมศรี วิรัตินันต์",
    "rating": 4.8,
    "address": "077 ตำบลบ้านเนิน อำเภอ เชียรใหญ่",
    "lat": 8.111336999999999,
    "lng": 100.097493
  },
  {
    "mu_place": "อนุสาวรีย์ พระนางเลือดขาว แม่เจ้าอยู่หัว",
    "name": "ร้านครัวน้าดับ",
    "rating": 4.2,
    "address": "33VQ+QRX 4151 ตำบล แม่เจ้าอยู่หัว อำเภอ เชียรใหญ่",
    "lat": 8.0944788,
    "lng": 100.089616
  },
  {
    "mu_place": "อนุสาวรีย์ พระนางเลือดขาว แม่เจ้าอยู่หัว",
    "name": "ร้านน้าม่อน ก๋วยเตี๋ยวเนื้อตุ๋น อาหารตามสั่ง",
    "rating": 4.4,
    "address": "34R8+GQ8 408 ตำบล แม่เจ้าอยู่หัว อำเภอ เชียรใหญ่",
    "lat": 8.0912832,
    "lng": 100.1169685
  },
  {
    "mu_place": "อนุสาวรีย์ พระนางเลือดขาว แม่เจ้าอยู่หัว",
    "name": "ร้านอาหารนกน้อย",
    "rating": 5,
    "address": "XXCV+F37 ตำบล ชะอวด อำเภอ ชะอวด",
    "lat": 7.971165800000001,
    "lng": 99.9926807
  },
  {
    "mu_place": "อนุสาวรีย์ พระนางเลือดขาว แม่เจ้าอยู่หัว",
    "name": "ร้านอาหารแซบอีหลี",
    "rating": 1,
    "address": "XXCW+5CW ตำบล ชะอวด อำเภอ ชะอวด",
    "lat": 7.970466,
    "lng": 99.9959603
  },
  {
    "mu_place": "อนุสาวรีย์ พระนางเลือดขาว แม่เจ้าอยู่หัว",
    "name": "ลูกเกด",
    "rating": 4.4,
    "address": "435W+7X3 ทางหลวงจังหวัดหมายเลข 4151 เชียรใหญ่ อำเภอ เชียรใหญ่",
    "lat": 8.1081303,
    "lng": 100.0974327
  },
  {
    "mu_place": "อนุสาวรีย์ พระนางเลือดขาว แม่เจ้าอยู่หัว",
    "name": "ร้านอาหารตามสั่งเจ๊แมว",
    "rating": 1,
    "address": "4WVH+W5V ต, ตำบล ควนชุม อำเภอร่อนพิบูลย์",
    "lat": 8.144901899999999,
    "lng": 99.9279071
  },
  {
    "mu_place": "อนุสาวรีย์ พระนางเลือดขาว แม่เจ้าอยู่หัว",
    "name": "ร้านน้องปอย อาหารตามสั่ง อาหารอีสาน",
    "rating": 5,
    "address": "15 หมู่ 3 ตำบล สวนหลวง อำเภอ เฉลิมพระเกียรติ",
    "lat": 8.1445721,
    "lng": 100.0663162
  },
  {
    "mu_place": "อนุสาวรีย์ พระนางเลือดขาว แม่เจ้าอยู่หัว",
    "name": "ร้านเรณู",
    "rating": 3.9,
    "address": "27WG+MWH 408 ตำบล หัวไทร อำเภอ หัวไทร",
    "lat": 8.0466616,
    "lng": 100.277351
  },
  {
    "mu_place": "อนุสาวรีย์ พระนางเลือดขาว แม่เจ้าอยู่หัว",
    "name": "ร้านน้ำชาจ่าหมาย",
    "rating": 5,
    "address": "XX9W+939 ตำบล ชะอวด อำเภอ ชะอวด",
    "lat": 7.9684934,
    "lng": 99.99520059999999
  },
  {
    "mu_place": "อนุสาวรีย์ พระนางเลือดขาว แม่เจ้าอยู่หัว",
    "name": "ร้านกาลคร้ังหนึ่ง",
    "rating": 5,
    "address": "ประชาสโมสร 38/1 อำเภอเมืองขอนแก่น ขอนแก่น 40000",
    "lat": 8.0954135,
    "lng": 100.1152663
  },
  {
    "mu_place": "อนุสาวรีย์ พระนางเลือดขาว แม่เจ้าอยู่หัว",
    "name": "ร้านอาหาร อีสานกลางซอย",
    "rating": 4.8,
    "address": "X292+V33 ตำบล ชะอวด อำเภอ ชะอวด",
    "lat": 7.969639699999998,
    "lng": 100.0001811
  },
  {
    "mu_place": "อนุสาวรีย์ พระนางเลือดขาว แม่เจ้าอยู่หัว",
    "name": "ร้านอาหารตามสั่งพี่น้อยตลาดดอน",
    "rating": 3.8,
    "address": "X7J5+76F ตำบล เขาพังไกร อำเภอ หัวไทร",
    "lat": 7.9806778,
    "lng": 100.2580649
  },
  {
    "mu_place": "อนุสาวรีย์ พระนางเลือดขาว แม่เจ้าอยู่หัว",
    "name": "ร้านครัวบัวทอง",
    "rating": 4,
    "address": "44J9+8C5 4094 ตำบล ท้องลำเจียก อำเภอ เชียรใหญ่",
    "lat": 8.1307698,
    "lng": 100.1186023
  },
  {
    "mu_place": "อนุสาวรีย์ พระนางเลือดขาว แม่เจ้าอยู่หัว",
    "name": "ครัวจรูญ",
    "rating": 4.7,
    "address": "629F+WXC 408 ตำบล ทางพูน อำเภอ เฉลิมพระเกียรติ",
    "lat": 8.219843,
    "lng": 100.0249575
  },
  {
    "mu_place": "วัดทุ่งเศรษฐี ราม2",
    "name": "ร้านอาหารเพลิน",
    "rating": 4.2,
    "address": "7/428 ถนน วิภาวดีรังสิต แขวงจตุจักร เขตจตุจักร",
    "lat": 13.8259653,
    "lng": 100.5571122
  },
  {
    "mu_place": "วัดทุ่งเศรษฐี ราม2",
    "name": "Chantana - ร้านอาหาร จันทนา",
    "rating": 4.3,
    "address": "852 854 ถ. ประชาอุทิศ แขวงสามเสนนอก เขตห้วยขวาง",
    "lat": 13.7690873,
    "lng": 100.5903625
  },
  {
    "mu_place": "วัดทุ่งเศรษฐี ราม2",
    "name": "ร้านอาหาร สามเสนวิลล่า พญาไท",
    "rating": 4.5,
    "address": "49/2 ถนน เศรษฐศิริ แขวงพญาไท เขตพญาไท",
    "lat": 13.7806484,
    "lng": 100.5318687
  },
  {
    "mu_place": "วัดทุ่งเศรษฐี ราม2",
    "name": "ร้านอาหารประพักตร์",
    "rating": 4.3,
    "address": "89/165 ถนน เทศบาลสงเคราะห์ แขวงลาดยาว เขตจตุจักร",
    "lat": 13.8406963,
    "lng": 100.552399
  },
  {
    "mu_place": "วัดทุ่งเศรษฐี ราม2",
    "name": "ร้านอาหารข้าวใหม่",
    "rating": 4.6,
    "address": "RHMH+3CX แขวงจันทรเกษม เขตจตุจักร",
    "lat": 13.8327455,
    "lng": 100.578617
  },
  {
    "mu_place": "วัดทุ่งเศรษฐี ราม2",
    "name": "ร้านอาหารเสี่ยครัวไทย",
    "rating": 4,
    "address": "33/3 ถ.เฉลิมพระเกียรติ ร.9 ดอกไม้ ประเวศ",
    "lat": 13.6999014,
    "lng": 100.6784954
  },
  {
    "mu_place": "วัดทุ่งเศรษฐี ราม2",
    "name": "ร้านอาหารไก่เพชร",
    "rating": 4.3,
    "address": "7 6 ซอย ลาดพร้าว 8 แยก 3 แขวงจอมพล เขตจตุจักร",
    "lat": 13.8103274,
    "lng": 100.5642949
  },
  {
    "mu_place": "วัดทุ่งเศรษฐี ราม2",
    "name": "ร้านอาหาร เมลโล่การ์เด้น",
    "rating": 4.5,
    "address": "10/804 เกษตร - นวมินทร์ แขวงนวลจันทร์ เขตบึงกุ่ม",
    "lat": 13.8276017,
    "lng": 100.6307115
  },
  {
    "mu_place": "วัดทุ่งเศรษฐี ราม2",
    "name": "ร้านอาหารริมชล",
    "rating": 4.4,
    "address": "811 ถ. นครไชยศรี แขวงถนนนครไชยศรี เขตดุสิต",
    "lat": 13.7894495,
    "lng": 100.5104817
  },
  {
    "mu_place": "วัดทุ่งเศรษฐี ราม2",
    "name": "หมีแฟมิลี่ สาขา ประชาชื่น",
    "rating": 4.6,
    "address": "280/1 ถ. ประชาชื่น แขวงจตุจักร เขตจตุจักร",
    "lat": 13.8232274,
    "lng": 100.5384329
  },
  {
    "mu_place": "วัดทุ่งเศรษฐี ราม2",
    "name": "ร้านอาหาร สวนลุงพร",
    "rating": 4.6,
    "address": "2 2 ตำบล แพรกษา อำเภอเมืองสมุทรปราการ",
    "lat": 13.5877449,
    "lng": 100.6419076
  },
  {
    "mu_place": "วัดทุ่งเศรษฐี ราม2",
    "name": "ร้านอาหาร ครกไม้ไทยลาว ซอยลาดปลาเค้า 24",
    "rating": 4.3,
    "address": "8 ซ. ลาดปลาเค้า 24 แขวงจรเข้บัว เขตลาดพร้าว",
    "lat": 13.8401614,
    "lng": 100.5958436
  },
  {
    "mu_place": "วัดทุ่งเศรษฐี ราม2",
    "name": "ร้านอาหารรสสุคนธ์",
    "rating": 4.1,
    "address": "299 12 หมู่ 5 ถ. ศรีนครินทร์ ตำบล บางเมือง อำเภอเมืองสมุทรปราการ",
    "lat": 13.6151095,
    "lng": 100.6209244
  },
  {
    "mu_place": "วัดทุ่งเศรษฐี ราม2",
    "name": "T and T Restaurant",
    "rating": 4.3,
    "address": "359 เทศบาลนิมิตใต้ ซอย 7 แขวงลาดยาว เขตจตุจักร",
    "lat": 13.8363602,
    "lng": 100.5495098
  },
  {
    "mu_place": "วัดทุ่งเศรษฐี ราม2",
    "name": "ป้าเรย์",
    "rating": 3.9,
    "address": "4-6-8 ถนนเทียนร่วมมิตร แขวงห้วยขวาง",
    "lat": 13.7667789,
    "lng": 100.5811614
  },
  {
    "mu_place": "วัดทุ่งเศรษฐี ราม2",
    "name": "ร้านอาหารต้มยำหัวปลา",
    "rating": 4.4,
    "address": "ซ. พหลโยธิน 48 แขวงอนุสาวรีย์ เขตบางเขน",
    "lat": 13.8797791,
    "lng": 100.6093118
  },
  {
    "mu_place": "วัดทุ่งเศรษฐี ราม2",
    "name": "ร้านอาหารบ้านอาจารย์",
    "rating": 4.3,
    "address": "107/7-8 ถนน รางน้ำ แขวงถนนพญาไท เขตราชเทวี",
    "lat": 13.7591564,
    "lng": 100.5418921
  },
  {
    "mu_place": "วัดทุ่งเศรษฐี ราม2",
    "name": "ร้านอาหารแกงป่า(ลุงสง่า)",
    "rating": 4.4,
    "address": "285 162 ซ. งามวงศ์วาน 23 แยก 11 ตำบลบางเขน อำเภอเมือง",
    "lat": 13.8651608,
    "lng": 100.5355962
  },
  {
    "mu_place": "วัดทุ่งเศรษฐี ราม2",
    "name": "ร้านอาหารลงแพ หรือ @บางขวด",
    "rating": 4.3,
    "address": "3 ซอย นวลจันทร์ 56 แขวงนวลจันทร์ เขตบึงกุ่ม",
    "lat": 13.8328813,
    "lng": 100.6462978
  },
  {
    "mu_place": "วัดทุ่งเศรษฐี ราม2",
    "name": "ร้านอาหารบ้านใบบัว",
    "rating": 4.3,
    "address": "13, 37 ถ. วงแหวนอุตสาหกรรม ลัดหลวง อำเภอพระประแดง",
    "lat": 13.6646477,
    "lng": 100.5233595
  },
  {
    "mu_place": "วัดเขาบันไดอิฐ",
    "name": "ร้านอาหารญาดา",
    "rating": 4.3,
    "address": "3XR4+RH2 ตำบล นาวุ้ง อำเภอเมืองเพชรบุรี",
    "lat": 13.0920215,
    "lng": 99.95638179999999
  },
  {
    "mu_place": "วัดเขาบันไดอิฐ",
    "name": "ร้านอาหารเปลญวน เพชรบุรี",
    "rating": 4.4,
    "address": "66 หมู่ที่ 6 ซอย เทศบาลบ้านลาด 21 ตำบล ท่าเสน อำเภอบ้านลาด",
    "lat": 13.0588099,
    "lng": 99.9340063
  },
  {
    "mu_place": "วัดเขาบันไดอิฐ",
    "name": "ร้านอาหารชิมดุ๊",
    "rating": 4.2,
    "address": "4W4M+GV7 ตำบล บ้านหม้อ อำเภอเมืองเพชรบุรี",
    "lat": 13.1062914,
    "lng": 99.9346824
  },
  {
    "mu_place": "วัดเขาบันไดอิฐ",
    "name": "ร้านอาหารกิ่งกาญจน์",
    "rating": 4.4,
    "address": "ถ. เพชรเกษม ตำบล ท่าเสน อำเภอบ้านลาด",
    "lat": 13.055216,
    "lng": 99.9434933
  },
  {
    "mu_place": "วัดเขาบันไดอิฐ",
    "name": "ร้านอาหารป๋าอ๊อด",
    "rating": 4.4,
    "address": "3WQV+QJX 238 ตำบล คลองกระแซง อำเภอเมืองเพชรบุรี",
    "lat": 13.0894871,
    "lng": 99.9441454
  },
  {
    "mu_place": "วัดเขาบันไดอิฐ",
    "name": "ร้านตาตือ จิ้มเปรี้ยว",
    "rating": 4.3,
    "address": "4W2X+PPV ตำบล ท่าราบ อำเภอเมืองเพชรบุรี",
    "lat": 13.1018678,
    "lng": 99.94926679999999
  },
  {
    "mu_place": "วัดเขาบันไดอิฐ",
    "name": "Relax Restaurant",
    "rating": 4.3,
    "address": "2/61-63 M.1, T.Raisom, อำเภอเมืองเพชรบุรี",
    "lat": 13.1125451,
    "lng": 99.9328063
  },
  {
    "mu_place": "วัดเขาบันไดอิฐ",
    "name": "ร้านอาหารบางตะบูนเบย์",
    "rating": 4.4,
    "address": "14 ถนน พระครูวชิระกิจโกศล ตำบล บางตะบูน อำเภอ บ้านแหลม",
    "lat": 13.2671727,
    "lng": 99.93676839999999
  },
  {
    "mu_place": "วัดเขาบันไดอิฐ",
    "name": "Baanrimnam Restaurant&Cafe Phetchburi",
    "rating": 4.2,
    "address": "22 ถนน ราชดำริห์ ตำบล ท่าราบ เมือง",
    "lat": 13.0887772,
    "lng": 99.9486271
  },
  {
    "mu_place": "วัดเขาบันไดอิฐ",
    "name": "ร้านอาหารกี่วา",
    "rating": 4.3,
    "address": "3WFQ+72G 3179 ตำบล บ้านหม้อ อำเภอเมืองเพชรบุรี",
    "lat": 13.0731688,
    "lng": 99.9375687
  },
  {
    "mu_place": "วัดเขาบันไดอิฐ",
    "name": "ร้านอาหารลมบก",
    "rating": 4.4,
    "address": "6 ซอย ตำรวจทางหลวง 7/5 ตำบล คลองกระแซง อำเภอเมืองเพชรบุรี",
    "lat": 13.0868206,
    "lng": 99.9477304
  },
  {
    "mu_place": "วัดเขาบันไดอิฐ",
    "name": "ร้านอาหารศรีสวัสดิ์",
    "rating": 4.6,
    "address": "4W88+8H4 ตำบล ไร่ส้ม อำเภอเมืองเพชรบุรี",
    "lat": 13.1157744,
    "lng": 99.9164513
  },
  {
    "mu_place": "วัดเขาบันไดอิฐ",
    "name": "\"JM Cuisine\" / \"เจ๊กเม้ง\" / ร้านอาหารความคิดสร้างสรรค์ต้นตำรับเพชรบุรี",
    "rating": 3.9,
    "address": "ตำบล คลองกระแซง อำเภอเมืองเพชรบุรี",
    "lat": 13.1081416,
    "lng": 99.9346999
  },
  {
    "mu_place": "วัดเขาบันไดอิฐ",
    "name": "ร้านอาหาร มะกอ",
    "rating": 4.4,
    "address": "87 เทศบาล 7 ตำบล ท่าคอย อำเภอท่ายาง",
    "lat": 12.9707159,
    "lng": 99.8846523
  },
  {
    "mu_place": "วัดเขาบันไดอิฐ",
    "name": "ร้านน้องโบว์2 อาหารอีสาน",
    "rating": 4.3,
    "address": "3X92+424 ตำบล ต้นมะม่วง อำเภอบ้านลาด",
    "lat": 13.0677585,
    "lng": 99.9500911
  },
  {
    "mu_place": "วัดเขาบันไดอิฐ",
    "name": "ร้านอาหารลูกแก้ว",
    "rating": 4.4,
    "address": "ร้านอาหารลูกแก้ว ตำบล บ้านลาด อำเภอบ้านลาด",
    "lat": 13.0556704,
    "lng": 99.9199735
  },
  {
    "mu_place": "วัดเขาบันไดอิฐ",
    "name": "ครัวคุ้มไม้พะยูงเขาหลวง (ร้านอาหารคุ้มไม้พะยูง)",
    "rating": 4.1,
    "address": "1/2, Moo 8, Kiri Ratthaya Road Tambon Thong Chai อำเภอเมืองเพชรบุรี",
    "lat": 13.1280874,
    "lng": 99.933881
  },
  {
    "mu_place": "วัดเขาบันไดอิฐ",
    "name": "ร้านอาหารเจ๊น้อยท่ายาง",
    "rating": 4.4,
    "address": "XVCM+8Q5 ตำบล ท่ายาง อำเภอท่ายาง",
    "lat": 12.9707736,
    "lng": 99.8844788
  },
  {
    "mu_place": "วัดเขาบันไดอิฐ",
    "name": "ร้านอาหารตุ๊ก",
    "rating": 4.3,
    "address": "ตำบล บ้านแหลม อำเภอ บ้านแหลม",
    "lat": 13.2016301,
    "lng": 99.9813028
  },
  {
    "mu_place": "วัดเขาบันไดอิฐ",
    "name": "ร้านข้าวแกงใบตาล",
    "rating": 4.2,
    "address": "9-11 พานิชเจริญ ตำบล ท่าราบ อำเภอเมืองเพชรบุรี",
    "lat": 13.1123731,
    "lng": 99.93798550000001
  },
  {
    "mu_place": "วัดป่าสว่างธรรม",
    "name": "อาหารร้านตะวัน",
    "rating": 4,
    "address": "CV33+WWW ตำบล หนองนาคำ อำเภอเมืองอุดรธานี",
    "lat": 17.4048617,
    "lng": 102.8548361
  },
  {
    "mu_place": "วัดป่าสว่างธรรม",
    "name": "ร้านอาหาร ปอ.1",
    "rating": 4.6,
    "address": "ยำละเนาะ YUM La-Noh ยำแซ่บ 383 หมู่15 ตำบล สร้อยพร้าว อำเภอเมืองอุดรธานี",
    "lat": 17.4372002,
    "lng": 103.0472164
  },
  {
    "mu_place": "วัดป่าสว่างธรรม",
    "name": "ร้านกินเส้น หนองหาน",
    "rating": 4.2,
    "address": "85 ม.10 ตำบล หนองหาน อำเภอหนองหาน",
    "lat": 17.3641327,
    "lng": 103.0992111
  },
  {
    "mu_place": "วัดป่าสว่างธรรม",
    "name": "ร้านอาหารหนุ่ยโภชนา",
    "rating": 4.2,
    "address": "956G+M4X ตำบล หนองเม็ก อำเภอหนองหาน",
    "lat": 17.3617578,
    "lng": 103.1753448
  },
  {
    "mu_place": "วัดป่าสว่างธรรม",
    "name": "ร้านอาหาร ริมบึง",
    "rating": 4.7,
    "address": "อุดรฟลอล่าวิลล์ ตำบล โนนสูง อำเภอเมืองอุดรธานี",
    "lat": 17.323296,
    "lng": 102.8443418
  },
  {
    "mu_place": "วัดป่าสว่างธรรม",
    "name": "ร้านเฮียงคู่",
    "rating": 4.1,
    "address": "FX9C+7WM 2410 ตำบล ดอนกลอย อำเภอ พิบูลย์รักษ์",
    "lat": 17.4681799,
    "lng": 102.9723184
  },
  {
    "mu_place": "วัดป่าสว่างธรรม",
    "name": "ร้านอาหารตั้งหลัก สามพร้าว",
    "rating": 5,
    "address": "FW25+2V ตำบล สามพร้าว อำเภอเมืองอุดรธานี",
    "lat": 17.4505477,
    "lng": 102.9108131
  },
  {
    "mu_place": "วัดป่าสว่างธรรม",
    "name": "ร้านอาหารยายนา",
    "rating": 4.5,
    "address": "CVWH+4G9 ทางหลวงแผ่นดินหมายเลข 2410 เมืองอุดรธานี อำเภอเมืองอุดรธานี",
    "lat": 17.4452793,
    "lng": 102.878797
  },
  {
    "mu_place": "วัดป่าสว่างธรรม",
    "name": "ครัวแม่แดง",
    "rating": 4.2,
    "address": "59 ตำบล หนองเม็ก อำเภอหนองหาน",
    "lat": 17.3688297,
    "lng": 103.1801334
  },
  {
    "mu_place": "วัดป่าสว่างธรรม",
    "name": "ร้านก๋วยเตี๋ยวแม่จิตหมู+เนื้อ และ อาหารตามสั่ง",
    "rating": 4.6,
    "address": "F298+HHV ตำบล ดอนกลอย อำเภอ พิบูลย์รักษ์",
    "lat": 17.469017,
    "lng": 103.016418
  },
  {
    "mu_place": "วัดป่าสว่างธรรม",
    "name": "ร้านอาหารไม่บก",
    "rating": 3.5,
    "address": "CVXG+32R ตำบล สามพร้าว อำเภอเมืองอุดรธานี",
    "lat": 17.447728,
    "lng": 102.875021
  },
  {
    "mu_place": "วัดป่าสว่างธรรม",
    "name": "บ้านข้าวหอม",
    "rating": 4.6,
    "address": "ซอย สวัสดิชัย ตำบล หนองหาน อำเภอหนองหาน",
    "lat": 17.3637992,
    "lng": 103.1069827
  },
  {
    "mu_place": "วัดป่าสว่างธรรม",
    "name": "ร้านอาหารกระดังงา",
    "rating": 3.3,
    "address": "G653+665 ตำบล นาทม อำเภอ ทุ่งฝน",
    "lat": 17.5080068,
    "lng": 103.2031129
  },
  {
    "mu_place": "วัดป่าสว่างธรรม",
    "name": "ร้านอาหาร เรือนไทย แซ่บสยาม",
    "rating": 4.2,
    "address": "CV77+PHF ตำบล หนองนาคำ อำเภอเมืองอุดรธานี",
    "lat": 17.4141137,
    "lng": 102.8638672
  },
  {
    "mu_place": "วัดป่าสว่างธรรม",
    "name": "ร้านอาหารลูกแฝด",
    "rating": 5,
    "address": "8V62+3Q2 ถ. มิตรภาพ เมืองอุดรธานี อำเภอเมืองอุดรธานี",
    "lat": 17.3101909,
    "lng": 102.8519765
  },
  {
    "mu_place": "วัดป่าสว่างธรรม",
    "name": "ร้านอาหานเก้มก้าม",
    "rating": 4.4,
    "address": "CV62+5MH Unnamed Road ตำบล หนองนาคำ อำเภอเมืองอุดรธานี",
    "lat": 17.4104401,
    "lng": 102.8517441
  },
  {
    "mu_place": "วัดป่าสว่างธรรม",
    "name": "Tings Restaurant",
    "rating": 5,
    "address": "9VC5+625 ซอย พรสวรรค์ 1 ตำบล หนองนาคำ อำเภอเมืองอุดรธานี",
    "lat": 17.3705767,
    "lng": 102.8574916
  },
  {
    "mu_place": "วัดป่าสว่างธรรม",
    "name": "ร้านธรรมดา",
    "rating": 4.5,
    "address": "2410 ตำบล สามพร้าว อำเภอเมืองอุดรธานี",
    "lat": 17.4470311,
    "lng": 102.8939342
  },
  {
    "mu_place": "วัดป่าสว่างธรรม",
    "name": "ร้านกัปตันตั้วข้าวขาหมู ก๋วยเตี๋ยว อาหารตามสั่ง",
    "rating": 4.5,
    "address": "545 ถนน ทางหลวงชนบท อุดรธานี 3056 ตำบล สามพร้าว อำเภอเมืองอุดรธานี",
    "lat": 17.4444715,
    "lng": 102.8732983
  },
  {
    "mu_place": "วัดป่าสว่างธรรม",
    "name": "ร้าน อาหารสถานีแซบคัก",
    "rating": 4.8,
    "address": "M32C+G7Q ตำบล เตาไห อำเภอ เพ็ญ",
    "lat": 17.6513317,
    "lng": 103.0707371
  },
  {
    "mu_place": "วัดศรีดอนมูล",
    "name": "ร้านอาหารดาวคะนอง สาขา ในเมือง",
    "rating": 4.2,
    "address": "340 ถนน เจริญราษฎร์ ตำบล ในเมือง อำเภอเมืองลำพูน",
    "lat": 18.5893673,
    "lng": 99.0115752
  },
  {
    "mu_place": "วัดศรีดอนมูล",
    "name": "ซันซุย ร้านอาหาร",
    "rating": 4.8,
    "address": "299 23 ซอย หมู่บ้านนาทองวิลล์ ตำบล ท่าศาลา อำเภอเมืองเชียงใหม่",
    "lat": 18.7799435,
    "lng": 99.0304594
  },
  {
    "mu_place": "วัดศรีดอนมูล",
    "name": "ร้านอาหารครัวสบันงา By P'preaw",
    "rating": 4.5,
    "address": "473 หมู่ที่ 1 ตำบล สันทรายน้อย อำเภอสันทราย",
    "lat": 18.8319238,
    "lng": 99.0452706
  },
  {
    "mu_place": "วัดศรีดอนมูล",
    "name": "ร้านอาหารครัวไทย",
    "rating": 4.5,
    "address": "เลขที่ 124/308 อำเภอเมืองเชียงใหม่",
    "lat": 18.7877876,
    "lng": 99.0400332
  },
  {
    "mu_place": "วัดศรีดอนมูล",
    "name": "ร้านอาหาร หอมละมุน",
    "rating": 4.4,
    "address": "54/15 ตำบล ฟ้าฮ่าม อำเภอเมืองเชียงใหม่",
    "lat": 18.8184439,
    "lng": 99.0018218
  },
  {
    "mu_place": "วัดศรีดอนมูล",
    "name": "ร้านอาหาร บุญทองทิพย์",
    "rating": 3.9,
    "address": "18°40'01.0\"N 99°03'06., ซอย 7 ตำบล ป่าบง อำเภอ สารภี",
    "lat": 18.666937,
    "lng": 99.05186499999999
  },
  {
    "mu_place": "วัดศรีดอนมูล",
    "name": "ร้านอาหารต้นน้ำ",
    "rating": 4.4,
    "address": "313 ซอย ป่าตัน 9 ตำบล สันผีเสื้อ อำเภอเมืองเชียงใหม่",
    "lat": 18.8328451,
    "lng": 98.991505
  },
  {
    "mu_place": "วัดศรีดอนมูล",
    "name": "ร้านอาหารบ้านชานเมือง เชียงใหม่",
    "rating": 4.1,
    "address": "แยกลิขิตชีวัน-แยกกองพันสัตว์ต่าง ถ. รอบเมืองเชียงใหม่ ตำบล สันผีเสื้อ อำเภอเมืองเชียงใหม่",
    "lat": 18.8565215,
    "lng": 98.9970719
  },
  {
    "mu_place": "วัดศรีดอนมูล",
    "name": "ร้านอาหารโก๋โบราณ..ตลาดโบราณ..bigcook Shop",
    "rating": 4,
    "address": "R2MM+XG2 ตำบล หนองจ๊อม อำเภอสันทราย",
    "lat": 18.8348896,
    "lng": 99.0337455
  },
  {
    "mu_place": "วัดศรีดอนมูล",
    "name": "ร้านอาหารดาวคะนองลำพูน",
    "rating": 4.1,
    "address": "180 หมู่ 4 ถ.ซุปเปอร์ไฮเวย์เชียงใหม่-ลำปาง, ศรีบัวบาน, เมือง",
    "lat": 18.5466817,
    "lng": 99.0579884
  },
  {
    "mu_place": "วัดศรีดอนมูล",
    "name": "Lek Prickkeenoo Shop",
    "rating": 4.3,
    "address": "56/1, Singharat Road, Tambon Sriphoom, Amphoe Muang Chiangmai, Chiangmai, 50300",
    "lat": 18.7925129,
    "lng": 98.981978
  },
  {
    "mu_place": "วัดศรีดอนมูล",
    "name": "ร้านอาหารยอดแซ่บ",
    "rating": 4.2,
    "address": "M2RX+GMV ตำบล ยางเนิ้ง อำเภอ สารภี",
    "lat": 18.6912986,
    "lng": 99.04916399999999
  },
  {
    "mu_place": "วัดศรีดอนมูล",
    "name": "ร้านอาหารอร่อยจริงจริง-好好吃",
    "rating": 4.5,
    "address": "ถนน ศรีวิชัย ตำบลสุเทพ อำเภอเมืองเชียงใหม่",
    "lat": 18.8037473,
    "lng": 98.9199493
  },
  {
    "mu_place": "วัดศรีดอนมูล",
    "name": "ร้านอาหารไทย \"คำดารา\"",
    "rating": 4.2,
    "address": "193 ถนน เจริญราษฎร์ อำเภอเมือง อำเภอเมืองเชียงใหม่",
    "lat": 18.7930324,
    "lng": 99.0009582
  },
  {
    "mu_place": "วัดศรีดอนมูล",
    "name": "ร้านอาหารชาววัง",
    "rating": 4.1,
    "address": "เลขที่ 399/4 ถนน เชียงใหม่- ดอยสะเก็ด อำเภอสันทราย",
    "lat": 18.8135704,
    "lng": 99.03172550000001
  },
  {
    "mu_place": "วัดศรีดอนมูล",
    "name": "เขยเจียงใหม่ - อาหารเหนือ (ร้านอาหารเชียงใหม่)",
    "rating": 4.5,
    "address": "14 ถนน ซอย สันติธรรม ตำบลช้างเผือก อำเภอเมืองเชียงใหม่",
    "lat": 18.8004791,
    "lng": 98.9782729
  },
  {
    "mu_place": "วัดศรีดอนมูล",
    "name": "ร้าน บ้านไร่ยามเย็น",
    "rating": 4.3,
    "address": "ซอย บ้านไร่ หมู่ 3 ตำบล ฟ้าฮ่าม อำเภอเมืองเชียงใหม่",
    "lat": 18.8124211,
    "lng": 99.00781889999999
  },
  {
    "mu_place": "วัดศรีดอนมูล",
    "name": "ร้านอาหารหน้าบ้าน อาหารพื้นเมือง",
    "rating": 4.7,
    "address": "RXCC+F29 ตำบลช้างเผือก อำเภอเมืองเชียงใหม่",
    "lat": 18.8211446,
    "lng": 98.970079
  },
  {
    "mu_place": "วัดศรีดอนมูล",
    "name": "ร้านอาหาร ครัวสวนไผ่",
    "rating": 3.8,
    "address": "119 ตำบล บ้านแป้น อำเภอเมืองลำพูน",
    "lat": 18.5411377,
    "lng": 98.95594799999999
  },
  {
    "mu_place": "วัดศรีดอนมูล",
    "name": "จงชาน ร้านอาหารจีนกวางตุ้ง",
    "rating": 4.3,
    "address": "DK Park, ถนน มหิดล Changklan, อำเภอเมืองเชียงใหม่",
    "lat": 18.7681189,
    "lng": 98.98429829999999
  },
  {
    "mu_place": "วัดพระธาตุดอยสะเก็ด",
    "name": "ซันซุย ร้านอาหาร",
    "rating": 4.8,
    "address": "299 23 ซอย หมู่บ้านนาทองวิลล์ ตำบล ท่าศาลา อำเภอเมืองเชียงใหม่",
    "lat": 18.7799435,
    "lng": 99.0304594
  },
  {
    "mu_place": "วัดพระธาตุดอยสะเก็ด",
    "name": "ร้านอาหารครัวสบันงา By P'preaw",
    "rating": 4.5,
    "address": "473 หมู่ที่ 1 ตำบล สันทรายน้อย อำเภอสันทราย",
    "lat": 18.8319238,
    "lng": 99.0452706
  },
  {
    "mu_place": "วัดพระธาตุดอยสะเก็ด",
    "name": "ร้านอาหารครัวไทย",
    "rating": 4.5,
    "address": "เลขที่ 124/308 อำเภอเมืองเชียงใหม่",
    "lat": 18.7877876,
    "lng": 99.0400332
  },
  {
    "mu_place": "วัดพระธาตุดอยสะเก็ด",
    "name": "ร้านอาหาร หอมละมุน",
    "rating": 4.4,
    "address": "54/15 ตำบล ฟ้าฮ่าม อำเภอเมืองเชียงใหม่",
    "lat": 18.8184439,
    "lng": 99.0018218
  },
  {
    "mu_place": "วัดพระธาตุดอยสะเก็ด",
    "name": "ร้านอาหารต้นน้ำ",
    "rating": 4.4,
    "address": "313 ซอย ป่าตัน 9 ตำบล สันผีเสื้อ อำเภอเมืองเชียงใหม่",
    "lat": 18.8328451,
    "lng": 98.991505
  },
  {
    "mu_place": "วัดพระธาตุดอยสะเก็ด",
    "name": "ร้านอาหารบ้านชานเมือง เชียงใหม่",
    "rating": 4.1,
    "address": "แยกลิขิตชีวัน-แยกกองพันสัตว์ต่าง ถ. รอบเมืองเชียงใหม่ ตำบล สันผีเสื้อ อำเภอเมืองเชียงใหม่",
    "lat": 18.8565215,
    "lng": 98.9970719
  },
  {
    "mu_place": "วัดพระธาตุดอยสะเก็ด",
    "name": "ร้านอาหารโก๋โบราณ..ตลาดโบราณ..bigcook Shop",
    "rating": 4,
    "address": "R2MM+XG2 ตำบล หนองจ๊อม อำเภอสันทราย",
    "lat": 18.8348896,
    "lng": 99.0337455
  },
  {
    "mu_place": "วัดพระธาตุดอยสะเก็ด",
    "name": "ร้านอาหารไทย \"คำดารา\"",
    "rating": 4.2,
    "address": "193 ถนน เจริญราษฎร์ อำเภอเมือง อำเภอเมืองเชียงใหม่",
    "lat": 18.7930324,
    "lng": 99.0009582
  },
  {
    "mu_place": "วัดพระธาตุดอยสะเก็ด",
    "name": "ร้านอาหารตามสั่ง ป้าน้อง",
    "rating": 4.6,
    "address": "Unnamed Road, 50200 อำเภอเมืองเชียงใหม่",
    "lat": 18.7822014,
    "lng": 98.9546548
  },
  {
    "mu_place": "วัดพระธาตุดอยสะเก็ด",
    "name": "ร้านอาหารลาบดงถ่าน",
    "rating": 4.7,
    "address": "15/3 ถนนหัสดิเสวี ซอย 4 ตำบลช้างเผือก อำเภอเมืองเชียงใหม่",
    "lat": 18.8029624,
    "lng": 98.98231260000001
  },
  {
    "mu_place": "วัดพระธาตุดอยสะเก็ด",
    "name": "ร้านอาหารชาววัง",
    "rating": 4.1,
    "address": "เลขที่ 399/4 ถนน เชียงใหม่- ดอยสะเก็ด อำเภอสันทราย",
    "lat": 18.8135704,
    "lng": 99.03172550000001
  },
  {
    "mu_place": "วัดพระธาตุดอยสะเก็ด",
    "name": "ร้านอาหารลูกป้าอ้วน",
    "rating": 4.2,
    "address": "ตำบลช้างเผือก อำเภอเมืองเชียงใหม่",
    "lat": 18.8043437,
    "lng": 98.983705
  },
  {
    "mu_place": "วัดพระธาตุดอยสะเก็ด",
    "name": "เขยเจียงใหม่ - อาหารเหนือ (ร้านอาหารเชียงใหม่)",
    "rating": 4.5,
    "address": "14 ถนน ซอย สันติธรรม ตำบลช้างเผือก อำเภอเมืองเชียงใหม่",
    "lat": 18.8004791,
    "lng": 98.9782729
  },
  {
    "mu_place": "วัดพระธาตุดอยสะเก็ด",
    "name": "ร้าน บ้านไร่ยามเย็น",
    "rating": 4.3,
    "address": "ซอย บ้านไร่ หมู่ 3 ตำบล ฟ้าฮ่าม อำเภอเมืองเชียงใหม่",
    "lat": 18.8124211,
    "lng": 99.00781889999999
  },
  {
    "mu_place": "วัดพระธาตุดอยสะเก็ด",
    "name": "ร้านอาหารหน้าบ้าน อาหารพื้นเมือง",
    "rating": 4.7,
    "address": "RXCC+F29 ตำบลช้างเผือก อำเภอเมืองเชียงใหม่",
    "lat": 18.8211446,
    "lng": 98.970079
  },
  {
    "mu_place": "วัดพระธาตุดอยสะเก็ด",
    "name": "จงชาน ร้านอาหารจีนกวางตุ้ง",
    "rating": 4.3,
    "address": "DK Park, ถนน มหิดล Changklan, อำเภอเมืองเชียงใหม่",
    "lat": 18.7681189,
    "lng": 98.98429829999999
  },
  {
    "mu_place": "วัดพระธาตุดอยสะเก็ด",
    "name": "ร้านอาหารตามสั่ง",
    "rating": 4.3,
    "address": "R2JH+5P3 ซ. หมู่บ้านภิมุกเพลส ซอย 14 เฟส 6 ตำบล หนองจ๊อม อำเภอสันทราย",
    "lat": 18.8303862,
    "lng": 99.0292887
  },
  {
    "mu_place": "วัดพระธาตุดอยสะเก็ด",
    "name": "ร้านอาหารเฮือนเพ็ญ",
    "rating": 4,
    "address": "112 ตำบล พระสิงห์ อำเภอเมืองเชียงใหม่",
    "lat": 18.7858228,
    "lng": 98.9851475
  },
  {
    "mu_place": "วัดพระธาตุดอยสะเก็ด",
    "name": "Jaikaw Kaosoy Resturant",
    "rating": 4.5,
    "address": "Q275+JHX ใจแก้ว, ซอย 1 ข, ตำบลวัดเกต อำเภอเมืองเชียงใหม่",
    "lat": 18.7640891,
    "lng": 99.008989
  },
  {
    "mu_place": "วัดพระธาตุดอยสะเก็ด",
    "name": "ร้านอาหาร สวนผัก",
    "rating": 4.2,
    "address": "61 ถนนสนามบิน สุเทพ อำเภอเมืองเชียงใหม่",
    "lat": 18.770204,
    "lng": 98.9739809
  },
  {
    "mu_place": "วัดธาตุมหาชัย หลวงปู่คำพันธ์",
    "name": "ร้านอาหารระเบียงฟู้ด นครพนม",
    "rating": 4.3,
    "address": "ตำบล กุรุคุ อำเภอเมืองนครพนม",
    "lat": 17.3099005,
    "lng": 104.5433676
  },
  {
    "mu_place": "วัดธาตุมหาชัย หลวงปู่คำพันธ์",
    "name": "ร้านอาหารน้องบอน",
    "rating": 4.8,
    "address": "5GHH+PQ3 ซอย หลักเมือง 4 ตำบล ปลาปาก อำเภอ ปลาปาก",
    "lat": 17.1792725,
    "lng": 104.5294127
  },
  {
    "mu_place": "วัดธาตุมหาชัย หลวงปู่คำพันธ์",
    "name": "ร้าน ป้าตีด",
    "rating": 4.4,
    "address": "186 หมู่ 8, ถนนนิตโย, ตำบลกุสุมาลย์ อำเภอกุสุมาลย์ จังหวัดสกลนคร, 47210",
    "lat": 17.3329566,
    "lng": 104.3264326
  },
  {
    "mu_place": "วัดธาตุมหาชัย หลวงปู่คำพันธ์",
    "name": "ร้านเจ๊สำลี",
    "rating": 4.1,
    "address": "315 หมู่ 14, ถนนท่าอุเทน-กุสุมาลย์, ตำบลโพนสวรรค์ อำเภอโพนสวรรค์ จังหวัดนครพนม, 48190",
    "lat": 17.4491882,
    "lng": 104.4507371
  },
  {
    "mu_place": "วัดธาตุมหาชัย หลวงปู่คำพันธ์",
    "name": "ร้านครัวขุนแผน",
    "rating": 4.4,
    "address": "8HRW+8WQ ตำบล บ้านผึ้ง อำเภอเมืองนครพนม",
    "lat": 17.340869,
    "lng": 104.5973515
  },
  {
    "mu_place": "วัดธาตุมหาชัย หลวงปู่คำพันธ์",
    "name": "ร้านอาหาร\"ลุงหิว\"",
    "rating": 5,
    "address": "48WW+FVQ สน.2013 ตำบล เชียงสือ อำเภอ โพนนาแก้ว",
    "lat": 17.1461832,
    "lng": 104.3471414
  },
  {
    "mu_place": "วัดธาตุมหาชัย หลวงปู่คำพันธ์",
    "name": "Ghee Gooh",
    "rating": 3.7,
    "address": "4J44+X46 2033 ตำบล หนองฮี อำเภอ ปลาปาก",
    "lat": 17.1074091,
    "lng": 104.6052634
  },
  {
    "mu_place": "วัดธาตุมหาชัย หลวงปู่คำพันธ์",
    "name": "ร้านอาหาร&ร้านขายของชำ",
    "rating": 5,
    "address": "105 ตำบล หนองฮี อำเภอ ปลาปาก",
    "lat": 17.1226017,
    "lng": 104.6090467
  },
  {
    "mu_place": "วัดธาตุมหาชัย หลวงปู่คำพันธ์",
    "name": "ร้านกุตาไก้ถั่วงอก",
    "rating": 4,
    "address": "68หมู่10 อำเภอ ปลาปาก",
    "lat": 17.2243206,
    "lng": 104.6320136
  },
  {
    "mu_place": "วัดธาตุมหาชัย หลวงปู่คำพันธ์",
    "name": "ร้านซุมแซว อาหารอีสานสุดแซบ",
    "rating": 3.6,
    "address": "8JXC+CFP ซอย ติวานนท์ 24 ตำบล บางกระสอ อำเภอเมืองนนทบุรี",
    "lat": 17.3485941,
    "lng": 104.6211979
  },
  {
    "mu_place": "วัดธาตุมหาชัย หลวงปู่คำพันธ์",
    "name": "ร้านอาหาร",
    "rating": 4,
    "address": "260 ตำบล บ้านโพน อำเภอ โพนนาแก้ว",
    "lat": 17.1604363,
    "lng": 104.3333344
  },
  {
    "mu_place": "วัดธาตุมหาชัย หลวงปู่คำพันธ์",
    "name": "My House",
    "rating": 4.7,
    "address": "FC3X+GHV Thetsaban 2 Rd ตำบล โพนสวรรค์ อำเภอ โพนสวรรค์",
    "lat": 17.4538575,
    "lng": 104.4489161
  },
  {
    "mu_place": "วัดธาตุมหาชัย หลวงปู่คำพันธ์",
    "name": "ร้านชาพะยอม @ปลาปาก อร่อย หอมหวาน",
    "rating": 4,
    "address": "5GQG+PCC ตำบล ปลาปาก อำเภอ ปลาปาก",
    "lat": 17.1893084,
    "lng": 104.5260089
  },
  {
    "mu_place": "วัดธาตุมหาชัย หลวงปู่คำพันธ์",
    "name": "ร้านรุ้งโภชนา",
    "rating": 4.5,
    "address": "4H6V+MW7 ตำบล หนองฮี อำเภอ ปลาปาก",
    "lat": 17.1116675,
    "lng": 104.594801
  },
  {
    "mu_place": "วัดธาตุมหาชัย หลวงปู่คำพันธ์",
    "name": "ร้านเจ๊เติม",
    "rating": 4.9,
    "address": "55 หมู่ 12 บ้านหนองฮี ตำบล หนองฮี อำเภอ ปลาปาก",
    "lat": 17.1091899,
    "lng": 104.6064627
  },
  {
    "mu_place": "วัดธาตุมหาชัย หลวงปู่คำพันธ์",
    "name": "ร้านอาหารตามสั่ง - ตำ ยำ",
    "rating": 5,
    "address": "FF26+Q5P 2028 ตำบล โพนสวรรค์ อำเภอ โพนสวรรค์",
    "lat": 17.4519774,
    "lng": 104.4605322
  },
  {
    "mu_place": "วัดธาตุมหาชัย หลวงปู่คำพันธ์",
    "name": "TA-BE-BU-YA",
    "rating": 4.5,
    "address": "247/1 ม.2 บ้านหนองฮี ตำบล หนองฮี อำเภอ ปลาปาก",
    "lat": 17.1061267,
    "lng": 104.6038568
  },
  {
    "mu_place": "วัดธาตุมหาชัย หลวงปู่คำพันธ์",
    "name": "ร้าน ปาก",
    "rating": 0,
    "address": "ตำบล กุสุมาลย์ อำเภอ กุสุมาลย์",
    "lat": 17.3321373,
    "lng": 104.3282046
  },
  {
    "mu_place": "วัดธาตุมหาชัย หลวงปู่คำพันธ์",
    "name": "นิตยาอาหารตามสั่ง",
    "rating": 4.5,
    "address": "23 หมู่ 2 อำเภอ ปลาปาก",
    "lat": 17.177328,
    "lng": 104.5289722
  },
  {
    "mu_place": "วัดธาตุมหาชัย หลวงปู่คำพันธ์",
    "name": "ร้านเพชร วิเศษ",
    "rating": 0,
    "address": "67FQ+G9H สน.2013 ตำบล นาแก้ว อำเภอ โพนนาแก้ว",
    "lat": 17.2238271,
    "lng": 104.2884608
  },
  {
    "mu_place": "วัดเขาตาเงาะอุดมพร(หลวงปู่จื่อ)",
    "name": "ครัวสวนเสวย",
    "rating": 4.2,
    "address": "42 ตำบล หนองบัวระเหว อำเภอ หนองบัวระเหว",
    "lat": 15.7612183,
    "lng": 101.7379305
  },
  {
    "mu_place": "วัดเขาตาเงาะอุดมพร(หลวงปู่จื่อ)",
    "name": "ร้านอาหารเเละของฝากดอนละนาม(เจ้าแรกของชัยภูมิ)",
    "rating": 4,
    "address": "55 หมู่ 11 บ้านดอนละนาม ตำบล ละหาน อำเภอจัตุรัส",
    "lat": 15.6291755,
    "lng": 101.9260159
  },
  {
    "mu_place": "วัดเขาตาเงาะอุดมพร(หลวงปู่จื่อ)",
    "name": "ร้านอาหารริมบึง",
    "rating": 4.2,
    "address": "QWG6+22Q ตำบล บ้านเขว้า อำเภอ บ้านเขว้า",
    "lat": 15.7750504,
    "lng": 101.9100944
  },
  {
    "mu_place": "วัดเขาตาเงาะอุดมพร(หลวงปู่จื่อ)",
    "name": "ชาวประมง",
    "rating": 4.4,
    "address": "Unnamed Road,, ตำบล ละหาน อำเภอจัตุรัส",
    "lat": 15.6023931,
    "lng": 101.904602
  },
  {
    "mu_place": "วัดเขาตาเงาะอุดมพร(หลวงปู่จื่อ)",
    "name": "ร้านอาหาร บ้านไม้",
    "rating": 4.6,
    "address": "ถนนหลังที่ว่าการ, ตำบล หนองบัวระเหว อำเภอ หนองบัวระเหว",
    "lat": 15.7482604,
    "lng": 101.7603945
  },
  {
    "mu_place": "วัดเขาตาเงาะอุดมพร(หลวงปู่จื่อ)",
    "name": "ร้านยายก้องอาหารตามสั่ง ก๋วยเตี๋ยวหมู",
    "rating": 4.4,
    "address": "MPQ7+MWF 2354 ตำบล โสกปลาดุก อำเภอ หนองบัวระเหว",
    "lat": 15.6891998,
    "lng": 101.7148271
  },
  {
    "mu_place": "วัดเขาตาเงาะอุดมพร(หลวงปู่จื่อ)",
    "name": "ร้านอาหารเล็กบ้านสวน",
    "rating": 4.3,
    "address": "หมู่ที่ 2 บ้านโป่งคองใต้ ตำบล ห้วยต้อน อำเภอเมืองชัยภูมิ",
    "lat": 15.9008535,
    "lng": 101.9642292
  },
  {
    "mu_place": "วัดเขาตาเงาะอุดมพร(หลวงปู่จื่อ)",
    "name": "ร้านคุณแม่",
    "rating": 4.7,
    "address": "QQ27+PJW ตำบล หนองบัวระเหว อำเภอ หนองบัวระเหว",
    "lat": 15.7518519,
    "lng": 101.76408
  },
  {
    "mu_place": "วัดเขาตาเงาะอุดมพร(หลวงปู่จื่อ)",
    "name": "ร้านอาหารพันจอก",
    "rating": 4.3,
    "address": "MJ3R+XW5 ตำบล ท่ากูบ อำเภอ ซับใหญ่",
    "lat": 15.654894,
    "lng": 101.6423591
  },
  {
    "mu_place": "วัดเขาตาเงาะอุดมพร(หลวงปู่จื่อ)",
    "name": "ร้านคุณลำใย ก๋วยเตี๋ยวเย็นตาโฟ อาหารตามสั่ง เครื่องดื่ม",
    "rating": 4.4,
    "address": "ตำบล หนองบัวใหญ่ อำเภอจัตุรัส",
    "lat": 15.5827104,
    "lng": 101.8592171
  },
  {
    "mu_place": "วัดเขาตาเงาะอุดมพร(หลวงปู่จื่อ)",
    "name": "ร้านอาหารตามสั่ง ในซอยหมู่11",
    "rating": 0,
    "address": "บ้านม่วง หมู่11 ตำบล บ้านเขว้า อำเภอ บ้านเขว้า",
    "lat": 15.7621974,
    "lng": 101.9148717
  },
  {
    "mu_place": "วัดเขาตาเงาะอุดมพร(หลวงปู่จื่อ)",
    "name": "ร้านอาหารแม่สมจิตร",
    "rating": 4.2,
    "address": "JJP9+J2R ตำบล ซับใหญ่ อำเภอ ซับใหญ่",
    "lat": 15.6365919,
    "lng": 101.6175259
  },
  {
    "mu_place": "วัดเขาตาเงาะอุดมพร(หลวงปู่จื่อ)",
    "name": "ร้านอาหารสวนเคียงบึง",
    "rating": 3.5,
    "address": "JW35+JG7 ตำบล ละหาน อำเภอจัตุรัส",
    "lat": 15.6040301,
    "lng": 101.9087996
  },
  {
    "mu_place": "วัดเขาตาเงาะอุดมพร(หลวงปู่จื่อ)",
    "name": "ร้านอาหารครัวกนกกาญจน์",
    "rating": 4.5,
    "address": "101ถ 2159 ตำบล ห้วยต้อน อำเภอเมืองชัยภูมิ",
    "lat": 15.8922077,
    "lng": 101.9315907
  },
  {
    "mu_place": "วัดเขาตาเงาะอุดมพร(หลวงปู่จื่อ)",
    "name": "ครัวแม่บึ้ง",
    "rating": 4.1,
    "address": "QWM3+58P ตำบล โนนแดง อำเภอ บ้านเขว้า",
    "lat": 15.782965,
    "lng": 101.903279
  },
  {
    "mu_place": "วัดเขาตาเงาะอุดมพร(หลวงปู่จื่อ)",
    "name": "อาหารตามสั่ง ก้วยเตี๋ยวมุ้ยโภชนา",
    "rating": 0,
    "address": "หมู่ 2 ชัยภูมิ-นครสวรรค์ 429 ตำบล โนนแดง อำเภอ บ้านเขว้า",
    "lat": 15.7841867,
    "lng": 101.9071824
  },
  {
    "mu_place": "วัดเขาตาเงาะอุดมพร(หลวงปู่จื่อ)",
    "name": "แม่ อ้อย อาหาร สด",
    "rating": 5,
    "address": "ตำบล ท่ากูบ อำเภอ ซับใหญ่",
    "lat": 15.6389634,
    "lng": 101.7087163
  },
  {
    "mu_place": "วัดเขาตาเงาะอุดมพร(หลวงปู่จื่อ)",
    "name": "ร้านอ้อโภชนา",
    "rating": 4.6,
    "address": "RXJH+8V4 Unnamed Road ตำบล โคกสูง อำเภอเมืองชัยภูมิ",
    "lat": 15.8307757,
    "lng": 101.9797121
  },
  {
    "mu_place": "วัดเขาตาเงาะอุดมพร(หลวงปู่จื่อ)",
    "name": "วุฒิอาหารตามสั่ง-อาหารป่า",
    "rating": 4.9,
    "address": "18 ม.9 บ้านซับสมบูรณ์, ตำบล ท่ากูบ อำเภอ ซับใหญ่",
    "lat": 15.6578748,
    "lng": 101.6401251
  },
  {
    "mu_place": "วัดเขาตาเงาะอุดมพร(หลวงปู่จื่อ)",
    "name": "ร้านอาหารสุดอร่อย",
    "rating": 4.7,
    "address": "MVJ8+49P 2170 ตำบล หนองบัวบาน อำเภอจัตุรัส",
    "lat": 15.6803868,
    "lng": 101.8659758
  },
  {
    "mu_place": "ศาลปู่อือลือนาคราช",
    "name": "ร้านเข้าซอยอาหารเช้า 69",
    "rating": 4.7,
    "address": "276 หมู่7 ตำบล เซกา อำเภอ เซกา",
    "lat": 17.9301498,
    "lng": 103.9549545
  },
  {
    "mu_place": "ศาลปู่อือลือนาคราช",
    "name": "Yai Som Jit Restaurant",
    "rating": 4.6,
    "address": "4VHH+95Q ตำบล นาแสง อำเภอ ศรีวิไล",
    "lat": 18.1284411,
    "lng": 103.8779999
  },
  {
    "mu_place": "ศาลปู่อือลือนาคราช",
    "name": "ร้านอาหารสะพานไม้",
    "rating": 4.2,
    "address": "WXF3+4CM ตำบล เซกา อำเภอ เซกา",
    "lat": 17.9228332,
    "lng": 103.953535
  },
  {
    "mu_place": "ศาลปู่อือลือนาคราช",
    "name": "ร้านระเบียงไม้",
    "rating": 3.8,
    "address": "58 อำเภอ บึงโขงหลง",
    "lat": 17.9836893,
    "lng": 104.0261314
  },
  {
    "mu_place": "ศาลปู่อือลือนาคราช",
    "name": "ร้านอาหารอุ้มทอง",
    "rating": 4,
    "address": "X659+4QG ตำบล บ้านแพง อำเภอ บ้านแพง",
    "lat": 17.9578148,
    "lng": 104.2194446
  },
  {
    "mu_place": "ศาลปู่อือลือนาคราช",
    "name": "ครัว บีมกะภีม อาหารตามสั่ง",
    "rating": 4.1,
    "address": "ตำบล เซกา อำเภอ เซกา",
    "lat": 17.9299252,
    "lng": 103.9607607
  },
  {
    "mu_place": "ศาลปู่อือลือนาคราช",
    "name": "ปรมินทร์ อาหารตามสั่ง",
    "rating": 4.6,
    "address": "254 หมู่ 16 ตำบล เซกา เซกา อำเภอ เซกา",
    "lat": 17.9293802,
    "lng": 103.9607024
  },
  {
    "mu_place": "ศาลปู่อือลือนาคราช",
    "name": "ครัวเพ็ญพิชชา เบียร์วุ้น",
    "rating": 4.4,
    "address": "49 หมู่3 ตำบล บึงโขงหลง อำเภอ บึงโขงหลง",
    "lat": 17.9792992,
    "lng": 104.0273476
  },
  {
    "mu_place": "ศาลปู่อือลือนาคราช",
    "name": "ครัวคุณเพชร",
    "rating": 4.2,
    "address": "ตำบล บึงโขงหลง อำเภอ บึงโขงหลง",
    "lat": 17.9864375,
    "lng": 104.0248125
  },
  {
    "mu_place": "ศาลปู่อือลือนาคราช",
    "name": "ร้านอาหาร ติ๋มโภชนา",
    "rating": 5,
    "address": "R5M2+X58 นพ.3004 ตำบล หนองซน อำเภอ นาทม",
    "lat": 17.8349158,
    "lng": 104.1504388
  },
  {
    "mu_place": "ศาลปู่อือลือนาคราช",
    "name": "ร้านอาหารระเบียงบึงการ์เด้น",
    "rating": 3.4,
    "address": "X2QF+2R8 ตำบล บึงโขงหลง อำเภอ บึงโขงหลง",
    "lat": 17.9875364,
    "lng": 104.0245647
  },
  {
    "mu_place": "ศาลปู่อือลือนาคราช",
    "name": "ร้านหลบมุมซอย8",
    "rating": 4.3,
    "address": "บ้านดอนกลาง ตำบล บึงโขงหลง อำเภอ บึงโขงหลง",
    "lat": 17.9600675,
    "lng": 104.0376229
  },
  {
    "mu_place": "ศาลปู่อือลือนาคราช",
    "name": "ร้านอาหารทองจันทร์การ์เด้น",
    "rating": 4.1,
    "address": "ร้านทองจันทร์การ์เด้น ตำบล บึงโขงหลง อำเภอ บึงโขงหลง",
    "lat": 17.9866813,
    "lng": 104.0246688
  },
  {
    "mu_place": "ศาลปู่อือลือนาคราช",
    "name": "ครัวจันทมาลี",
    "rating": 4.7,
    "address": "อ, 403 อำเภอ บึงโขงหลง",
    "lat": 17.9620861,
    "lng": 104.0472768
  },
  {
    "mu_place": "ศาลปู่อือลือนาคราช",
    "name": "สวนอาหารเลาะภู",
    "rating": 4.3,
    "address": "X35R+CM5 บก.4017 ตำบล โพธิ์หมากแข้ง อำเภอ บึงโขงหลง",
    "lat": 17.9584952,
    "lng": 104.091705
  },
  {
    "mu_place": "ศาลปู่อือลือนาคราช",
    "name": "ร้านอาหารน้องเพลง",
    "rating": 2.9,
    "address": "Unnamed Road ตำบล บึงโขงหลง อำเภอ บึงโขงหลง",
    "lat": 17.9800411,
    "lng": 104.0270933
  },
  {
    "mu_place": "ศาลปู่อือลือนาคราช",
    "name": "ร้านอาหาร เอ็มมี่ปลาเผา",
    "rating": 5,
    "address": "X2HG+QXJ ตำบล บึงโขงหลง อำเภอ บึงโขงหลง",
    "lat": 17.9794587,
    "lng": 104.0273998
  },
  {
    "mu_place": "ศาลปู่อือลือนาคราช",
    "name": "ร้านแยกดงบัง",
    "rating": 4.1,
    "address": "24JQ+7X9 ตำบล ดงบัง อำเภอ บึงโขงหลง",
    "lat": 18.0306658,
    "lng": 104.1399974
  },
  {
    "mu_place": "ศาลปู่อือลือนาคราช",
    "name": "ล้านแสนแซบ อ.เซกา",
    "rating": 4.3,
    "address": "WXJ4+QGG ตำบล เซกา อำเภอ เซกา",
    "lat": 17.9319073,
    "lng": 103.9563189
  },
  {
    "mu_place": "ศาลปู่อือลือนาคราช",
    "name": "ร้านบ้านสวนตังสุมา",
    "rating": 4.4,
    "address": "X32V+633 บก.4017 ตำบล โพธิ์หมากแข้ง อำเภอ บึงโขงหลง",
    "lat": 17.9504108,
    "lng": 104.0926709
  },
  {
    "mu_place": "วัดปากคลองมะขามเฒ่า - หลวงปู่ศุข",
    "name": "ร้านอาหารต้นตะขบ",
    "rating": 4.2,
    "address": "557Q+6X9 ตำบล บางหลวง อำเภอสรรพยา",
    "lat": 15.163027,
    "lng": 100.1899815
  },
  {
    "mu_place": "วัดปากคลองมะขามเฒ่า - หลวงปู่ศุข",
    "name": "ร้านอาหารเพื่อน",
    "rating": 4.3,
    "address": "99 พิบูลย์ศิริ พิบูลย์ศิริ ตำบล อุทัยใหม่ อำเภอเมืองอุทัยธานี",
    "lat": 15.3751407,
    "lng": 100.0294173
  },
  {
    "mu_place": "วัดปากคลองมะขามเฒ่า - หลวงปู่ศุข",
    "name": "ร้านอาหารป้าสำราญ",
    "rating": 4.1,
    "address": "93FC+7WP ตำบล เกาะเทโพ อำเภอเมืองอุทัยธานี",
    "lat": 15.3732038,
    "lng": 100.072303
  },
  {
    "mu_place": "วัดปากคลองมะขามเฒ่า - หลวงปู่ศุข",
    "name": "ร้านอาหารเกษยานันท์",
    "rating": 3.9,
    "address": "54PF+42C ตำบล ในเมือง อำเภอเมืองชัยนาท",
    "lat": 15.1853084,
    "lng": 100.1225078
  },
  {
    "mu_place": "วัดปากคลองมะขามเฒ่า - หลวงปู่ศุข",
    "name": "ร้านอาหารน้องอุ๋ม",
    "rating": 4.2,
    "address": "93HF+C57 ตำบล เกาะเทโพ อำเภอเมืองอุทัยธานี",
    "lat": 15.3785347,
    "lng": 100.0729127
  },
  {
    "mu_place": "วัดปากคลองมะขามเฒ่า - หลวงปู่ศุข",
    "name": "ร้านอาหารสมบัติ ชวนชิม",
    "rating": 4.4,
    "address": "93GC+4XR Chao Phraya River, ตำบล เกาะเทโพ อำเภอเมืองอุทัยธานี",
    "lat": 15.3753547,
    "lng": 100.0723952
  },
  {
    "mu_place": "วัดปากคลองมะขามเฒ่า - หลวงปู่ศุข",
    "name": "ร้านอาหารปุ๊",
    "rating": 4.5,
    "address": "เลขที่ 335 5 ตำบล บ้านกล้วย อำเภอเมืองชัยนาท",
    "lat": 15.1897939,
    "lng": 100.1306848
  },
  {
    "mu_place": "วัดปากคลองมะขามเฒ่า - หลวงปู่ศุข",
    "name": "Saeng Duan Restaurant",
    "rating": 4.3,
    "address": "9362+G27 ตำบล น้ำซึม อำเภอเมืองอุทัยธานี",
    "lat": 15.3612869,
    "lng": 100.0500476
  },
  {
    "mu_place": "วัดปากคลองมะขามเฒ่า - หลวงปู่ศุข",
    "name": "ร้านอาหารหอมไกล",
    "rating": 3.6,
    "address": "7365+2Q9 ตำบล มะขามเฒ่า อำเภอ วัดสิงห์",
    "lat": 15.2600301,
    "lng": 100.0594633
  },
  {
    "mu_place": "วัดปากคลองมะขามเฒ่า - หลวงปู่ศุข",
    "name": "ร้านป้าเจนครัวริมน้ำ",
    "rating": 4.1,
    "address": "547M+G5Q ตำบล ท่าชัย อำเภอเมืองชัยนาท",
    "lat": 15.1637947,
    "lng": 100.1329951
  },
  {
    "mu_place": "วัดปากคลองมะขามเฒ่า - หลวงปู่ศุข",
    "name": "ร้านอาหารหนิง",
    "rating": 5,
    "address": "646J+7H9 ตำบล เขาท่าพระ อำเภอเมืองชัยนาท",
    "lat": 15.2106865,
    "lng": 100.1314604
  },
  {
    "mu_place": "วัดปากคลองมะขามเฒ่า - หลวงปู่ศุข",
    "name": "ร้านอาหารเรือนไม้ริมน้ำ",
    "rating": 4.2,
    "address": "187 ตำบล น้ำซึม เมือง",
    "lat": 15.3470578,
    "lng": 100.0612932
  },
  {
    "mu_place": "วัดปากคลองมะขามเฒ่า - หลวงปู่ศุข",
    "name": "ร้านอาหารปรียนันท์",
    "rating": 4.3,
    "address": "C4QV+PJH ตำบล พยุหะ อำเภอพยุหะคีรี",
    "lat": 15.439323,
    "lng": 100.1441257
  },
  {
    "mu_place": "วัดปากคลองมะขามเฒ่า - หลวงปู่ศุข",
    "name": "นกน้อย สวนอาหาร",
    "rating": 4.1,
    "address": "9 4 ศรีอุทัย ตำบล อุทัยใหม่ อำเภอเมืองอุทัยธานี",
    "lat": 15.3695565,
    "lng": 100.0449475
  },
  {
    "mu_place": "วัดปากคลองมะขามเฒ่า - หลวงปู่ศุข",
    "name": "ร้านอาหารบ้านสวน",
    "rating": 4.2,
    "address": "54FG+4XG ตำบล ในเมือง อำเภอเมืองชัยนาท",
    "lat": 15.1728128,
    "lng": 100.1274416
  },
  {
    "mu_place": "วัดปากคลองมะขามเฒ่า - หลวงปู่ศุข",
    "name": "ร้านอาหารเฟรชชี่",
    "rating": 4.2,
    "address": "92HG+48H ตำบล อุทัยใหม่ อำเภอเมืองอุทัยธานี",
    "lat": 15.3778182,
    "lng": 100.0258651
  },
  {
    "mu_place": "วัดปากคลองมะขามเฒ่า - หลวงปู่ศุข",
    "name": "ร้านอาหารครัวทิดเทือง",
    "rating": 4.2,
    "address": "2/3 หมู่ 1 ต.ท่าน้ำอ้อย อ.พยุหะคีรี",
    "lat": 15.4274496,
    "lng": 100.1379583
  },
  {
    "mu_place": "วัดปากคลองมะขามเฒ่า - หลวงปู่ศุข",
    "name": "ครัวคุ้งสำเภา",
    "rating": 4.3,
    "address": "833H+QJF ตำบล ท่าซุง อำเภอเมืองอุทัยธานี",
    "lat": 15.3044369,
    "lng": 100.0790488
  },
  {
    "mu_place": "วัดปากคลองมะขามเฒ่า - หลวงปู่ศุข",
    "name": "ร้านอาหารชบา ชัยนาท",
    "rating": 3.9,
    "address": "180 ตำบล บ้านกล้วย อำเภอเมืองชัยนาท",
    "lat": 15.1565762,
    "lng": 100.1617535
  },
  {
    "mu_place": "วัดปากคลองมะขามเฒ่า - หลวงปู่ศุข",
    "name": "ร้านนายโต้ง อาหารปลาแม่น้ำ",
    "rating": 4.5,
    "address": "วงศาโรจน์ ตำบล อุทัยใหม่ อำเภอเมืองอุทัยธานี",
    "lat": 15.3749353,
    "lng": 100.0280773
  },
  {
    "mu_place": "หลวงปู่ทิม พระเกจิแห่งดินแดนบูรพา วัดละหารไร่",
    "name": "ร้านอาหารร่มไม้",
    "rating": 4.2,
    "address": "273/8 ถ. สุขุมวิท ตำบลเนินพระ Muang",
    "lat": 12.6825322,
    "lng": 101.2618656
  },
  {
    "mu_place": "หลวงปู่ทิม พระเกจิแห่งดินแดนบูรพา วัดละหารไร่",
    "name": "ร้านอาหารขวัญ",
    "rating": 4.4,
    "address": "Q5GF+VQP ตำบล มาบข่า อำเภอนิคมพัฒนา",
    "lat": 12.7771929,
    "lng": 101.1744448
  },
  {
    "mu_place": "หลวงปู่ทิม พระเกจิแห่งดินแดนบูรพา วัดละหารไร่",
    "name": "ร้านอาหารเวลานี้",
    "rating": 4.4,
    "address": "288, อำเภอปลวกแดง",
    "lat": 12.9942876,
    "lng": 101.2047984
  },
  {
    "mu_place": "หลวงปู่ทิม พระเกจิแห่งดินแดนบูรพา วัดละหารไร่",
    "name": "โมชา ร้านอาหาร",
    "rating": 4.6,
    "address": "109/1 ตากสินมหาราช ตำบล ท่าประดู่ อำเภอเมืองระยอง",
    "lat": 12.6772476,
    "lng": 101.2803308
  },
  {
    "mu_place": "หลวงปู่ทิม พระเกจิแห่งดินแดนบูรพา วัดละหารไร่",
    "name": "ร้านอาหารเพื่อนอีสาน",
    "rating": 4.1,
    "address": "M7P6+6X5 ตำบลเนินพระ อำเภอเมืองระยอง",
    "lat": 12.6855206,
    "lng": 101.2624716
  },
  {
    "mu_place": "หลวงปู่ทิม พระเกจิแห่งดินแดนบูรพา วัดละหารไร่",
    "name": "บ้านสิมิลัน ร้านอาหาร",
    "rating": 4.1,
    "address": "48/1 ซ.หลังทางหลวง ถ. สุขุมวิท อำเภอเมืองระยอง",
    "lat": 12.6764798,
    "lng": 101.2898426
  },
  {
    "mu_place": "หลวงปู่ทิม พระเกจิแห่งดินแดนบูรพา วัดละหารไร่",
    "name": "ร้านอาหารทิพย์ไสวโภชนา",
    "rating": 4.2,
    "address": "18 ซอย เพลินตา 2 ตำบลเชิงเนิน อำเภอเมืองระยอง",
    "lat": 12.6790707,
    "lng": 101.2893998
  },
  {
    "mu_place": "หลวงปู่ทิม พระเกจิแห่งดินแดนบูรพา วัดละหารไร่",
    "name": "ครัวแกงเผ็ดร้านอาหารไทย-จีน",
    "rating": 4.3,
    "address": "ตําบล, 17/4 ซอยพัฒนประเสริฐ 8 ตำบลเชิงเนิน อำเภอเมืองระยอง",
    "lat": 12.7028518,
    "lng": 101.2811206
  },
  {
    "mu_place": "หลวงปู่ทิม พระเกจิแห่งดินแดนบูรพา วัดละหารไร่",
    "name": "ร้านอาหาร สเต็กบ้านย่า",
    "rating": 4.2,
    "address": "ต, 281/1 ซอย สุขสำราญ ตำบลเนินพระ อำเภอเมืองระยอง",
    "lat": 12.6769477,
    "lng": 101.2458537
  },
  {
    "mu_place": "หลวงปู่ทิม พระเกจิแห่งดินแดนบูรพา วัดละหารไร่",
    "name": "ร้านอาหารครัวจันทร์ฉาย",
    "rating": 4.3,
    "address": "593 3 ตำบล มะขามคู่ อำเภอนิคมพัฒนา",
    "lat": 12.8424432,
    "lng": 101.1157875
  },
  {
    "mu_place": "หลวงปู่ทิม พระเกจิแห่งดินแดนบูรพา วัดละหารไร่",
    "name": "ร้านอาหารบ้านครูหมู (ครัวครูหมู) ระยอง",
    "rating": 4.5,
    "address": "M7HG+XQ4 ยมจินดา ตำบล ท่าประดู่ อำเภอเมืองระยอง",
    "lat": 12.6799504,
    "lng": 101.2769662
  },
  {
    "mu_place": "หลวงปู่ทิม พระเกจิแห่งดินแดนบูรพา วัดละหารไร่",
    "name": "ร้านอาหาร อ.บ้านโอ่ง",
    "rating": 4.6,
    "address": "P56C+JPJ 3 อำเภอเมืองระยอง",
    "lat": 12.711576,
    "lng": 101.171763
  },
  {
    "mu_place": "หลวงปู่ทิม พระเกจิแห่งดินแดนบูรพา วัดละหารไร่",
    "name": "ร้านอาหารกระดังงา",
    "rating": 4.1,
    "address": "267/123-4ถ.สุขุมวิทต.มาบตาพุดอ.เมืองจ.ระยอง21150",
    "lat": 12.716444,
    "lng": 101.1614697
  },
  {
    "mu_place": "หลวงปู่ทิม พระเกจิแห่งดินแดนบูรพา วัดละหารไร่",
    "name": "ร้านอาหารบึงเพชร",
    "rating": 4,
    "address": "Q5W3+768 ตำบล มาบข่า อำเภอนิคมพัฒนา",
    "lat": 12.795671,
    "lng": 101.1530813
  },
  {
    "mu_place": "หลวงปู่ทิม พระเกจิแห่งดินแดนบูรพา วัดละหารไร่",
    "name": "ร้านอาหารขนำ",
    "rating": 4.4,
    "address": "Q8PQ+PM7 ตำบล ชากบก อำเภอบ้านค่าย",
    "lat": 12.7867984,
    "lng": 101.3391669
  },
  {
    "mu_place": "หลวงปู่ทิม พระเกจิแห่งดินแดนบูรพา วัดละหารไร่",
    "name": "ร้านอาหารเจนจิรากุ้งเต้น",
    "rating": 4,
    "address": "ตำบล แม่น้ำคู้ อำเภอปลวกแดง",
    "lat": 12.8861108,
    "lng": 101.1979157
  },
  {
    "mu_place": "หลวงปู่ทิม พระเกจิแห่งดินแดนบูรพา วัดละหารไร่",
    "name": "ร้านอาหารตามสั่งพุงตุง สไตล์ลุงพงศ์",
    "rating": 5,
    "address": "2673+72F ตำบลตาสิทธิ์ อำเภอปลวกแดง",
    "lat": 13.0131917,
    "lng": 101.2025477
  },
  {
    "mu_place": "หลวงปู่ทิม พระเกจิแห่งดินแดนบูรพา วัดละหารไร่",
    "name": "ร้านอาหาร ครัวบ่อปลา ทับมาระยอง",
    "rating": 4.3,
    "address": "M6XH+38P ตำบลทับมา อำเภอเมืองระยอง",
    "lat": 12.6977216,
    "lng": 101.2283127
  },
  {
    "mu_place": "หลวงปู่ทิม พระเกจิแห่งดินแดนบูรพา วัดละหารไร่",
    "name": "ร้านฮวดโภชนา",
    "rating": 4.1,
    "address": "2F86+WPG ตำบล ป่ายุบใน อำเภอวังจันทร์",
    "lat": 13.0173139,
    "lng": 101.4618258
  },
  {
    "mu_place": "หลวงปู่ทิม พระเกจิแห่งดินแดนบูรพา วัดละหารไร่",
    "name": "ร้านในน้ำมีปลา ในนามีข้าว",
    "rating": 4.4,
    "address": "ตำบล ชากบก อำเภอบ้านค่าย",
    "lat": 12.787735,
    "lng": 101.3354951
  },
  {
    "mu_place": "วัดสุทัศนเทพวรารามราชวรมหาวิหาร",
    "name": "ร้านอาหารเพลิน",
    "rating": 4.2,
    "address": "7/428 ถนน วิภาวดีรังสิต แขวงจตุจักร เขตจตุจักร",
    "lat": 13.8259653,
    "lng": 100.5571122
  },
  {
    "mu_place": "วัดสุทัศนเทพวรารามราชวรมหาวิหาร",
    "name": "กินลมชมสะพาน",
    "rating": 4.1,
    "address": "11 6 ถนนจักรพงษ์ แขวงวัดสามพระยา เขตพระนคร",
    "lat": 13.7666469,
    "lng": 100.497129
  },
  {
    "mu_place": "วัดสุทัศนเทพวรารามราชวรมหาวิหาร",
    "name": "ร้านอาหารประพักตร์",
    "rating": 4.3,
    "address": "89/165 ถนน เทศบาลสงเคราะห์ แขวงลาดยาว เขตจตุจักร",
    "lat": 13.8406963,
    "lng": 100.552399
  },
  {
    "mu_place": "วัดสุทัศนเทพวรารามราชวรมหาวิหาร",
    "name": "ร้านอาหารข้าวใหม่",
    "rating": 4.6,
    "address": "RHMH+3CX แขวงจันทรเกษม เขตจตุจักร",
    "lat": 13.8327455,
    "lng": 100.578617
  },
  {
    "mu_place": "วัดสุทัศนเทพวรารามราชวรมหาวิหาร",
    "name": "ร้านอาหารเสี่ยครัวไทย",
    "rating": 4,
    "address": "33/3 ถ.เฉลิมพระเกียรติ ร.9 ดอกไม้ ประเวศ",
    "lat": 13.6999014,
    "lng": 100.6784954
  },
  {
    "mu_place": "วัดสุทัศนเทพวรารามราชวรมหาวิหาร",
    "name": "Three Mangoes บ้านไทย ชายคลอง",
    "rating": 4.2,
    "address": "76 1 ถ. นครอินทร์ ตำบล บางขนุน อำเภอบางกรวย",
    "lat": 13.8237315,
    "lng": 100.4670198
  },
  {
    "mu_place": "วัดสุทัศนเทพวรารามราชวรมหาวิหาร",
    "name": "ร้านอาหารเลอ อัญญ์",
    "rating": 4.1,
    "address": "แขวงบางขุนศรี เขตบางกอกน้อย",
    "lat": 13.761189,
    "lng": 100.4693039
  },
  {
    "mu_place": "วัดสุทัศนเทพวรารามราชวรมหาวิหาร",
    "name": "Bajika Restaurant (ร้านอาหารบาจิกา)",
    "rating": 4.4,
    "address": "46/4 ถ. กาญจนาภิเษก แขวงศาลาธรรมสพน์ เขตทวีวัฒนา",
    "lat": 13.7701897,
    "lng": 100.4069093
  },
  {
    "mu_place": "วัดสุทัศนเทพวรารามราชวรมหาวิหาร",
    "name": "ร้านอาหารรับลม",
    "rating": 4.1,
    "address": "หมู่ที่1 26/2 ถ. บางกรวย - ไทรน้อย ตำบล บางรักพัฒนา อำเภอบางบัวทอง",
    "lat": 13.9063534,
    "lng": 100.4272884
  },
  {
    "mu_place": "วัดสุทัศนเทพวรารามราชวรมหาวิหาร",
    "name": "หมีแฟมิลี่ สาขา ประชาชื่น",
    "rating": 4.6,
    "address": "280/1 ถ. ประชาชื่น แขวงจตุจักร เขตจตุจักร",
    "lat": 13.8232274,
    "lng": 100.5384329
  },
  {
    "mu_place": "วัดสุทัศนเทพวรารามราชวรมหาวิหาร",
    "name": "ร้านอาหาร สวนลุงพร",
    "rating": 4.6,
    "address": "2 2 ตำบล แพรกษา อำเภอเมืองสมุทรปราการ",
    "lat": 13.5877449,
    "lng": 100.6419076
  },
  {
    "mu_place": "วัดสุทัศนเทพวรารามราชวรมหาวิหาร",
    "name": "ร้านอาหาร ครกไม้ไทยลาว ซอยลาดปลาเค้า 24",
    "rating": 4.3,
    "address": "8 ซ. ลาดปลาเค้า 24 แขวงจรเข้บัว เขตลาดพร้าว",
    "lat": 13.8401614,
    "lng": 100.5958436
  },
  {
    "mu_place": "วัดสุทัศนเทพวรารามราชวรมหาวิหาร",
    "name": "ร้านอาหารรสสุคนธ์",
    "rating": 4.1,
    "address": "299 12 หมู่ 5 ถ. ศรีนครินทร์ ตำบล บางเมือง อำเภอเมืองสมุทรปราการ",
    "lat": 13.6151095,
    "lng": 100.6209244
  },
  {
    "mu_place": "วัดสุทัศนเทพวรารามราชวรมหาวิหาร",
    "name": "T and T Restaurant",
    "rating": 4.3,
    "address": "359 เทศบาลนิมิตใต้ ซอย 7 แขวงลาดยาว เขตจตุจักร",
    "lat": 13.8363602,
    "lng": 100.5495098
  },
  {
    "mu_place": "วัดสุทัศนเทพวรารามราชวรมหาวิหาร",
    "name": "ร้านอาหารแกงป่า(ลุงสง่า)",
    "rating": 4.4,
    "address": "285 162 ซ. งามวงศ์วาน 23 แยก 11 ตำบลบางเขน อำเภอเมือง",
    "lat": 13.8651608,
    "lng": 100.5355962
  },
  {
    "mu_place": "วัดสุทัศนเทพวรารามราชวรมหาวิหาร",
    "name": "ร้านอาหารลงแพ หรือ @บางขวด",
    "rating": 4.3,
    "address": "3 ซอย นวลจันทร์ 56 แขวงนวลจันทร์ เขตบึงกุ่ม",
    "lat": 13.8328813,
    "lng": 100.6462978
  },
  {
    "mu_place": "วัดสุทัศนเทพวรารามราชวรมหาวิหาร",
    "name": "ร้านอาหารบ้านใบบัว",
    "rating": 4.3,
    "address": "13, 37 ถ. วงแหวนอุตสาหกรรม ลัดหลวง อำเภอพระประแดง",
    "lat": 13.6646477,
    "lng": 100.5233595
  },
  {
    "mu_place": "วัดสุทัศนเทพวรารามราชวรมหาวิหาร",
    "name": "ร้านระเบียงเคียงน้ำ 77",
    "rating": 4.1,
    "address": "เลขที่ 76/1 ซอย หมู่ 3 ตำบล บางตะไนย์ อำเภอปากเกร็ด",
    "lat": 13.9180431,
    "lng": 100.4951132
  },
  {
    "mu_place": "วัดสุทัศนเทพวรารามราชวรมหาวิหาร",
    "name": "ร้านอาหาร ศรีกร",
    "rating": 4.3,
    "address": "233 ถ. สุขุมวิท ตำบลปากน้ำ อำเภอเมืองสมุทรปราการ",
    "lat": 13.601827,
    "lng": 100.5974659
  },
  {
    "mu_place": "วัดสุทัศนเทพวรารามราชวรมหาวิหาร",
    "name": "ประจักษ์",
    "rating": 4.2,
    "address": "1415 ถ. เจริญกรุง แขวงสีลม เขตบางรัก",
    "lat": 13.7203946,
    "lng": 100.5160089
  },
  {
    "mu_place": "วัดพุน้อย",
    "name": "ร้านอาหาร สวนหลวง",
    "rating": 4.1,
    "address": "101ม3 สุขสำราญ อำเภอ ตากฟ้า",
    "lat": 15.3517436,
    "lng": 100.5021743
  },
  {
    "mu_place": "วัดพุน้อย",
    "name": "บ้านคุณยาย",
    "rating": 4.2,
    "address": "8FRQ+4PQ ตำบล ตากฟ้า อำเภอ ตากฟ้า",
    "lat": 15.3403283,
    "lng": 100.4893494
  },
  {
    "mu_place": "วัดพุน้อย",
    "name": "ร้านอาหารลาบเหนือ",
    "rating": 3.6,
    "address": "9GV5+5VJ ตำบล สุขสำราญ อำเภอ ตากฟ้า",
    "lat": 15.3929504,
    "lng": 100.5096331
  },
  {
    "mu_place": "วัดพุน้อย",
    "name": "ครัวตุ๊กตา",
    "rating": 4.6,
    "address": "89 ตำบล ยางโทน อำเภอ หนองม่วง",
    "lat": 15.2433521,
    "lng": 100.7015123
  },
  {
    "mu_place": "วัดพุน้อย",
    "name": "สวนอาหารปริยานุช",
    "rating": 4.3,
    "address": "8GM2+CQH ตำบล ตากฟ้า อำเภอ ตากฟ้า",
    "lat": 15.3335636,
    "lng": 100.5019731
  },
  {
    "mu_place": "วัดพุน้อย",
    "name": "ร้านกินข้าวบ้านเพื่อน",
    "rating": 4,
    "address": "6PQ7+W3P ตำบล ยางโทน อำเภอ หนองม่วง",
    "lat": 15.2397813,
    "lng": 100.7127024
  },
  {
    "mu_place": "วัดพุน้อย",
    "name": "ร้านโกเด้ง (เจ้หยุ๋ย)​ ยางโทน",
    "rating": 4.2,
    "address": "2219 ตำบล ยางโทน อำเภอ หนองม่วง",
    "lat": 15.2415107,
    "lng": 100.6988779
  },
  {
    "mu_place": "วัดพุน้อย",
    "name": "ร้านอาหารตามสั่งครัวสี่แยก",
    "rating": 4.9,
    "address": "55 ตำบล หนองพิกุล อำเภอ ตากฟ้า",
    "lat": 15.3584395,
    "lng": 100.4544825
  },
  {
    "mu_place": "วัดพุน้อย",
    "name": "ร้านข้าวบนบา",
    "rating": 4.9,
    "address": "สถานีรถไฟบ้านช่องแค, เฉลิมพระเกียรติ ตำบล ช่องแค อำเภอตาคลี",
    "lat": 15.1663607,
    "lng": 100.419697
  },
  {
    "mu_place": "วัดพุน้อย",
    "name": "ร้านอาหารวาสนา",
    "rating": 3.3,
    "address": "6M98+R65 ตำบล หนองม่วง อำเภอ หนองม่วง",
    "lat": 15.219377,
    "lng": 100.6656163
  },
  {
    "mu_place": "วัดพุน้อย",
    "name": "เจ๊ตุ๊ก อาหารตามสั่ง",
    "rating": 3.5,
    "address": "5J79+PF9 2219 ตำบล ดอนดึง อำเภอ บ้านหมี่",
    "lat": 15.1642874,
    "lng": 100.6187059
  },
  {
    "mu_place": "วัดพุน้อย",
    "name": "เจ๊เล็ก ร้านลาบ",
    "rating": 4.8,
    "address": "FF37+JVF 1145 ตำบล อุดมธัญญา อำเภอ ตากฟ้า",
    "lat": 15.4540775,
    "lng": 100.4646415
  },
  {
    "mu_place": "วัดพุน้อย",
    "name": "ครัวอบต. อาหารป่า",
    "rating": 4.4,
    "address": "7GJ2+QXV ตำบล ตากฟ้า อำเภอ ตากฟ้า",
    "lat": 15.281989,
    "lng": 100.5024261
  },
  {
    "mu_place": "วัดพุน้อย",
    "name": "ร้านอาหารตามสั่งเจ๊อุ๊",
    "rating": 4.3,
    "address": "CH24+9J7 ตำบล สุขสำราญ อำเภอ ตากฟ้า",
    "lat": 15.4009148,
    "lng": 100.5566252
  },
  {
    "mu_place": "วัดพุน้อย",
    "name": "ร้านเตี๋ยวแง๊ะ",
    "rating": 0,
    "address": "7CRC+6GJ ถ. พหลโยธิน อำเภอตาคลี",
    "lat": 15.290532,
    "lng": 100.4212427
  },
  {
    "mu_place": "วัดพุน้อย",
    "name": "ร้านเโคตรต้มตุ๋",
    "rating": 4,
    "address": "3326 ตำบล ยางโทน อำเภอ หนองม่วง",
    "lat": 15.238229,
    "lng": 100.713562
  },
  {
    "mu_place": "วัดพุน้อย",
    "name": "ร้านอาหารเพียงดิน",
    "rating": 4,
    "address": "บ้านเลขที่ 18 ตำบล สุขสำราญ อำเภอ ตากฟ้า",
    "lat": 15.3501557,
    "lng": 100.503745
  },
  {
    "mu_place": "วัดพุน้อย",
    "name": "ร้าน ชายน้อยโภชนา",
    "rating": 0,
    "address": "หมู่ 3 7 ตำบล สุขสำราญ อำเภอ ตากฟ้า",
    "lat": 15.3443904,
    "lng": 100.5307242
  },
  {
    "mu_place": "วัดพุน้อย",
    "name": "ครัวนิยม",
    "rating": 3.6,
    "address": "24 ต.สุขสำราญ อ.ตากฟ้า จ.นครสวรรค์",
    "lat": 15.3549218,
    "lng": 100.5209041
  },
  {
    "mu_place": "วัดพุน้อย",
    "name": "ครัว นสน.",
    "rating": 4.2,
    "address": "ซอย วิถีพรหมประทาน 1 ตำบล ช่องแค อำเภอตาคลี",
    "lat": 15.159085,
    "lng": 100.4237123
  },
  {
    "mu_place": "วัดโฆสิตาราม (หลวงพ่อกวย)",
    "name": "ร้านอาหาร เจ๊หมู ก่ะ น้องรี",
    "rating": 4.3,
    "address": "Unnamed Road ตำบล นางบวช อำเภอเดิมบางนางบวช",
    "lat": 14.8123084,
    "lng": 100.1157919
  },
  {
    "mu_place": "วัดโฆสิตาราม (หลวงพ่อกวย)",
    "name": "ร้านอาหารต้วมหน่อย",
    "rating": 4.3,
    "address": "288Q+FH7 ตำบล อินทร์บุรี อำเภออินทร์บุรี",
    "lat": 15.0161583,
    "lng": 100.338927
  },
  {
    "mu_place": "วัดโฆสิตาราม (หลวงพ่อกวย)",
    "name": "ชาบังก้า",
    "rating": 4.7,
    "address": "ถนน 340 กม. 111 ตำบล นางบวช อำเภอเดิมบางนางบวช",
    "lat": 14.8003333,
    "lng": 100.1070207
  },
  {
    "mu_place": "วัดโฆสิตาราม (หลวงพ่อกวย)",
    "name": "ร้านอาหารแพขุนวัง",
    "rating": 4,
    "address": "91 ตำบล เขาพระ อำเภอเดิมบางนางบวช",
    "lat": 14.8565357,
    "lng": 100.0922286
  },
  {
    "mu_place": "วัดโฆสิตาราม (หลวงพ่อกวย)",
    "name": "ร้านอาหารรุ่งฤทัย",
    "rating": 4.4,
    "address": "สร้อยทอง 61/2 หมู่ อำเภอตาคลี",
    "lat": 15.1026543,
    "lng": 100.3895501
  },
  {
    "mu_place": "วัดโฆสิตาราม (หลวงพ่อกวย)",
    "name": "ร้านอาหารบังเอิญอีสาน",
    "rating": 4.3,
    "address": "34 หมู่ที่ 3 ซอย เทศบาล 26 ตำบล เขาพระ อำเภอเดิมบางนางบวช",
    "lat": 14.8552256,
    "lng": 100.0928478
  },
  {
    "mu_place": "วัดโฆสิตาราม (หลวงพ่อกวย)",
    "name": "ครัวหนานอิน",
    "rating": 4.4,
    "address": "ตำบล ดงคอน อำเภอ สรรคบุรี",
    "lat": 15.0220508,
    "lng": 100.1450448
  },
  {
    "mu_place": "วัดโฆสิตาราม (หลวงพ่อกวย)",
    "name": "ร้านริมแม่ลา",
    "rating": 4.3,
    "address": "W8WM+496 ตำบล ทับยา อำเภออินทร์บุรี",
    "lat": 14.9452872,
    "lng": 100.3333957
  },
  {
    "mu_place": "วัดโฆสิตาราม (หลวงพ่อกวย)",
    "name": "ร้านอาหารริมน้ำ อินทร์บุรี",
    "rating": 4.4,
    "address": "39 ตำบล อินทร์บุรี อำเภออินทร์บุรี",
    "lat": 15.0146003,
    "lng": 100.3313911
  },
  {
    "mu_place": "วัดโฆสิตาราม (หลวงพ่อกวย)",
    "name": "ร้านระเบียงน้ำ",
    "rating": 4.3,
    "address": "70/9 หมู่ 10 ตำบล โพชนไก่ อำเภอ บางระจัน",
    "lat": 14.9469253,
    "lng": 100.2636248
  },
  {
    "mu_place": "วัดโฆสิตาราม (หลวงพ่อกวย)",
    "name": "ร้านอาหารบ้านแม่ลา",
    "rating": 4.3,
    "address": "31 หมู่1 ตำบล แม่ลา อำเภอ บางระจัน",
    "lat": 14.9388671,
    "lng": 100.3364356
  },
  {
    "mu_place": "วัดโฆสิตาราม (หลวงพ่อกวย)",
    "name": "ร้านอาหาร ซ้งปลาแม่น้ำ",
    "rating": 4.6,
    "address": "Unnamed Road ตำบล น้ำตาล อำเภออินทร์บุรี",
    "lat": 14.9550698,
    "lng": 100.3627809
  },
  {
    "mu_place": "วัดโฆสิตาราม (หลวงพ่อกวย)",
    "name": "ร้านอาหารครัวแม่เกษร",
    "rating": 4.2,
    "address": "69 28MP+978 ตำบล ท่างาม อำเภออินทร์บุรี",
    "lat": 15.033393,
    "lng": 100.3356598
  },
  {
    "mu_place": "วัดโฆสิตาราม (หลวงพ่อกวย)",
    "name": "ร้านอาหารป้าณา สาขา 1",
    "rating": 4.7,
    "address": "6/4ม.11 ตำบล บางระจัน อำเภอ ค่ายบางระจัน",
    "lat": 14.789655,
    "lng": 100.2853025
  },
  {
    "mu_place": "วัดโฆสิตาราม (หลวงพ่อกวย)",
    "name": "ร้านริมชล ป้าตุ๊ อินทร์บุรี",
    "rating": 4.4,
    "address": "78 ตำบล ท่างาม อำเภออินทร์บุรี",
    "lat": 15.0285145,
    "lng": 100.3332783
  },
  {
    "mu_place": "วัดโฆสิตาราม (หลวงพ่อกวย)",
    "name": "ร้านอาหารต้นตะขบ(สมชิด ทับเงิน)",
    "rating": 4.8,
    "address": "W7C7+265 3251 ตำบล เชิงกลัด อำเภอ บางระจัน",
    "lat": 14.9200233,
    "lng": 100.2631552
  },
  {
    "mu_place": "วัดโฆสิตาราม (หลวงพ่อกวย)",
    "name": "ร้านเจ้เดือนรสเด็ด",
    "rating": 4.5,
    "address": "V34V+RCV ตำบล เขาพระ อำเภอเดิมบางนางบวช",
    "lat": 14.8571088,
    "lng": 100.0935617
  },
  {
    "mu_place": "วัดโฆสิตาราม (หลวงพ่อกวย)",
    "name": "อิ่มอร่อย พุงกาง",
    "rating": 4.7,
    "address": "100 น้ำตาล 3 ตำบล อินทร์บุรี อำเภออินทร์บุรี",
    "lat": 15.0047115,
    "lng": 100.3458088
  },
  {
    "mu_place": "วัดโฆสิตาราม (หลวงพ่อกวย)",
    "name": "ร้านท่าพระจันทร์",
    "rating": 4.3,
    "address": "เลขที่ 12/12 ซอย หมู่ 1 ตำบล บางกระบือ อำเภอเมืองสิงห์บุรี",
    "lat": 14.9009491,
    "lng": 100.3906438
  },
  {
    "mu_place": "วัดโฆสิตาราม (หลวงพ่อกวย)",
    "name": "ร้านแม่สมคิดอาหารตามสั่ง",
    "rating": 4.6,
    "address": "33VV+PG9 ตำบล นางลือ อำเภอเมืองชัยนาท",
    "lat": 15.0942909,
    "lng": 100.093891
  },
  {
    "mu_place": "วัดไร่แตงทอง",
    "name": "ร้านอาหารเจ๊ณี หนองเสือ",
    "rating": 4.2,
    "address": "ถ. แสงชูโต ตำบล วังศาลา อำเภอท่าม่วง",
    "lat": 13.9719525,
    "lng": 99.6910837
  },
  {
    "mu_place": "วัดไร่แตงทอง",
    "name": "ร้านกบทอดท่ามะกา",
    "rating": 4.3,
    "address": "WQ73+8JG ทางหลวงหมายเลข 3209 ตำบล หวายเหนียว อำเภอท่ามะกา",
    "lat": 13.91331,
    "lng": 99.7540734
  },
  {
    "mu_place": "วัดไร่แตงทอง",
    "name": "ร้านอาหารไชยยงค์",
    "rating": 4.3,
    "address": "136 ซอย เทศบาลตำบลลูกแก 16 ตำบลดอนขมิ้น อำเภอท่ามะกา",
    "lat": 13.871867,
    "lng": 99.81634400000002
  },
  {
    "mu_place": "วัดไร่แตงทอง",
    "name": "ร้านอาหาร คาซาน่า บาย พิโนซ่า",
    "rating": 4.5,
    "address": "R2FH+W69 ซอยกระดีเดียว 1 หนองปากโลง อำเภอเมืองนครปฐม",
    "lat": 13.8247925,
    "lng": 100.0281132
  },
  {
    "mu_place": "วัดไร่แตงทอง",
    "name": "ร้านอาหารอร่อยสมใจ Aroysomjai",
    "rating": 4.3,
    "address": "เลขที่10 หมู่12 พระแท่น อำเภอท่ามะกา",
    "lat": 14.0343186,
    "lng": 99.7993063
  },
  {
    "mu_place": "วัดไร่แตงทอง",
    "name": "ร้านอาหารมธุรส หมี่กรอบ",
    "rating": 4.2,
    "address": "30 หมู่ 3 ถ. แสงชูโต ตำบล ท่าผา อำเภอบ้านโป่ง",
    "lat": 13.8481042,
    "lng": 99.8556801
  },
  {
    "mu_place": "วัดไร่แตงทอง",
    "name": "ร้านอาหารบ้านสวน",
    "rating": 4.4,
    "address": "3XX3+5JR ตำบล กระตีบ อำเภอกำแพงแสน",
    "lat": 14.0979922,
    "lng": 99.95400529999999
  },
  {
    "mu_place": "วัดไร่แตงทอง",
    "name": "ร้านอาหารนายเก่ง",
    "rating": 4.2,
    "address": "568 ถ.ชลประทานฝั่งซ้าย ตำบล ตะคร้ำเอน อำเภอท่ามะกา",
    "lat": 13.965482,
    "lng": 99.753665
  },
  {
    "mu_place": "วัดไร่แตงทอง",
    "name": "ร้านอาหารป๋าทรง",
    "rating": 4.3,
    "address": "WVQ9+7P2 ตำบล สนามแย้ อำเภอท่ามะกา",
    "lat": 13.9381296,
    "lng": 99.869265
  },
  {
    "mu_place": "วัดไร่แตงทอง",
    "name": "ร้านอาหารแพริมคลอง",
    "rating": 4.2,
    "address": "VPMX+56W ตำบล เขาสามสิบหาบ อำเภอท่ามะกา",
    "lat": 13.8829876,
    "lng": 99.74809289999999
  },
  {
    "mu_place": "วัดไร่แตงทอง",
    "name": "ร้านอาหารบ้านบ้าน",
    "rating": 4.6,
    "address": "RXPC+J49 Unnamed Road ตำบล โพรงมะเดื่อ อำเภอเมืองนครปฐม",
    "lat": 13.83653,
    "lng": 99.970351
  },
  {
    "mu_place": "วัดไร่แตงทอง",
    "name": "ร้านอาหารต้นมะม่วง",
    "rating": 4.3,
    "address": "WM58+4WW เทศบาลตำบลสำรอง 26 ตำบล พังตรุ อำเภอท่าม่วง",
    "lat": 13.9078494,
    "lng": 99.66735260000002
  },
  {
    "mu_place": "วัดไร่แตงทอง",
    "name": "ร้านอาหารหนูแซ่ตัน",
    "rating": 4.2,
    "address": "RVJ9+3HX ตำบล ปากแรต อำเภอบ้านโป่ง",
    "lat": 13.8302299,
    "lng": 99.868995
  },
  {
    "mu_place": "วัดไร่แตงทอง",
    "name": "ร้านอาหารเบาหวิว",
    "rating": 4.3,
    "address": "WPHV+HX3 ตำบล แสนตอ อำเภอท่ามะกา",
    "lat": 13.928892,
    "lng": 99.7449362
  },
  {
    "mu_place": "วัดไร่แตงทอง",
    "name": "ร้านอาหารแพพลอย",
    "rating": 4,
    "address": "505 ตำบล กำแพงแสน อำเภอกำแพงแสน",
    "lat": 14.0033988,
    "lng": 99.9946626
  },
  {
    "mu_place": "วัดไร่แตงทอง",
    "name": "ร้านอาหารครูอนงค์",
    "rating": 4.3,
    "address": "VXC3+JJ6 ตำบล โพรงมะเดื่อ อำเภอเมืองนครปฐม",
    "lat": 13.8715432,
    "lng": 99.9540032
  },
  {
    "mu_place": "วัดไร่แตงทอง",
    "name": "ร้านอาหารบ้านเอิญ",
    "rating": 4.4,
    "address": "11 ม .16 ต ตำบล พระแท่น อำเภอท่ามะกา",
    "lat": 14.0351099,
    "lng": 99.7905826
  },
  {
    "mu_place": "วัดไร่แตงทอง",
    "name": "ร้านอาหาร สุดทางรัก",
    "rating": 4.2,
    "address": "144, ถนนแสงชูโต, ตำบลวังศาลา อำเภอท่าม่วง จังหวัดกาญจนบุรี, 71000",
    "lat": 13.9460143,
    "lng": 99.68921519999999
  },
  {
    "mu_place": "วัดไร่แตงทอง",
    "name": "ร้านอาหารครัวตุ๊กตา",
    "rating": 4.4,
    "address": "4M9M+WF3 ตำบล พนมทวน อำเภอ พนมทวน",
    "lat": 14.1197938,
    "lng": 99.6837092
  },
  {
    "mu_place": "วัดไร่แตงทอง",
    "name": "ร้านอาหารดงยาง",
    "rating": 4.2,
    "address": "431 อ.บ้านโป่ง จ. ตำบล สวนกล้วย อำเภอบ้านโป่ง",
    "lat": 13.812267,
    "lng": 99.8869845
  },
  {
    "mu_place": "วัดหนองเรือ",
    "name": "ครัวเจ๊เอี้ยง",
    "rating": 4.4,
    "address": "CJHW+XC3 ตำบล คลองตะเกรา อำเภอท่าตะเกียบ",
    "lat": 13.4298787,
    "lng": 101.6460507
  },
  {
    "mu_place": "วัดหนองเรือ",
    "name": "ร้านเจ้อ๋อ อาหารตามสั่ง ข้าวต้มทะเล",
    "rating": 4.4,
    "address": "ตำบล คลองตะเกรา อำเภอท่าตะเกียบ",
    "lat": 13.4415525,
    "lng": 101.6130122
  },
  {
    "mu_place": "วัดหนองเรือ",
    "name": "ครัวเจ๊ยงค์ริมเขื่อน",
    "rating": 4.2,
    "address": "357 ตำบล คลองตะเกรา อำเภอท่าตะเกียบ",
    "lat": 13.4298833,
    "lng": 101.6461076
  },
  {
    "mu_place": "วัดหนองเรือ",
    "name": "ร้านน้องเมย์",
    "rating": 4.4,
    "address": "CP2P+FH7 ตำบล คลองตะเกรา อำเภอท่าตะเกียบ",
    "lat": 13.4011617,
    "lng": 101.7364384
  },
  {
    "mu_place": "วัดหนองเรือ",
    "name": "ร้านครัวทิพย์",
    "rating": 0,
    "address": "ตำบล คลองตะเกรา อำเภอท่าตะเกียบ",
    "lat": 13.3807653,
    "lng": 101.7064905
  },
  {
    "mu_place": "วัดหนองเรือ",
    "name": "ครัวตัวเอ็ม",
    "rating": 4.4,
    "address": "หมู่18 168/4 ตำบล คลองตะเกรา อำเภอท่าตะเกียบ",
    "lat": 13.4417154,
    "lng": 101.6119751
  },
  {
    "mu_place": "วัดหนองเรือ",
    "name": "จี๊ดโภชนา",
    "rating": 4.2,
    "address": "CJQ8+8X6 ตำบล คลองตะเกรา อำเภอท่าตะเกียบ",
    "lat": 13.4382314,
    "lng": 101.6174509
  },
  {
    "mu_place": "วัดหนองเรือ",
    "name": "ครัวเจ๊แดง ริมเขื่อน",
    "rating": 4.3,
    "address": "357 3 ตำบล ท่าตะเกียบ อำเภอท่าตะเกียบ",
    "lat": 13.4298139,
    "lng": 101.6462664
  },
  {
    "mu_place": "วัดหนองเรือ",
    "name": "ร้านเจ๊แสง อาหารตามสั่ง&ก๋วยเตี๋ยว",
    "rating": 4.6,
    "address": "GQ48+MVH ตำบล ท่าตะเกียบ อำเภอท่าตะเกียบ",
    "lat": 13.5066187,
    "lng": 101.7672172
  },
  {
    "mu_place": "วัดหนองเรือ",
    "name": "ร้านส้มตำเจ้พร อาหารตามสั่ง ก๋วยเตี๋ยวหมู-เนื้อน้ำตก",
    "rating": 4.2,
    "address": "9MHX+CM3 ตำบล คลองตะเกรา อำเภอท่าตะเกียบ",
    "lat": 13.3785064,
    "lng": 101.6991643
  },
  {
    "mu_place": "วัดหนองเรือ",
    "name": "ร้านเจ้ไพรอาหารตามสั่ง",
    "rating": 4.8,
    "address": "349 คลองตะเกรา อำเภอท่าตะเกียบ",
    "lat": 13.3799933,
    "lng": 101.700427
  },
  {
    "mu_place": "วัดหนองเรือ",
    "name": "ร้านเจ๊นางอาหารตามสั่ง ตลาดหนองคอก",
    "rating": 0,
    "address": "9PJ5+JCM ตำบล คลองตะเกรา อำเภอท่าตะเกียบ",
    "lat": 13.3816516,
    "lng": 101.7086868
  },
  {
    "mu_place": "วัดหนองเรือ",
    "name": "ล้านอาหาร เต๋า อิศรา",
    "rating": 0,
    "address": "GJX8+J8J <<not-applicable ตำบล ท่าตะเกียบ >>",
    "lat": 13.5490952,
    "lng": 101.6157773
  },
  {
    "mu_place": "วัดหนองเรือ",
    "name": "ร้านอาหารคุณสมบัติ",
    "rating": 0,
    "address": "60 ม.22 ตำบล คลองตะเกรา อำเภอท่าตะเกียบ",
    "lat": 13.3826093,
    "lng": 101.7015859
  },
  {
    "mu_place": "วัดหนองเรือ",
    "name": "ร้านอาหารตามสั่ง ป้าจวน",
    "rating": 4.1,
    "address": "87/1ม.18 บ้านเทพเจริญ ตำบล ท่าตะเกียบ อำเภอท่าตะเกียบ",
    "lat": 13.4390962,
    "lng": 101.6161792
  },
  {
    "mu_place": "วัดหนองเรือ",
    "name": "ป้าตุ่มก๋วยเตี๋ยวหมู-น้ำตก+อาหารตามสั่ง",
    "rating": 0,
    "address": "184 ตำบล เกษตรสุวรรณ อำเภอบ่อทอง",
    "lat": 13.3599427,
    "lng": 101.5222365
  },
  {
    "mu_place": "วัดหนองเรือ",
    "name": "ร้านโกเด้งนายาว",
    "rating": 4.5,
    "address": "GVW3+9PG ตำบล ท่ากระดาน อำเภอสนามชัยเขต",
    "lat": 13.5459262,
    "lng": 101.854349
  },
  {
    "mu_place": "วัดหนองเรือ",
    "name": "ร้านตามอยากฝากท้อง",
    "rating": 4.7,
    "address": "CJX2+RW6 3259 ตำบล ท่าตะเกียบ อำเภอท่าตะเกียบ",
    "lat": 13.4495318,
    "lng": 101.60225
  },
  {
    "mu_place": "วัดหนองเรือ",
    "name": "ร้าน ส้มโอ ป้าชื่น",
    "rating": 5,
    "address": "MG5R+7P4 ถนน องค์การบริหารส่วนจังหวัด ตำบล คู้ยายหมี อำเภอสนามชัยเขต",
    "lat": 13.6580863,
    "lng": 101.5417989
  },
  {
    "mu_place": "วัดหนองเรือ",
    "name": "น้องปลา หน้าเขา อาหารตามสั่ง",
    "rating": 5,
    "address": "356หมู่4 หมู่บ้านคลองอุดม ตำบล ทุ่งพระยา อำเภอสนามชัยเขต",
    "lat": 13.6674252,
    "lng": 101.7569338
  },
  {
    "mu_place": "วัดโสธรวรารามวรวิหาร",
    "name": "ร้านอาหารแบมบู ใหญ่",
    "rating": 4.2,
    "address": "RW5F+HFM แขวงกระทุ่มราย เขตหนองจอก",
    "lat": 13.8089492,
    "lng": 100.9236584
  },
  {
    "mu_place": "วัดโสธรวรารามวรวิหาร",
    "name": "ร้านนายก๊วก",
    "rating": 3.9,
    "address": "ตำบล วังตะเคีย19 2 อำเภอเมืองฉะเชิงเทรา",
    "lat": 13.7136351,
    "lng": 101.0500576
  },
  {
    "mu_place": "วัดโสธรวรารามวรวิหาร",
    "name": "ร้านอาหารเคียงนา",
    "rating": 4.4,
    "address": "RWCH+2GR แขวงกระทุ่มราย เขตหนองจอก",
    "lat": 13.8201119,
    "lng": 100.9287681
  },
  {
    "mu_place": "วัดโสธรวรารามวรวิหาร",
    "name": "เอกเขนก​ แปดริ้ว",
    "rating": 4.2,
    "address": "19 32 ตำบล บางตีนเป็ด อำเภอเมืองฉะเชิงเทรา",
    "lat": 13.6867973,
    "lng": 101.0773564
  },
  {
    "mu_place": "วัดโสธรวรารามวรวิหาร",
    "name": "ร้านอาหาร บ้านเบญฯ",
    "rating": 4.3,
    "address": "M376+GWC ตำบล บางพระ อำเภอเมืองฉะเชิงเทรา",
    "lat": 13.6638024,
    "lng": 101.0622701
  },
  {
    "mu_place": "วัดโสธรวรารามวรวิหาร",
    "name": "ร้านอาหารมิสเตอร์ปุณ(Mr.Pun)",
    "rating": 4.3,
    "address": "154 ถ. สุวินทวงศ์ หน้าเมือง อำเภอเมืองฉะเชิงเทรา",
    "lat": 13.6987005,
    "lng": 101.0526809
  },
  {
    "mu_place": "วัดโสธรวรารามวรวิหาร",
    "name": "ร้านอาหารบ้านท่าไทร",
    "rating": 4.4,
    "address": "Unnamed Road, ตำบลท่าสะอ้าน อำเภอบางปะกง",
    "lat": 13.5531356,
    "lng": 101.0084124
  },
  {
    "mu_place": "วัดโสธรวรารามวรวิหาร",
    "name": "บ้านอาหารชัยครับ",
    "rating": 4.4,
    "address": "55/48 ถนนประชาสรรค์ ซ. ประชาสรรค์ 1 ตำบล หน้าเมือง อำเภอเมืองฉะเชิงเทรา",
    "lat": 13.6785812,
    "lng": 101.0643726
  },
  {
    "mu_place": "วัดโสธรวรารามวรวิหาร",
    "name": "ร้านอาหารลูกทุ่ง",
    "rating": 4,
    "address": "R2VM+C23 ตำบล หมอนทอง อำเภอบางน้ำเปรี้ยว",
    "lat": 13.8435208,
    "lng": 101.0326443
  },
  {
    "mu_place": "วัดโสธรวรารามวรวิหาร",
    "name": "ร้านอาหารนายพล",
    "rating": 4.2,
    "address": "M364+G73 ตำบล บางพระ อำเภอเมืองฉะเชิงเทรา",
    "lat": 13.6612687,
    "lng": 101.0556773
  },
  {
    "mu_place": "วัดโสธรวรารามวรวิหาร",
    "name": "ร้านอาหารครัวริมบ่อ",
    "rating": 4.2,
    "address": "M58Q+M27 ตำบล เสม็ดเหนือ อำเภอบางคล้า",
    "lat": 13.6666619,
    "lng": 101.1875312
  },
  {
    "mu_place": "วัดโสธรวรารามวรวิหาร",
    "name": "ร้านอาหารยอดมนุษย์",
    "rating": 4.1,
    "address": "เลขที่ 33/13 หมู่ 19 หมู่บ้าน - ซอย - ถนน บางปะกง อำเภอบางปะกง",
    "lat": 13.5028147,
    "lng": 100.9914641
  },
  {
    "mu_place": "วัดโสธรวรารามวรวิหาร",
    "name": "ร้านอาหาร ไม้คิว",
    "rating": 4.7,
    "address": "ตำบล เทพราช อำเภอบ้านโพธิ์",
    "lat": 13.6528883,
    "lng": 100.9767616
  },
  {
    "mu_place": "วัดโสธรวรารามวรวิหาร",
    "name": "ร้านอาหารป่า เจ้มาลี",
    "rating": 4.4,
    "address": "HWFC+H2M ตำบล หอมศีล อำเภอบางปะกง",
    "lat": 13.5739532,
    "lng": 100.9200373
  },
  {
    "mu_place": "วัดโสธรวรารามวรวิหาร",
    "name": "ร้านอาหารนิยม",
    "rating": 4.2,
    "address": "82 ซอย มหาจักรพรรดิ์ 6 ตำบล หน้าเมือง อำเภอเมืองฉะเชิงเทรา",
    "lat": 13.6926808,
    "lng": 101.0699054
  },
  {
    "mu_place": "วัดโสธรวรารามวรวิหาร",
    "name": "ร้านอาหาร แอบอร่อย",
    "rating": 4.7,
    "address": "3 1 ตำบล โคกขี้หนอน อำเภอพานทอง",
    "lat": 13.5296875,
    "lng": 101.1009939
  },
  {
    "mu_place": "วัดโสธรวรารามวรวิหาร",
    "name": "ร้านอาหารพลูลม",
    "rating": 4.3,
    "address": "J3GH+PVC ตำบล บางกรูด อำเภอบ้านโพธิ์",
    "lat": 13.6267478,
    "lng": 101.0796099
  },
  {
    "mu_place": "วัดโสธรวรารามวรวิหาร",
    "name": "ร้านอาหารเรือนลำพู",
    "rating": 4.2,
    "address": "J3GM+2M2 ตำบล บางกรูด อำเภอบ้านโพธิ์",
    "lat": 13.6250152,
    "lng": 101.0841533
  },
  {
    "mu_place": "วัดโสธรวรารามวรวิหาร",
    "name": "ร้าน บ้านป้าหนู",
    "rating": 4,
    "address": "64 ถนนนตลาดบ้านใหม่ ตำบล หน้าเมือง อำเภอเมืองฉะเชิงเทรา",
    "lat": 13.69678,
    "lng": 101.0907147
  },
  {
    "mu_place": "วัดโสธรวรารามวรวิหาร",
    "name": "เพชร ร้านอาหาร",
    "rating": 0,
    "address": "ตำบล หนองบัว อำเภอบ้านโพธิ์",
    "lat": 13.6182358,
    "lng": 101.1078142
  },
  {
    "mu_place": "หลวงพ่อพระใส",
    "name": "ร้านอาหารดีดีโภชนา",
    "rating": 4.1,
    "address": "VPJW+968 ตำบลในเมือง อำเภอเมืองหนองคาย",
    "lat": 17.8808893,
    "lng": 102.745527
  },
  {
    "mu_place": "หลวงพ่อพระใส",
    "name": "ร้านอาหารสีบัว",
    "rating": 4,
    "address": "WJX9+4XH, Vientiane",
    "lat": 17.9478158,
    "lng": 102.6199721
  },
  {
    "mu_place": "หลวงพ่อพระใส",
    "name": "ร้านอาหารเบิ่งโขง",
    "rating": 4.1,
    "address": "XH5V+82X ทางหลวงชนบท หนองคาย 4002 ตำบล พานพร้าว อำเภอ ศรีเชียงใหม่",
    "lat": 17.9583564,
    "lng": 102.5926129
  },
  {
    "mu_place": "หลวงพ่อพระใส",
    "name": "ร้านอาหารครัวคูณเก้า",
    "rating": 4,
    "address": "หมู่ที่ 1 125 ตำบล หาดคำ อำเภอเมืองหนองคาย",
    "lat": 17.9043442,
    "lng": 102.7732002
  },
  {
    "mu_place": "หลวงพ่อพระใส",
    "name": "ร้านอาหารเวียงจันทร์ Restaurant",
    "rating": 4.3,
    "address": "RM2C+99F, Unnamed Rd, ตำบล เวียงคุก อำเภอเมืองหนองคาย",
    "lat": 17.8009399,
    "lng": 102.670917
  },
  {
    "mu_place": "หลวงพ่อพระใส",
    "name": "ครัวบุญชู",
    "rating": 4.2,
    "address": "VP8F+C7V ตำบล มีชัย อำเภอเมืองหนองคาย",
    "lat": 17.866119,
    "lng": 102.7231862
  },
  {
    "mu_place": "หลวงพ่อพระใส",
    "name": "ร้านอาหารบ้านริมนำ้้ Ban Rim Nam Restaurant",
    "rating": 4.2,
    "address": "VQC4+VW5 ตำบล โพธิ์ชัย อำเภอเมืองหนองคาย",
    "lat": 17.8721296,
    "lng": 102.7573491
  },
  {
    "mu_place": "หลวงพ่อพระใส",
    "name": "ร้านอาหาร กาเฟเวียด Cà phê Việt หนองคาย",
    "rating": 4.7,
    "address": "ตำบลในเมือง อำเภอเมืองหนองคาย",
    "lat": 17.8857133,
    "lng": 102.7484328
  },
  {
    "mu_place": "หลวงพ่อพระใส",
    "name": "ร้านอาหารบ้านสวนพริก",
    "rating": 4.4,
    "address": "VQH3+87H ตำบลในเมือง อำเภอเมืองหนองคาย",
    "lat": 17.8783941,
    "lng": 102.7532114
  },
  {
    "mu_place": "หลวงพ่อพระใส",
    "name": "ร้านอาหารเดอะ เฟรนด์ชิฟ",
    "rating": 4.6,
    "address": "VH6F+G8P 220 ตำบล น้ำโมง อำเภอ ท่าบ่อ",
    "lat": 17.8613301,
    "lng": 102.5733178
  },
  {
    "mu_place": "หลวงพ่อพระใส",
    "name": "ร้านอาหารบ้านสายชล",
    "rating": 4.2,
    "address": "VPH9+5P4 ตำบล มีชัย อำเภอเมืองหนองคาย",
    "lat": 17.8778865,
    "lng": 102.7193209
  },
  {
    "mu_place": "หลวงพ่อพระใส",
    "name": "ร้านอาหารมะยม",
    "rating": 4.2,
    "address": "XH4W+RJV ทางหลวงชนบท หนองคาย 4002 ตำบล พานพร้าว อำเภอ ศรีเชียงใหม่",
    "lat": 17.9571091,
    "lng": 102.5965358
  },
  {
    "mu_place": "หลวงพ่อพระใส",
    "name": "ร้านเลอของ หนองคาย",
    "rating": 4,
    "address": "226 หมู่ที่2 ถ ซอย แก้ววรวุฒิ อำเภอเมืองหนองคาย",
    "lat": 17.880146,
    "lng": 102.7288353
  },
  {
    "mu_place": "หลวงพ่อพระใส",
    "name": "ร้านอาหารตามสั่ง (ประเสริฐ)",
    "rating": 4.4,
    "address": "736 Mitkasem Soi ตำบล โพธิ์ชัย อำเภอเมืองหนองคาย",
    "lat": 17.8653709,
    "lng": 102.7515394
  },
  {
    "mu_place": "หลวงพ่อพระใส",
    "name": "ร้านอาหารดงแฮ",
    "rating": 3.6,
    "address": "WP69+HJV, Dongphosy",
    "lat": 17.9114491,
    "lng": 102.7190717
  },
  {
    "mu_place": "หลวงพ่อพระใส",
    "name": "ร้านอาหารชายโขง",
    "rating": 3.9,
    "address": "3 หมู่ 1 ถนน แก้ววรวุฒิ ตำบลในเมือง อำเภอเมืองหนองคาย",
    "lat": 17.8804404,
    "lng": 102.7291557
  },
  {
    "mu_place": "หลวงพ่อพระใส",
    "name": "Krua Ban Nat",
    "rating": 4.5,
    "address": "298/1/2 ม.16, ตำบลในเมือง อำเภอเมืองหนองคาย",
    "lat": 17.8967218,
    "lng": 102.7688592
  },
  {
    "mu_place": "หลวงพ่อพระใส",
    "name": "ครัวจันทร์เจ้า (Chan Chao Restaurant)",
    "rating": 4.4,
    "address": "127 หมู่ 10 ต.หาดคำ อ.เมือง จ",
    "lat": 17.8829295,
    "lng": 102.7743918
  },
  {
    "mu_place": "หลวงพ่อพระใส",
    "name": "หลังจวน",
    "rating": 4.2,
    "address": "1156/3 ซอย หายโศก ตำบลในเมือง อำเภอเมืองหนองคาย",
    "lat": 17.8815811,
    "lng": 102.744175
  },
  {
    "mu_place": "หลวงพ่อพระใส",
    "name": "ร้านอาหาร ส.สมัยลาบก้อย",
    "rating": 4.4,
    "address": "VQP5+R2P ซอย ประจักษ์ศิลปาคม ตำบลในเมือง อำเภอเมืองหนองคาย",
    "lat": 17.8870756,
    "lng": 102.7575762
  },
  {
    "mu_place": "วัดสวนขัน (พ่อท่านคล้ายวาจาสิทธิ์)",
    "name": "ร้านอาหารบัวแก้ว",
    "rating": 4.3,
    "address": "131 ถนนโรงพระ ตำบล นาบอน อำเภอ นาบอน",
    "lat": 8.268473,
    "lng": 99.59585419999999
  },
  {
    "mu_place": "วัดสวนขัน (พ่อท่านคล้ายวาจาสิทธิ์)",
    "name": "ร้านอาหารโกไข่",
    "rating": 4.6,
    "address": "7H9R+6X6 ตำบล นาบอน อำเภอ นาบอน",
    "lat": 8.268030099999999,
    "lng": 99.5923919
  },
  {
    "mu_place": "วัดสวนขัน (พ่อท่านคล้ายวาจาสิทธิ์)",
    "name": "ครกพ่อเฒ่า",
    "rating": 4.3,
    "address": "ซอย 4002 ตำบล กำโลน อำเภอ ลานสกา",
    "lat": 8.4352509,
    "lng": 99.7757148
  },
  {
    "mu_place": "วัดสวนขัน (พ่อท่านคล้ายวาจาสิทธิ์)",
    "name": "ร้านอาหารครัวคุณยุ้ย",
    "rating": 4.8,
    "address": "CQMM+4MJ ตำบล กำโลน อำเภอ ลานสกา",
    "lat": 8.432826799999999,
    "lng": 99.78412139999999
  },
  {
    "mu_place": "วัดสวนขัน (พ่อท่านคล้ายวาจาสิทธิ์)",
    "name": "ร้านป้ามาส",
    "rating": 4.1,
    "address": "HGPP+VCJ ตำบล กะทูน อำเภอ พิปูน",
    "lat": 8.5872187,
    "lng": 99.53600329999999
  },
  {
    "mu_place": "วัดสวนขัน (พ่อท่านคล้ายวาจาสิทธิ์)",
    "name": "ร้านอาหารน้ำผึ้ง2",
    "rating": 3.9,
    "address": "9GMQ+3H9 ตำบล จันดี อำเภอ ฉวาง",
    "lat": 8.382671799999999,
    "lng": 99.5390068
  },
  {
    "mu_place": "วัดสวนขัน (พ่อท่านคล้ายวาจาสิทธิ์)",
    "name": "ร้านอาหารน้องแซม",
    "rating": 3.6,
    "address": "195 หมู่ 1 ถนนจีนดี-พิปูน ตำบล พิปูน อำเภอ พิปูน",
    "lat": 8.5614081,
    "lng": 99.608268
  },
  {
    "mu_place": "วัดสวนขัน (พ่อท่านคล้ายวาจาสิทธิ์)",
    "name": "ร้านอาหารเอกนคร",
    "rating": 3.6,
    "address": "8F2X+P88 ตำบล ทุ่งสง อำเภอ นาบอน",
    "lat": 8.3017979,
    "lng": 99.4983172
  },
  {
    "mu_place": "วัดสวนขัน (พ่อท่านคล้ายวาจาสิทธิ์)",
    "name": "ครัวเรือนไทย",
    "rating": 4.4,
    "address": "9HF3+M28 ตำบล หลักช้าง อำเภอ ช้างกลาง",
    "lat": 8.3741652,
    "lng": 99.5526458
  },
  {
    "mu_place": "วัดสวนขัน (พ่อท่านคล้ายวาจาสิทธิ์)",
    "name": "ร้านอาหาร ปูเปรี้ยว",
    "rating": 4.3,
    "address": "239 หมู่9 ทุ่งสง อำเภอ นาบอน",
    "lat": 8.3027309,
    "lng": 99.49652499999999
  },
  {
    "mu_place": "วัดสวนขัน (พ่อท่านคล้ายวาจาสิทธิ์)",
    "name": "พี่วุ้นเส้น น้องไทรทัน อาหารตามสั่ง",
    "rating": 4.3,
    "address": "122 ม.11 อำเภอ ช้างกลาง",
    "lat": 8.3600321,
    "lng": 99.6126767
  },
  {
    "mu_place": "วัดสวนขัน (พ่อท่านคล้ายวาจาสิทธิ์)",
    "name": "ร้านใบไผ่",
    "rating": 4.2,
    "address": "HFF9+GGM ตำบล ห้วยปริก อำเภอ ฉวาง",
    "lat": 8.5738443,
    "lng": 99.468806
  },
  {
    "mu_place": "วัดสวนขัน (พ่อท่านคล้ายวาจาสิทธิ์)",
    "name": "ร้านต้นตำรับ",
    "rating": 3.9,
    "address": "ม .7 ต เขา พระ อ พิปูน",
    "lat": 8.5626649,
    "lng": 99.6042556
  },
  {
    "mu_place": "วัดสวนขัน (พ่อท่านคล้ายวาจาสิทธิ์)",
    "name": "ร้านครัวตังตางค์",
    "rating": 4.2,
    "address": "254 หมู่ ที 4 ต ตำบล นาบอน อำเภอ นาบอน",
    "lat": 8.2447632,
    "lng": 99.62356659999999
  },
  {
    "mu_place": "วัดสวนขัน (พ่อท่านคล้ายวาจาสิทธิ์)",
    "name": "เรินเรา",
    "rating": 4.4,
    "address": "9J2M+9F8 ตำบล ช้างกลาง อำเภอ ช้างกลาง",
    "lat": 8.3509172,
    "lng": 99.63368969999999
  },
  {
    "mu_place": "วัดสวนขัน (พ่อท่านคล้ายวาจาสิทธิ์)",
    "name": "ร้านอาหารตามสั่ง",
    "rating": 3.4,
    "address": "HHPJ+WG5 4224 ตำบล เขาพระ อำเภอ พิปูน",
    "lat": 8.5872502,
    "lng": 99.5813733
  },
  {
    "mu_place": "วัดสวนขัน (พ่อท่านคล้ายวาจาสิทธิ์)",
    "name": "ร้านอาหารบ้านทิพย์จันดี Baantrip Chandi",
    "rating": 4.1,
    "address": "788 หมู่3 ตำบล จันดี อำเภอ ฉวาง",
    "lat": 8.3857432,
    "lng": 99.5431174
  },
  {
    "mu_place": "วัดสวนขัน (พ่อท่านคล้ายวาจาสิทธิ์)",
    "name": "ร้านตาศักดิ์(ส้มตำ อาหารตามสั่ง)",
    "rating": 4,
    "address": "ตำบล ไสหร้า อำเภอ ฉวาง",
    "lat": 8.439328099999999,
    "lng": 99.52838919999999
  },
  {
    "mu_place": "วัดสวนขัน (พ่อท่านคล้ายวาจาสิทธิ์)",
    "name": "ร้านอาหารอำภา2",
    "rating": 4.2,
    "address": "328 ร้านอาหารอำภา2 ต.ฉวาง อำเภอ ฉวาง",
    "lat": 8.426307,
    "lng": 99.51017700000001
  },
  {
    "mu_place": "วัดสวนขัน (พ่อท่านคล้ายวาจาสิทธิ์)",
    "name": "ร้านแม่จ๋า อาหารตามสั่งรสเด็ด",
    "rating": 5,
    "address": "9H9M+2CW 4015 ตำบล ช้างกลาง อำเภอ ช้างกลาง",
    "lat": 8.3676202,
    "lng": 99.5835734
  },
  {
    "mu_place": "วัดอรุณราชวรารามราชวรมหาวิหาร",
    "name": "ร้านอาหารเพลิน",
    "rating": 4.2,
    "address": "7/428 ถนน วิภาวดีรังสิต แขวงจตุจักร เขตจตุจักร",
    "lat": 13.8259653,
    "lng": 100.5571122
  },
  {
    "mu_place": "วัดอรุณราชวรารามราชวรมหาวิหาร",
    "name": "กินลมชมสะพาน",
    "rating": 4.1,
    "address": "11 6 ถนนจักรพงษ์ แขวงวัดสามพระยา เขตพระนคร",
    "lat": 13.7666469,
    "lng": 100.497129
  },
  {
    "mu_place": "วัดอรุณราชวรารามราชวรมหาวิหาร",
    "name": "ร้านอาหารประพักตร์",
    "rating": 4.3,
    "address": "89/165 ถนน เทศบาลสงเคราะห์ แขวงลาดยาว เขตจตุจักร",
    "lat": 13.8406963,
    "lng": 100.552399
  },
  {
    "mu_place": "วัดอรุณราชวรารามราชวรมหาวิหาร",
    "name": "ร้านอาหารข้าวใหม่",
    "rating": 4.6,
    "address": "RHMH+3CX แขวงจันทรเกษม เขตจตุจักร",
    "lat": 13.8327455,
    "lng": 100.578617
  },
  {
    "mu_place": "วัดอรุณราชวรารามราชวรมหาวิหาร",
    "name": "Three Mangoes บ้านไทย ชายคลอง",
    "rating": 4.2,
    "address": "76 1 ถ. นครอินทร์ ตำบล บางขนุน อำเภอบางกรวย",
    "lat": 13.8237315,
    "lng": 100.4670198
  },
  {
    "mu_place": "วัดอรุณราชวรารามราชวรมหาวิหาร",
    "name": "Bajika Restaurant (ร้านอาหารบาจิกา)",
    "rating": 4.4,
    "address": "46/4 ถ. กาญจนาภิเษก แขวงศาลาธรรมสพน์ เขตทวีวัฒนา",
    "lat": 13.7701897,
    "lng": 100.4069093
  },
  {
    "mu_place": "วัดอรุณราชวรารามราชวรมหาวิหาร",
    "name": "ร้านอาหารรับลม",
    "rating": 4.1,
    "address": "หมู่ที่1 26/2 ถ. บางกรวย - ไทรน้อย ตำบล บางรักพัฒนา อำเภอบางบัวทอง",
    "lat": 13.9063534,
    "lng": 100.4272884
  },
  {
    "mu_place": "วัดอรุณราชวรารามราชวรมหาวิหาร",
    "name": "หมีแฟมิลี่ สาขา ประชาชื่น",
    "rating": 4.6,
    "address": "280/1 ถ. ประชาชื่น แขวงจตุจักร เขตจตุจักร",
    "lat": 13.8232274,
    "lng": 100.5384329
  },
  {
    "mu_place": "วัดอรุณราชวรารามราชวรมหาวิหาร",
    "name": "ร้านอาหาร สวนลุงพร",
    "rating": 4.6,
    "address": "2 2 ตำบล แพรกษา อำเภอเมืองสมุทรปราการ",
    "lat": 13.5877449,
    "lng": 100.6419076
  },
  {
    "mu_place": "วัดอรุณราชวรารามราชวรมหาวิหาร",
    "name": "ร้านอาหาร ครกไม้ไทยลาว ซอยลาดปลาเค้า 24",
    "rating": 4.3,
    "address": "8 ซ. ลาดปลาเค้า 24 แขวงจรเข้บัว เขตลาดพร้าว",
    "lat": 13.8401614,
    "lng": 100.5958436
  },
  {
    "mu_place": "วัดอรุณราชวรารามราชวรมหาวิหาร",
    "name": "ร้านอาหารรสสุคนธ์",
    "rating": 4.1,
    "address": "299 12 หมู่ 5 ถ. ศรีนครินทร์ ตำบล บางเมือง อำเภอเมืองสมุทรปราการ",
    "lat": 13.6151095,
    "lng": 100.6209244
  },
  {
    "mu_place": "วัดอรุณราชวรารามราชวรมหาวิหาร",
    "name": "T and T Restaurant",
    "rating": 4.3,
    "address": "359 เทศบาลนิมิตใต้ ซอย 7 แขวงลาดยาว เขตจตุจักร",
    "lat": 13.8363602,
    "lng": 100.5495098
  },
  {
    "mu_place": "วัดอรุณราชวรารามราชวรมหาวิหาร",
    "name": "ร้านอาหารแกงป่า(ลุงสง่า)",
    "rating": 4.4,
    "address": "285 162 ซ. งามวงศ์วาน 23 แยก 11 ตำบลบางเขน อำเภอเมือง",
    "lat": 13.8651608,
    "lng": 100.5355962
  },
  {
    "mu_place": "วัดอรุณราชวรารามราชวรมหาวิหาร",
    "name": "ร้านอาหารลงแพ หรือ @บางขวด",
    "rating": 4.3,
    "address": "3 ซอย นวลจันทร์ 56 แขวงนวลจันทร์ เขตบึงกุ่ม",
    "lat": 13.8328813,
    "lng": 100.6462978
  },
  {
    "mu_place": "วัดอรุณราชวรารามราชวรมหาวิหาร",
    "name": "ร้านอาหารบ้านใบบัว",
    "rating": 4.3,
    "address": "13, 37 ถ. วงแหวนอุตสาหกรรม ลัดหลวง อำเภอพระประแดง",
    "lat": 13.6646477,
    "lng": 100.5233595
  },
  {
    "mu_place": "วัดอรุณราชวรารามราชวรมหาวิหาร",
    "name": "ร้านระเบียงเคียงน้ำ 77",
    "rating": 4.1,
    "address": "เลขที่ 76/1 ซอย หมู่ 3 ตำบล บางตะไนย์ อำเภอปากเกร็ด",
    "lat": 13.9180431,
    "lng": 100.4951132
  },
  {
    "mu_place": "วัดอรุณราชวรารามราชวรมหาวิหาร",
    "name": "ร้านอาหาร ศรีกร",
    "rating": 4.3,
    "address": "233 ถ. สุขุมวิท ตำบลปากน้ำ อำเภอเมืองสมุทรปราการ",
    "lat": 13.601827,
    "lng": 100.5974659
  },
  {
    "mu_place": "วัดอรุณราชวรารามราชวรมหาวิหาร",
    "name": "ประจักษ์",
    "rating": 4.2,
    "address": "1415 ถ. เจริญกรุง แขวงสีลม เขตบางรัก",
    "lat": 13.7203946,
    "lng": 100.5160089
  },
  {
    "mu_place": "วัดอรุณราชวรารามราชวรมหาวิหาร",
    "name": "ร้านอาหาร​บ้าน​แบบ​ไทย",
    "rating": 4.7,
    "address": "​ ​ 307 ซอย สาทร 19 แขวงยานนาวา เขตยานนาวา",
    "lat": 13.7178337,
    "lng": 100.517159
  },
  {
    "mu_place": "วัดอรุณราชวรารามราชวรมหาวิหาร",
    "name": "ร้านอาหารต้นก้ามปู",
    "rating": 4.1,
    "address": "43 3 ถนน เศรษฐศิริ แขวงพญาไท เขตพญาไท",
    "lat": 13.7815486,
    "lng": 100.5311554
  },
  {
    "mu_place": "พระพิฆเนศ เทพแห่งความสำเร็จ วัดดอกจั่น(สถานที่เลี้ยงเด็กกำพร้า)",
    "name": "ร้านอาหารดาวคะนอง สาขา ในเมือง",
    "rating": 4.2,
    "address": "340 ถนน เจริญราษฎร์ ตำบล ในเมือง อำเภอเมืองลำพูน",
    "lat": 18.5893673,
    "lng": 99.0115752
  },
  {
    "mu_place": "พระพิฆเนศ เทพแห่งความสำเร็จ วัดดอกจั่น(สถานที่เลี้ยงเด็กกำพร้า)",
    "name": "ซันซุย ร้านอาหาร",
    "rating": 4.8,
    "address": "299 23 ซอย หมู่บ้านนาทองวิลล์ ตำบล ท่าศาลา อำเภอเมืองเชียงใหม่",
    "lat": 18.7799435,
    "lng": 99.0304594
  },
  {
    "mu_place": "พระพิฆเนศ เทพแห่งความสำเร็จ วัดดอกจั่น(สถานที่เลี้ยงเด็กกำพร้า)",
    "name": "ร้านอาหารครัวสบันงา By P'preaw",
    "rating": 4.5,
    "address": "473 หมู่ที่ 1 ตำบล สันทรายน้อย อำเภอสันทราย",
    "lat": 18.8319238,
    "lng": 99.0452706
  },
  {
    "mu_place": "พระพิฆเนศ เทพแห่งความสำเร็จ วัดดอกจั่น(สถานที่เลี้ยงเด็กกำพร้า)",
    "name": "ร้านอาหารครัวไทย",
    "rating": 4.5,
    "address": "เลขที่ 124/308 อำเภอเมืองเชียงใหม่",
    "lat": 18.7877876,
    "lng": 99.0400332
  },
  {
    "mu_place": "พระพิฆเนศ เทพแห่งความสำเร็จ วัดดอกจั่น(สถานที่เลี้ยงเด็กกำพร้า)",
    "name": "ร้านอาหาร หอมละมุน",
    "rating": 4.4,
    "address": "54/15 ตำบล ฟ้าฮ่าม อำเภอเมืองเชียงใหม่",
    "lat": 18.8184439,
    "lng": 99.0018218
  },
  {
    "mu_place": "พระพิฆเนศ เทพแห่งความสำเร็จ วัดดอกจั่น(สถานที่เลี้ยงเด็กกำพร้า)",
    "name": "ร้านอาหาร บุญทองทิพย์",
    "rating": 3.9,
    "address": "18°40'01.0\"N 99°03'06., ซอย 7 ตำบล ป่าบง อำเภอ สารภี",
    "lat": 18.666937,
    "lng": 99.05186499999999
  },
  {
    "mu_place": "พระพิฆเนศ เทพแห่งความสำเร็จ วัดดอกจั่น(สถานที่เลี้ยงเด็กกำพร้า)",
    "name": "ร้านอาหารต้นน้ำ",
    "rating": 4.4,
    "address": "313 ซอย ป่าตัน 9 ตำบล สันผีเสื้อ อำเภอเมืองเชียงใหม่",
    "lat": 18.8328451,
    "lng": 98.991505
  },
  {
    "mu_place": "พระพิฆเนศ เทพแห่งความสำเร็จ วัดดอกจั่น(สถานที่เลี้ยงเด็กกำพร้า)",
    "name": "ร้านอาหารบ้านชานเมือง เชียงใหม่",
    "rating": 4.1,
    "address": "แยกลิขิตชีวัน-แยกกองพันสัตว์ต่าง ถ. รอบเมืองเชียงใหม่ ตำบล สันผีเสื้อ อำเภอเมืองเชียงใหม่",
    "lat": 18.8565215,
    "lng": 98.9970719
  },
  {
    "mu_place": "พระพิฆเนศ เทพแห่งความสำเร็จ วัดดอกจั่น(สถานที่เลี้ยงเด็กกำพร้า)",
    "name": "ร้านอาหารโก๋โบราณ..ตลาดโบราณ..bigcook Shop",
    "rating": 4,
    "address": "R2MM+XG2 ตำบล หนองจ๊อม อำเภอสันทราย",
    "lat": 18.8348896,
    "lng": 99.0337455
  },
  {
    "mu_place": "พระพิฆเนศ เทพแห่งความสำเร็จ วัดดอกจั่น(สถานที่เลี้ยงเด็กกำพร้า)",
    "name": "Lek Prickkeenoo Shop",
    "rating": 4.3,
    "address": "56/1, Singharat Road, Tambon Sriphoom, Amphoe Muang Chiangmai, Chiangmai, 50300",
    "lat": 18.7925129,
    "lng": 98.981978
  },
  {
    "mu_place": "พระพิฆเนศ เทพแห่งความสำเร็จ วัดดอกจั่น(สถานที่เลี้ยงเด็กกำพร้า)",
    "name": "ร้านอาหารยอดแซ่บ",
    "rating": 4.2,
    "address": "M2RX+GMV ตำบล ยางเนิ้ง อำเภอ สารภี",
    "lat": 18.6912986,
    "lng": 99.04916399999999
  },
  {
    "mu_place": "พระพิฆเนศ เทพแห่งความสำเร็จ วัดดอกจั่น(สถานที่เลี้ยงเด็กกำพร้า)",
    "name": "ร้านอาหารไทย \"คำดารา\"",
    "rating": 4.2,
    "address": "193 ถนน เจริญราษฎร์ อำเภอเมือง อำเภอเมืองเชียงใหม่",
    "lat": 18.7930324,
    "lng": 99.0009582
  },
  {
    "mu_place": "พระพิฆเนศ เทพแห่งความสำเร็จ วัดดอกจั่น(สถานที่เลี้ยงเด็กกำพร้า)",
    "name": "ร้านอาหารกอเซี้ยม",
    "rating": 4.1,
    "address": "399/16-17 โครงการแม่ริมพลาซ่า ริมใต้ อำเภอแม่ริม",
    "lat": 18.9166032,
    "lng": 98.94333069999999
  },
  {
    "mu_place": "พระพิฆเนศ เทพแห่งความสำเร็จ วัดดอกจั่น(สถานที่เลี้ยงเด็กกำพร้า)",
    "name": "ร้านอาหารชาววัง",
    "rating": 4.1,
    "address": "เลขที่ 399/4 ถนน เชียงใหม่- ดอยสะเก็ด อำเภอสันทราย",
    "lat": 18.8135704,
    "lng": 99.03172550000001
  },
  {
    "mu_place": "พระพิฆเนศ เทพแห่งความสำเร็จ วัดดอกจั่น(สถานที่เลี้ยงเด็กกำพร้า)",
    "name": "เขยเจียงใหม่ - อาหารเหนือ (ร้านอาหารเชียงใหม่)",
    "rating": 4.5,
    "address": "14 ถนน ซอย สันติธรรม ตำบลช้างเผือก อำเภอเมืองเชียงใหม่",
    "lat": 18.8004791,
    "lng": 98.9782729
  },
  {
    "mu_place": "พระพิฆเนศ เทพแห่งความสำเร็จ วัดดอกจั่น(สถานที่เลี้ยงเด็กกำพร้า)",
    "name": "ร้าน บ้านไร่ยามเย็น",
    "rating": 4.3,
    "address": "ซอย บ้านไร่ หมู่ 3 ตำบล ฟ้าฮ่าม อำเภอเมืองเชียงใหม่",
    "lat": 18.8124211,
    "lng": 99.00781889999999
  },
  {
    "mu_place": "พระพิฆเนศ เทพแห่งความสำเร็จ วัดดอกจั่น(สถานที่เลี้ยงเด็กกำพร้า)",
    "name": "ร้านอาหารหน้าบ้าน อาหารพื้นเมือง",
    "rating": 4.7,
    "address": "RXCC+F29 ตำบลช้างเผือก อำเภอเมืองเชียงใหม่",
    "lat": 18.8211446,
    "lng": 98.970079
  },
  {
    "mu_place": "พระพิฆเนศ เทพแห่งความสำเร็จ วัดดอกจั่น(สถานที่เลี้ยงเด็กกำพร้า)",
    "name": "จงชาน ร้านอาหารจีนกวางตุ้ง",
    "rating": 4.3,
    "address": "DK Park, ถนน มหิดล Changklan, อำเภอเมืองเชียงใหม่",
    "lat": 18.7681189,
    "lng": 98.98429829999999
  },
  {
    "mu_place": "พระพิฆเนศ เทพแห่งความสำเร็จ วัดดอกจั่น(สถานที่เลี้ยงเด็กกำพร้า)",
    "name": "ร้านอาหารตามสั่ง",
    "rating": 4.3,
    "address": "R2JH+5P3 ซ. หมู่บ้านภิมุกเพลส ซอย 14 เฟส 6 ตำบล หนองจ๊อม อำเภอสันทราย",
    "lat": 18.8303862,
    "lng": 99.0292887
  },
  {
    "mu_place": "พระพิฆเนศ เทพแห่งความสำเร็จ วัดดอกจั่น(สถานที่เลี้ยงเด็กกำพร้า)",
    "name": "ร้านอาหารเฮือนเพ็ญ",
    "rating": 4,
    "address": "112 ตำบล พระสิงห์ อำเภอเมืองเชียงใหม่",
    "lat": 18.7858228,
    "lng": 98.9851475
  },
  {
    "mu_place": "วัดนางพระยา",
    "name": "ร้านอาหารบ้านบางรัก นครศรีธรรมราช",
    "rating": 4.3,
    "address": "83Q5+JH4 ตำบล บางจาก อำเภอเมืองนครศรีธรรมราช",
    "lat": 8.339010199999999,
    "lng": 100.0589706
  },
  {
    "mu_place": "วัดนางพระยา",
    "name": "ร้านอาหารโกผู บางจาก",
    "rating": 4.5,
    "address": "43 บางจาก เมือง",
    "lat": 8.338239999999999,
    "lng": 100.0748979
  },
  {
    "mu_place": "วัดนางพระยา",
    "name": "ครัวศิริพันธ์ ร้านอาหาร",
    "rating": 4.6,
    "address": "28/1 กะโรม ตำบล โพธิ์เสด็จ อำเภอเมืองนครศรีธรรมราช",
    "lat": 8.4328301,
    "lng": 99.9519152
  },
  {
    "mu_place": "วัดนางพระยา",
    "name": "ทิพย์รส ร้านอาหาร",
    "rating": 4.2,
    "address": "1307/25-7 จำเริญวิถี ตำบล คลัง อำเภอเมืองนครศรีธรรมราช",
    "lat": 8.437515699999999,
    "lng": 99.96134339999999
  },
  {
    "mu_place": "วัดนางพระยา",
    "name": "กวงฮั้ว ร้านอาหาร",
    "rating": 4.3,
    "address": "1605-7 ถนนจำเริญวิถี ตำบล ท่าวัง อำเภอเมืองนครศรีธรรมราช",
    "lat": 8.4401929,
    "lng": 99.96066169999999
  },
  {
    "mu_place": "วัดนางพระยา",
    "name": "ครัวนายหนัง",
    "rating": 4.3,
    "address": "175, 2 ถ. พัฒนาการคูขวาง ตำบล ในเมือง อำเภอเมืองนครศรีธรรมราช",
    "lat": 8.421950899999999,
    "lng": 99.9733377
  },
  {
    "mu_place": "วัดนางพระยา",
    "name": "ร้านอาหาร",
    "rating": 4,
    "address": "CXP6+5JR ตำบล คลัง อำเภอเมืองนครศรีธรรมราช",
    "lat": 8.4354848,
    "lng": 99.96152420000001
  },
  {
    "mu_place": "วัดนางพระยา",
    "name": "ร้านอาหารครัวปั้นหยา",
    "rating": 4.2,
    "address": "101 ซอย นครศรีธรรมราช, ตำบล ในเมือง อำเภอเมืองนครศรีธรรมราช",
    "lat": 8.3984167,
    "lng": 99.96814619999999
  },
  {
    "mu_place": "วัดนางพระยา",
    "name": "ร้านอาหารสุดยอด นครศรีธรรมราช",
    "rating": 4.2,
    "address": "CXV3+8MX ถ. สะพานยาว ตำบล โพธิ์เสด็จ อำเภอเมืองนครศรีธรรมราช",
    "lat": 8.4432833,
    "lng": 99.954247
  },
  {
    "mu_place": "วัดนางพระยา",
    "name": "ร้านอาหารชาวเรือ",
    "rating": 4.3,
    "address": "195 ถนน ศรีธรรมราช ในเมือง เมือง",
    "lat": 8.4225128,
    "lng": 99.9619541
  },
  {
    "mu_place": "วัดนางพระยา",
    "name": "ร้านอาหารเจ๊กบ",
    "rating": 4.3,
    "address": "10 1, ตำบล บางจาก อำเภอเมืองนครศรีธรรมราช",
    "lat": 8.3389948,
    "lng": 100.0754812
  },
  {
    "mu_place": "วัดนางพระยา",
    "name": "ร้านเชยเมืองครฯ",
    "rating": 4.3,
    "address": "ถ. ราชดำเนิน ตำบล ในเมือง อำเภอเมืองนครศรีธรรมราช",
    "lat": 8.4236002,
    "lng": 99.9641554
  },
  {
    "mu_place": "วัดนางพระยา",
    "name": "ร้านลองเบิ่ง",
    "rating": 4.3,
    "address": "CX49+R36 ตำบล ในเมือง อำเภอเมืองนครศรีธรรมราช",
    "lat": 8.407026199999999,
    "lng": 99.9676278
  },
  {
    "mu_place": "วัดนางพระยา",
    "name": "ร้านอาหารผัดไทยเจ้เป้า และอาหารตามสั่ง",
    "rating": 3.8,
    "address": "CVMV+274 4016 ตำบล โพธิ์เสด็จ อำเภอเมืองนครศรีธรรมราช",
    "lat": 8.432502099999999,
    "lng": 99.893198
  },
  {
    "mu_place": "วัดนางพระยา",
    "name": "ร้านอาหารต้นแก้ว",
    "rating": 4,
    "address": "229 ถ. พัฒนาการคูขวาง ตำบล ในเมือง อำเภอเมืองนครศรีธรรมราช",
    "lat": 8.4260515,
    "lng": 99.9724871
  },
  {
    "mu_place": "วัดนางพระยา",
    "name": "ร้านอาหารเรือนโพธิ์ทอง",
    "rating": 4.5,
    "address": "ตำบล ในเมือง อำเภอเมืองนครศรีธรรมราช",
    "lat": 8.4096,
    "lng": 99.96669639999999
  },
  {
    "mu_place": "วัดนางพระยา",
    "name": "ร้านอาหารคุณเท่ง",
    "rating": 4,
    "address": "GXF2+GXV 401 ตำบล ปากพูน อำเภอเมืองนครศรีธรรมราช",
    "lat": 8.5238698,
    "lng": 99.9524347
  },
  {
    "mu_place": "วัดนางพระยา",
    "name": "ร้านอาหารตามสั่ง&ชา 3 ก",
    "rating": 4.8,
    "address": "9XVH+X4P ตำบล ในเมือง อำเภอเมืองนครศรีธรรมราช",
    "lat": 8.3949614,
    "lng": 99.9778159
  },
  {
    "mu_place": "วัดนางพระยา",
    "name": "ร้านอาหารศักดิ์-ศรี",
    "rating": 3,
    "address": "9VF8+6J4 ตำบล ท่าดี อำเภอเมืองนครศรีธรรมราช",
    "lat": 8.373014999999999,
    "lng": 99.8665912
  },
  {
    "mu_place": "วัดนางพระยา",
    "name": "ร้านอาหารฟ้าใส",
    "rating": 4,
    "address": "45/24 ถ. ราชดำเนิน ตำบล ปากพูน อำเภอเมืองนครศรีธรรมราช",
    "lat": 8.4576808,
    "lng": 99.95936429999999
  },
  {
    "mu_place": "วัดพระศรีรัตนมหาธาตุวรมหาวิหาร (วัดใหญ่)",
    "name": "ร้านอาหารบ้านบางรัก นครศรีธรรมราช",
    "rating": 4.3,
    "address": "83Q5+JH4 ตำบล บางจาก อำเภอเมืองนครศรีธรรมราช",
    "lat": 8.339010199999999,
    "lng": 100.0589706
  },
  {
    "mu_place": "วัดพระศรีรัตนมหาธาตุวรมหาวิหาร (วัดใหญ่)",
    "name": "ร้านอาหารโกผู บางจาก",
    "rating": 4.5,
    "address": "43 บางจาก เมือง",
    "lat": 8.338239999999999,
    "lng": 100.0748979
  },
  {
    "mu_place": "วัดพระศรีรัตนมหาธาตุวรมหาวิหาร (วัดใหญ่)",
    "name": "ครัวศิริพันธ์ ร้านอาหาร",
    "rating": 4.6,
    "address": "28/1 กะโรม ตำบล โพธิ์เสด็จ อำเภอเมืองนครศรีธรรมราช",
    "lat": 8.4328301,
    "lng": 99.9519152
  },
  {
    "mu_place": "วัดพระศรีรัตนมหาธาตุวรมหาวิหาร (วัดใหญ่)",
    "name": "ทิพย์รส ร้านอาหาร",
    "rating": 4.2,
    "address": "1307/25-7 จำเริญวิถี ตำบล คลัง อำเภอเมืองนครศรีธรรมราช",
    "lat": 8.437515699999999,
    "lng": 99.96134339999999
  },
  {
    "mu_place": "วัดพระศรีรัตนมหาธาตุวรมหาวิหาร (วัดใหญ่)",
    "name": "กวงฮั้ว ร้านอาหาร",
    "rating": 4.3,
    "address": "1605-7 ถนนจำเริญวิถี ตำบล ท่าวัง อำเภอเมืองนครศรีธรรมราช",
    "lat": 8.4401929,
    "lng": 99.96066169999999
  },
  {
    "mu_place": "วัดพระศรีรัตนมหาธาตุวรมหาวิหาร (วัดใหญ่)",
    "name": "ร้านอาหาร",
    "rating": 4,
    "address": "CXP6+5JR ตำบล คลัง อำเภอเมืองนครศรีธรรมราช",
    "lat": 8.4354848,
    "lng": 99.96152420000001
  },
  {
    "mu_place": "วัดพระศรีรัตนมหาธาตุวรมหาวิหาร (วัดใหญ่)",
    "name": "ร้านอาหารครัวปั้นหยา",
    "rating": 4.2,
    "address": "101 ซอย นครศรีธรรมราช, ตำบล ในเมือง อำเภอเมืองนครศรีธรรมราช",
    "lat": 8.3984167,
    "lng": 99.96814619999999
  },
  {
    "mu_place": "วัดพระศรีรัตนมหาธาตุวรมหาวิหาร (วัดใหญ่)",
    "name": "ร้านอาหารพื้นเพ",
    "rating": 4.6,
    "address": "GRPG+27M ตำบล บ้านเกาะ อำเภอ พรหมคีรี",
    "lat": 8.535077099999999,
    "lng": 99.8256605
  },
  {
    "mu_place": "วัดพระศรีรัตนมหาธาตุวรมหาวิหาร (วัดใหญ่)",
    "name": "ร้านอาหารสุดยอด นครศรีธรรมราช",
    "rating": 4.2,
    "address": "CXV3+8MX ถ. สะพานยาว ตำบล โพธิ์เสด็จ อำเภอเมืองนครศรีธรรมราช",
    "lat": 8.4432833,
    "lng": 99.954247
  },
  {
    "mu_place": "วัดพระศรีรัตนมหาธาตุวรมหาวิหาร (วัดใหญ่)",
    "name": "ร้านอาหารชาวเรือ",
    "rating": 4.3,
    "address": "195 ถนน ศรีธรรมราช ในเมือง เมือง",
    "lat": 8.4225128,
    "lng": 99.9619541
  },
  {
    "mu_place": "วัดพระศรีรัตนมหาธาตุวรมหาวิหาร (วัดใหญ่)",
    "name": "ร้านอาหารเจ๊กบ",
    "rating": 4.3,
    "address": "10 1, ตำบล บางจาก อำเภอเมืองนครศรีธรรมราช",
    "lat": 8.3389948,
    "lng": 100.0754812
  },
  {
    "mu_place": "วัดพระศรีรัตนมหาธาตุวรมหาวิหาร (วัดใหญ่)",
    "name": "ร้านเชยเมืองครฯ",
    "rating": 4.3,
    "address": "ถ. ราชดำเนิน ตำบล ในเมือง อำเภอเมืองนครศรีธรรมราช",
    "lat": 8.4236002,
    "lng": 99.9641554
  },
  {
    "mu_place": "วัดพระศรีรัตนมหาธาตุวรมหาวิหาร (วัดใหญ่)",
    "name": "ร้านลองเบิ่ง",
    "rating": 4.3,
    "address": "CX49+R36 ตำบล ในเมือง อำเภอเมืองนครศรีธรรมราช",
    "lat": 8.407026199999999,
    "lng": 99.9676278
  },
  {
    "mu_place": "วัดพระศรีรัตนมหาธาตุวรมหาวิหาร (วัดใหญ่)",
    "name": "ร้านอาหารผัดไทยเจ้เป้า และอาหารตามสั่ง",
    "rating": 3.8,
    "address": "CVMV+274 4016 ตำบล โพธิ์เสด็จ อำเภอเมืองนครศรีธรรมราช",
    "lat": 8.432502099999999,
    "lng": 99.893198
  },
  {
    "mu_place": "วัดพระศรีรัตนมหาธาตุวรมหาวิหาร (วัดใหญ่)",
    "name": "ร้านอาหารต้นแก้ว",
    "rating": 4,
    "address": "229 ถ. พัฒนาการคูขวาง ตำบล ในเมือง อำเภอเมืองนครศรีธรรมราช",
    "lat": 8.4260515,
    "lng": 99.9724871
  },
  {
    "mu_place": "วัดพระศรีรัตนมหาธาตุวรมหาวิหาร (วัดใหญ่)",
    "name": "ร้านอาหารเรือนโพธิ์ทอง",
    "rating": 4.5,
    "address": "ตำบล ในเมือง อำเภอเมืองนครศรีธรรมราช",
    "lat": 8.4096,
    "lng": 99.96669639999999
  },
  {
    "mu_place": "วัดพระศรีรัตนมหาธาตุวรมหาวิหาร (วัดใหญ่)",
    "name": "ร้านอาหารคุณเท่ง",
    "rating": 4,
    "address": "GXF2+GXV 401 ตำบล ปากพูน อำเภอเมืองนครศรีธรรมราช",
    "lat": 8.5238698,
    "lng": 99.9524347
  },
  {
    "mu_place": "วัดพระศรีรัตนมหาธาตุวรมหาวิหาร (วัดใหญ่)",
    "name": "ร้านอาหารตามสั่ง&ชา 3 ก",
    "rating": 4.8,
    "address": "9XVH+X4P ตำบล ในเมือง อำเภอเมืองนครศรีธรรมราช",
    "lat": 8.3949614,
    "lng": 99.9778159
  },
  {
    "mu_place": "วัดพระศรีรัตนมหาธาตุวรมหาวิหาร (วัดใหญ่)",
    "name": "ร้านอาหารศักดิ์-ศรี",
    "rating": 3,
    "address": "9VF8+6J4 ตำบล ท่าดี อำเภอเมืองนครศรีธรรมราช",
    "lat": 8.373014999999999,
    "lng": 99.8665912
  },
  {
    "mu_place": "วัดพระศรีรัตนมหาธาตุวรมหาวิหาร (วัดใหญ่)",
    "name": "ร้านอาหารฟ้าใส",
    "rating": 4,
    "address": "45/24 ถ. ราชดำเนิน ตำบล ปากพูน อำเภอเมืองนครศรีธรรมราช",
    "lat": 8.4576808,
    "lng": 99.95936429999999
  },
  {
    "mu_place": "วัดเจดีย์ ไอ้ไข่",
    "name": "ร้านอาหารปากน้ำกลาย Paknamklay Restaurant",
    "rating": 4.1,
    "address": "73/29 ตำบล กลาย อำเภอท่าศาลา",
    "lat": 8.787410999999999,
    "lng": 99.91074820000001
  },
  {
    "mu_place": "วัดเจดีย์ ไอ้ไข่",
    "name": "สิชลซีฟู๊ด ร้านอาหารในหมู่บ้านชาวเรือประมง",
    "rating": 4.3,
    "address": "แหลมทอง 192/4 หมู่2 ถนน. บ้าน ตำบล สิชล อำเภอ สิชล",
    "lat": 9.0179504,
    "lng": 99.9111798
  },
  {
    "mu_place": "วัดเจดีย์ ไอ้ไข่",
    "name": "ร้านอาหาร โก้โตน สาขา 2",
    "rating": 4.3,
    "address": "2V8F+3XR ตำบล สิชล อำเภอ สิชล",
    "lat": 9.015262,
    "lng": 99.8749048
  },
  {
    "mu_place": "วัดเจดีย์ ไอ้ไข่",
    "name": "แล เล Lae Lay",
    "rating": 4.2,
    "address": "179/19 ตำบล สิชล อำเภอ สิชล",
    "lat": 9.0130962,
    "lng": 99.9013956
  },
  {
    "mu_place": "วัดเจดีย์ ไอ้ไข่",
    "name": "ร้านอาหารชิดเล",
    "rating": 4.8,
    "address": "3W95+6WF 4232 ตำบล ทุ่งใส อำเภอ สิชล",
    "lat": 9.0680544,
    "lng": 99.9098023
  },
  {
    "mu_place": "วัดเจดีย์ ไอ้ไข่",
    "name": "ร้านอาหาร@นครฝรั่ง",
    "rating": 4.6,
    "address": "PWVQ+P38 401 ตำบล ท่าขึ้น อำเภอท่าศาลา",
    "lat": 8.7442882,
    "lng": 99.93766269999999
  },
  {
    "mu_place": "วัดเจดีย์ ไอ้ไข่",
    "name": "ครัวสิชล",
    "rating": 4.5,
    "address": "280/24 อำเภอ สิชล",
    "lat": 9.005090599999999,
    "lng": 99.8937443
  },
  {
    "mu_place": "วัดเจดีย์ ไอ้ไข่",
    "name": "ร้านอาหารเจ๊แก้ว",
    "rating": 4.8,
    "address": "2V4W+QR4 ตำบล สิชล อำเภอ สิชล",
    "lat": 9.0068728,
    "lng": 99.8971227
  },
  {
    "mu_place": "วัดเจดีย์ ไอ้ไข่",
    "name": "ภัตตาคารโก้โตน",
    "rating": 4.3,
    "address": "6/1 ตลาดสิชล ถ. ตลาดสิชล ตำบล สิชล อำเภอ สิชล",
    "lat": 9.0079613,
    "lng": 99.8934981
  },
  {
    "mu_place": "วัดเจดีย์ ไอ้ไข่",
    "name": "สวนอาหารรักษ์ไทย ต.กลาย อ.ท่าศาลา จ.นครศรีธรรมราช",
    "rating": 4,
    "address": "ถ. สุราษธานี - นครศรีธรรมราช ตำบล กลาย อำเภอท่าศาลา",
    "lat": 8.8375389,
    "lng": 99.90435839999999
  },
  {
    "mu_place": "วัดเจดีย์ ไอ้ไข่",
    "name": "ร้านอาหารครัวนคร",
    "rating": 4.2,
    "address": "เลขที่ 204/20 อำเภอ สิชล",
    "lat": 9.008463899999999,
    "lng": 99.9054383
  },
  {
    "mu_place": "วัดเจดีย์ ไอ้ไข่",
    "name": "ร้านอาหารน้องแนน",
    "rating": 3.3,
    "address": "XV8V+2QG ตำบล ทุ่งปรัง อำเภอ สิชล",
    "lat": 8.9650626,
    "lng": 99.8944963
  },
  {
    "mu_place": "วัดเจดีย์ ไอ้ไข่",
    "name": "ร้านอาหาร ครัวตัวเอ็น วัดเจดีย์ไอ้ไข่ จ.นครศรีธรรมราช",
    "rating": 4.6,
    "address": "5 6 ตำบล ฉลอง อำเภอ สิชล",
    "lat": 8.9157838,
    "lng": 99.8466644
  },
  {
    "mu_place": "วัดเจดีย์ ไอ้ไข่",
    "name": "ร้านอาหารตามสั่ง",
    "rating": 5,
    "address": "XW47+W24 ตำบล ทุ่งปรัง อำเภอ สิชล",
    "lat": 8.957254299999999,
    "lng": 99.91258239999999
  },
  {
    "mu_place": "วัดเจดีย์ ไอ้ไข่",
    "name": "ร้านอาหารวาโย สิชล กับข้าว ริมคลอง",
    "rating": 4.5,
    "address": "ร้านอาหาร เดอะ วาโย, ตำบล สิชล อำเภอ สิชล",
    "lat": 9.015144399999999,
    "lng": 99.89909229999999
  },
  {
    "mu_place": "วัดเจดีย์ ไอ้ไข่",
    "name": "ครัวบังรสเด็ด",
    "rating": 4.4,
    "address": "99 ตำบล ทุ่งปรัง อำเภอ สิชล",
    "lat": 8.9995362,
    "lng": 99.8882924
  },
  {
    "mu_place": "วัดเจดีย์ ไอ้ไข่",
    "name": "ครัวระเบียงไม้ - ร้านอาหารสิชล",
    "rating": 4.6,
    "address": "82 ถ. สุราษธานี - นครศรีธรรมราช ตำบล ทุ่งปรัง อำเภอ สิชล",
    "lat": 8.9335787,
    "lng": 99.8984491
  },
  {
    "mu_place": "วัดเจดีย์ ไอ้ไข่",
    "name": "โจ้กกลางซอย",
    "rating": 4.2,
    "address": "ตำบล สิชล อำเภอ สิชล",
    "lat": 9.0109782,
    "lng": 99.9021607
  },
  {
    "mu_place": "วัดเจดีย์ ไอ้ไข่",
    "name": "ครัวขุนศรี",
    "rating": 4.3,
    "address": "2V3V+PJ6 Unnamed Road, ตำบล สิชล อำเภอ สิชล",
    "lat": 9.004209,
    "lng": 99.894015
  },
  {
    "mu_place": "วัดเจดีย์ ไอ้ไข่",
    "name": "อาหารตามสั่งบ้านน้องเหนือ by แม่อ้อย",
    "rating": 5,
    "address": "บ้านเลขที่ 28 ตำบล เสาเภา อำเภอ สิชล",
    "lat": 8.914379199999999,
    "lng": 99.89161419999999
  },
  {
    "mu_place": "วัดเขาขุนพนม",
    "name": "ครัวศิริพันธ์ ร้านอาหาร",
    "rating": 4.6,
    "address": "28/1 กะโรม ตำบล โพธิ์เสด็จ อำเภอเมืองนครศรีธรรมราช",
    "lat": 8.4328301,
    "lng": 99.9519152
  },
  {
    "mu_place": "วัดเขาขุนพนม",
    "name": "ทิพย์รส ร้านอาหาร",
    "rating": 4.2,
    "address": "1307/25-7 จำเริญวิถี ตำบล คลัง อำเภอเมืองนครศรีธรรมราช",
    "lat": 8.437515699999999,
    "lng": 99.96134339999999
  },
  {
    "mu_place": "วัดเขาขุนพนม",
    "name": "ร้านอาหารลุงออ",
    "rating": 4.2,
    "address": "ตำบล ท่าศาลา อำเภอท่าศาลา",
    "lat": 8.6640081,
    "lng": 99.9239961
  },
  {
    "mu_place": "วัดเขาขุนพนม",
    "name": "ร้านอาหาร ญ.วรดา",
    "rating": 4.6,
    "address": "MW3H+HHC ตำบล ท่าศาลา อำเภอท่าศาลา",
    "lat": 8.653857799999999,
    "lng": 99.92889629999999
  },
  {
    "mu_place": "วัดเขาขุนพนม",
    "name": "กวงฮั้ว ร้านอาหาร",
    "rating": 4.3,
    "address": "1605-7 ถนนจำเริญวิถี ตำบล ท่าวัง อำเภอเมืองนครศรีธรรมราช",
    "lat": 8.4401929,
    "lng": 99.96066169999999
  },
  {
    "mu_place": "วัดเขาขุนพนม",
    "name": "ร้านอาหาร",
    "rating": 4,
    "address": "CXP6+5JR ตำบล คลัง อำเภอเมืองนครศรีธรรมราช",
    "lat": 8.4354848,
    "lng": 99.96152420000001
  },
  {
    "mu_place": "วัดเขาขุนพนม",
    "name": "ร้านอาหารครัวปั้นหยา",
    "rating": 4.2,
    "address": "101 ซอย นครศรีธรรมราช, ตำบล ในเมือง อำเภอเมืองนครศรีธรรมราช",
    "lat": 8.3984167,
    "lng": 99.96814619999999
  },
  {
    "mu_place": "วัดเขาขุนพนม",
    "name": "ร้านอาหารพื้นเพ",
    "rating": 4.6,
    "address": "GRPG+27M ตำบล บ้านเกาะ อำเภอ พรหมคีรี",
    "lat": 8.535077099999999,
    "lng": 99.8256605
  },
  {
    "mu_place": "วัดเขาขุนพนม",
    "name": "ร้านอาหารสุดยอด นครศรีธรรมราช",
    "rating": 4.2,
    "address": "CXV3+8MX ถ. สะพานยาว ตำบล โพธิ์เสด็จ อำเภอเมืองนครศรีธรรมราช",
    "lat": 8.4432833,
    "lng": 99.954247
  },
  {
    "mu_place": "วัดเขาขุนพนม",
    "name": "ร้านอาหารชาวเรือ",
    "rating": 4.3,
    "address": "195 ถนน ศรีธรรมราช ในเมือง เมือง",
    "lat": 8.4225128,
    "lng": 99.9619541
  },
  {
    "mu_place": "วัดเขาขุนพนม",
    "name": "ร้านเชยเมืองครฯ",
    "rating": 4.3,
    "address": "ถ. ราชดำเนิน ตำบล ในเมือง อำเภอเมืองนครศรีธรรมราช",
    "lat": 8.4236002,
    "lng": 99.9641554
  },
  {
    "mu_place": "วัดเขาขุนพนม",
    "name": "ร้านลองเบิ่ง",
    "rating": 4.3,
    "address": "CX49+R36 ตำบล ในเมือง อำเภอเมืองนครศรีธรรมราช",
    "lat": 8.407026199999999,
    "lng": 99.9676278
  },
  {
    "mu_place": "วัดเขาขุนพนม",
    "name": "ร้านอาหารผัดไทยเจ้เป้า และอาหารตามสั่ง",
    "rating": 3.8,
    "address": "CVMV+274 4016 ตำบล โพธิ์เสด็จ อำเภอเมืองนครศรีธรรมราช",
    "lat": 8.432502099999999,
    "lng": 99.893198
  },
  {
    "mu_place": "วัดเขาขุนพนม",
    "name": "ร้านอาหารต้นแก้ว",
    "rating": 4,
    "address": "229 ถ. พัฒนาการคูขวาง ตำบล ในเมือง อำเภอเมืองนครศรีธรรมราช",
    "lat": 8.4260515,
    "lng": 99.9724871
  },
  {
    "mu_place": "วัดเขาขุนพนม",
    "name": "ร้านอาหารเรือนโพธิ์ทอง",
    "rating": 4.5,
    "address": "ตำบล ในเมือง อำเภอเมืองนครศรีธรรมราช",
    "lat": 8.4096,
    "lng": 99.96669639999999
  },
  {
    "mu_place": "วัดเขาขุนพนม",
    "name": "ร้านอาหารตามสั่งครัวเชอรี่",
    "rating": 3.9,
    "address": "MW39+7RV, Unnamed Rd,, ตำบล ท่าศาลา อำเภอท่าศาลา",
    "lat": 8.6532499,
    "lng": 99.9195347
  },
  {
    "mu_place": "วัดเขาขุนพนม",
    "name": "ร้านอาหารหาดโพธิ์ทอง",
    "rating": 4.2,
    "address": "ร้านอาหารหาดโพธิ์ทอง ตำบล ท่าขึ้น อำเภอท่าศาลา",
    "lat": 8.7045659,
    "lng": 99.94231309999999
  },
  {
    "mu_place": "วัดเขาขุนพนม",
    "name": "ร้านอาหารชาวเลซีฟู้ด",
    "rating": 4.2,
    "address": "ตำบล ท่าศาลา อำเภอท่าศาลา",
    "lat": 8.6682847,
    "lng": 99.9394883
  },
  {
    "mu_place": "วัดเขาขุนพนม",
    "name": "ร้านอาหารคุณเท่ง",
    "rating": 4,
    "address": "GXF2+GXV 401 ตำบล ปากพูน อำเภอเมืองนครศรีธรรมราช",
    "lat": 8.5238698,
    "lng": 99.9524347
  },
  {
    "mu_place": "วัดเขาขุนพนม",
    "name": "ร้านอาหารตามสั่ง&ชา 3 ก",
    "rating": 4.8,
    "address": "9XVH+X4P ตำบล ในเมือง อำเภอเมืองนครศรีธรรมราช",
    "lat": 8.3949614,
    "lng": 99.9778159
  },
  {
    "mu_place": "วัดธาตุน้อย",
    "name": "ครัวศิริพันธ์ ร้านอาหาร",
    "rating": 4.6,
    "address": "28/1 กะโรม ตำบล โพธิ์เสด็จ อำเภอเมืองนครศรีธรรมราช",
    "lat": 8.4328301,
    "lng": 99.9519152
  },
  {
    "mu_place": "วัดธาตุน้อย",
    "name": "ทิพย์รส ร้านอาหาร",
    "rating": 4.2,
    "address": "1307/25-7 จำเริญวิถี ตำบล คลัง อำเภอเมืองนครศรีธรรมราช",
    "lat": 8.437515699999999,
    "lng": 99.96134339999999
  },
  {
    "mu_place": "วัดธาตุน้อย",
    "name": "ร้านอาหารลุงออ",
    "rating": 4.2,
    "address": "ตำบล ท่าศาลา อำเภอท่าศาลา",
    "lat": 8.6640081,
    "lng": 99.9239961
  },
  {
    "mu_place": "วัดธาตุน้อย",
    "name": "ร้านอาหาร ญ.วรดา",
    "rating": 4.6,
    "address": "MW3H+HHC ตำบล ท่าศาลา อำเภอท่าศาลา",
    "lat": 8.653857799999999,
    "lng": 99.92889629999999
  },
  {
    "mu_place": "วัดธาตุน้อย",
    "name": "กวงฮั้ว ร้านอาหาร",
    "rating": 4.3,
    "address": "1605-7 ถนนจำเริญวิถี ตำบล ท่าวัง อำเภอเมืองนครศรีธรรมราช",
    "lat": 8.4401929,
    "lng": 99.96066169999999
  },
  {
    "mu_place": "วัดธาตุน้อย",
    "name": "ร้านอาหาร",
    "rating": 4,
    "address": "CXP6+5JR ตำบล คลัง อำเภอเมืองนครศรีธรรมราช",
    "lat": 8.4354848,
    "lng": 99.96152420000001
  },
  {
    "mu_place": "วัดธาตุน้อย",
    "name": "ร้านอาหารครัวปั้นหยา",
    "rating": 4.2,
    "address": "101 ซอย นครศรีธรรมราช, ตำบล ในเมือง อำเภอเมืองนครศรีธรรมราช",
    "lat": 8.3984167,
    "lng": 99.96814619999999
  },
  {
    "mu_place": "วัดธาตุน้อย",
    "name": "ร้านอาหารพื้นเพ",
    "rating": 4.6,
    "address": "GRPG+27M ตำบล บ้านเกาะ อำเภอ พรหมคีรี",
    "lat": 8.535077099999999,
    "lng": 99.8256605
  },
  {
    "mu_place": "วัดธาตุน้อย",
    "name": "ร้านอาหารสุดยอด นครศรีธรรมราช",
    "rating": 4.2,
    "address": "CXV3+8MX ถ. สะพานยาว ตำบล โพธิ์เสด็จ อำเภอเมืองนครศรีธรรมราช",
    "lat": 8.4432833,
    "lng": 99.954247
  },
  {
    "mu_place": "วัดธาตุน้อย",
    "name": "ร้านอาหารชาวเรือ",
    "rating": 4.3,
    "address": "195 ถนน ศรีธรรมราช ในเมือง เมือง",
    "lat": 8.4225128,
    "lng": 99.9619541
  },
  {
    "mu_place": "วัดธาตุน้อย",
    "name": "ร้านเชยเมืองครฯ",
    "rating": 4.3,
    "address": "ถ. ราชดำเนิน ตำบล ในเมือง อำเภอเมืองนครศรีธรรมราช",
    "lat": 8.4236002,
    "lng": 99.9641554
  },
  {
    "mu_place": "วัดธาตุน้อย",
    "name": "ร้านลองเบิ่ง",
    "rating": 4.3,
    "address": "CX49+R36 ตำบล ในเมือง อำเภอเมืองนครศรีธรรมราช",
    "lat": 8.407026199999999,
    "lng": 99.9676278
  },
  {
    "mu_place": "วัดธาตุน้อย",
    "name": "ร้านอาหารผัดไทยเจ้เป้า และอาหารตามสั่ง",
    "rating": 3.8,
    "address": "CVMV+274 4016 ตำบล โพธิ์เสด็จ อำเภอเมืองนครศรีธรรมราช",
    "lat": 8.432502099999999,
    "lng": 99.893198
  },
  {
    "mu_place": "วัดธาตุน้อย",
    "name": "ร้านอาหารต้นแก้ว",
    "rating": 4,
    "address": "229 ถ. พัฒนาการคูขวาง ตำบล ในเมือง อำเภอเมืองนครศรีธรรมราช",
    "lat": 8.4260515,
    "lng": 99.9724871
  },
  {
    "mu_place": "วัดธาตุน้อย",
    "name": "ร้านอาหารเรือนโพธิ์ทอง",
    "rating": 4.5,
    "address": "ตำบล ในเมือง อำเภอเมืองนครศรีธรรมราช",
    "lat": 8.4096,
    "lng": 99.96669639999999
  },
  {
    "mu_place": "วัดธาตุน้อย",
    "name": "ร้านอาหารตามสั่งครัวเชอรี่",
    "rating": 3.9,
    "address": "MW39+7RV, Unnamed Rd,, ตำบล ท่าศาลา อำเภอท่าศาลา",
    "lat": 8.6532499,
    "lng": 99.9195347
  },
  {
    "mu_place": "วัดธาตุน้อย",
    "name": "ร้านอาหารหาดโพธิ์ทอง",
    "rating": 4.2,
    "address": "ร้านอาหารหาดโพธิ์ทอง ตำบล ท่าขึ้น อำเภอท่าศาลา",
    "lat": 8.7045659,
    "lng": 99.94231309999999
  },
  {
    "mu_place": "วัดธาตุน้อย",
    "name": "ร้านอาหารชาวเลซีฟู้ด",
    "rating": 4.2,
    "address": "ตำบล ท่าศาลา อำเภอท่าศาลา",
    "lat": 8.6682847,
    "lng": 99.9394883
  },
  {
    "mu_place": "วัดธาตุน้อย",
    "name": "ร้านอาหารคุณเท่ง",
    "rating": 4,
    "address": "GXF2+GXV 401 ตำบล ปากพูน อำเภอเมืองนครศรีธรรมราช",
    "lat": 8.5238698,
    "lng": 99.9524347
  },
  {
    "mu_place": "วัดธาตุน้อย",
    "name": "ร้านอาหารตามสั่ง&ชา 3 ก",
    "rating": 4.8,
    "address": "9XVH+X4P ตำบล ในเมือง อำเภอเมืองนครศรีธรรมราช",
    "lat": 8.3949614,
    "lng": 99.9778159
  },
  {
    "mu_place": "ศาลหลักเมืองขนอม",
    "name": "สิชลซีฟู๊ด ร้านอาหารในหมู่บ้านชาวเรือประมง",
    "rating": 4.3,
    "address": "แหลมทอง 192/4 หมู่2 ถนน. บ้าน ตำบล สิชล อำเภอ สิชล",
    "lat": 9.0179504,
    "lng": 99.9111798
  },
  {
    "mu_place": "ศาลหลักเมืองขนอม",
    "name": "ร้านอาหาร โก้โตน สาขา 2",
    "rating": 4.3,
    "address": "2V8F+3XR ตำบล สิชล อำเภอ สิชล",
    "lat": 9.015262,
    "lng": 99.8749048
  },
  {
    "mu_place": "ศาลหลักเมืองขนอม",
    "name": "ร้านอาหารชิดเล",
    "rating": 4.8,
    "address": "3W95+6WF 4232 ตำบล ทุ่งใส อำเภอ สิชล",
    "lat": 9.0680544,
    "lng": 99.9098023
  },
  {
    "mu_place": "ศาลหลักเมืองขนอม",
    "name": "ครัวสิชล",
    "rating": 4.5,
    "address": "280/24 อำเภอ สิชล",
    "lat": 9.005090599999999,
    "lng": 99.8937443
  },
  {
    "mu_place": "ศาลหลักเมืองขนอม",
    "name": "ร้านอาหารเจ๊แก้ว",
    "rating": 4.8,
    "address": "2V4W+QR4 ตำบล สิชล อำเภอ สิชล",
    "lat": 9.0068728,
    "lng": 99.8971227
  },
  {
    "mu_place": "ศาลหลักเมืองขนอม",
    "name": "ภัตตาคารโก้โตน",
    "rating": 4.3,
    "address": "6/1 ตลาดสิชล ถ. ตลาดสิชล ตำบล สิชล อำเภอ สิชล",
    "lat": 9.0079613,
    "lng": 99.8934981
  },
  {
    "mu_place": "ศาลหลักเมืองขนอม",
    "name": "ร้านอาหารป้าทิ้ง",
    "rating": 4.2,
    "address": "ตำบล ดอนสัก อำเภอ ดอนสัก",
    "lat": 9.3148024,
    "lng": 99.6839419
  },
  {
    "mu_place": "ศาลหลักเมืองขนอม",
    "name": "ร้านอาหารครัวนคร",
    "rating": 4.2,
    "address": "เลขที่ 204/20 อำเภอ สิชล",
    "lat": 9.008463899999999,
    "lng": 99.9054383
  },
  {
    "mu_place": "ศาลหลักเมืองขนอม",
    "name": "ร้านอาหารบ้านสวน",
    "rating": 4.2,
    "address": "4QHR+6GQ 4014 ตำบล ควนทอง อำเภอ ขนอม",
    "lat": 9.128082599999999,
    "lng": 99.791348
  },
  {
    "mu_place": "ศาลหลักเมืองขนอม",
    "name": "ร้านอาหารสุภา",
    "rating": 2.6,
    "address": "4VJH+M7X อำเภอ ขนอม",
    "lat": 9.1317451,
    "lng": 99.87823279999999
  },
  {
    "mu_place": "ศาลหลักเมืองขนอม",
    "name": "ร้านอาหารวาโย สิชล กับข้าว ริมคลอง",
    "rating": 4.5,
    "address": "ร้านอาหาร เดอะ วาโย, ตำบล สิชล อำเภอ สิชล",
    "lat": 9.015144399999999,
    "lng": 99.89909229999999
  },
  {
    "mu_place": "ศาลหลักเมืองขนอม",
    "name": "ร้านครกใหญ่",
    "rating": 4.1,
    "address": "5VX6+J5X อำเภอ ขนอม",
    "lat": 9.1991018,
    "lng": 99.8604881
  },
  {
    "mu_place": "ศาลหลักเมืองขนอม",
    "name": "ครัวตังเก Krua Tangke Restaurant",
    "rating": 3.7,
    "address": "81 2 ตำบล ท้องเนียน อำเภอ ขนอม",
    "lat": 9.222110299999999,
    "lng": 99.83967299999999
  },
  {
    "mu_place": "ศาลหลักเมืองขนอม",
    "name": "ร้านครัวหลังหลาด",
    "rating": 4.3,
    "address": "28 14 ตำบล ท้องเนียน อำเภอ ขนอม",
    "lat": 9.2210585,
    "lng": 99.8491524
  },
  {
    "mu_place": "ศาลหลักเมืองขนอม",
    "name": "ครัวต้นหยีซีฟู๊ด",
    "rating": 3.8,
    "address": "4VFM+R2P ครัวต้นหยี ซีฟู๊ด",
    "lat": 9.124587199999999,
    "lng": 99.8825945
  },
  {
    "mu_place": "ศาลหลักเมืองขนอม",
    "name": "โจ้กกลางซอย",
    "rating": 4.2,
    "address": "ตำบล สิชล อำเภอ สิชล",
    "lat": 9.0109782,
    "lng": 99.9021607
  },
  {
    "mu_place": "ศาลหลักเมืองขนอม",
    "name": "ร้านอาหารครัวสุภา ซีฟู้ด",
    "rating": 4.1,
    "address": "118 ม.5 ถ, ตำบล ชลคราม อำเภอ ดอนสัก",
    "lat": 9.304227200000001,
    "lng": 99.6911877
  },
  {
    "mu_place": "ศาลหลักเมืองขนอม",
    "name": "ร้านฟองเลย์ by ฟองคลื่น",
    "rating": 4.7,
    "address": "3 19 10 หมู่ที่ 6 ซอย อำเภอ ขนอม",
    "lat": 9.1662819,
    "lng": 99.87325589999999
  },
  {
    "mu_place": "ศาลหลักเมืองขนอม",
    "name": "ร้านอาหารโกเจนเมืองตรัง",
    "rating": 4.5,
    "address": "4P5X+568 401 ตำบล ปากแพรก อำเภอ ดอนสัก",
    "lat": 9.1079064,
    "lng": 99.74806509999999
  },
  {
    "mu_place": "ศาลหลักเมืองขนอม",
    "name": "ร้านอาหารครัวรสดี",
    "rating": 4.8,
    "address": "6V76+7HJ ตลาดบางโหนด อำเภอ ขนอม",
    "lat": 9.2132193,
    "lng": 99.8613781
  }
]