[
  {
    "mu_place": "ถ้ำนาคา",
    "name": "ร้านเข้าซอยอาหารเช้า 69",
    "rating": 4.7,
    "address": "276 หมู่7 ตำบล เซกา อำเภอ เซกา",
    "lat": 17.9301498,
    "lng": 103.9549545
  },
  {
    "mu_place": "ถ้ำนาคา",
    "name": "ร้านอาหารสะพานไม้",
    "rating": 4.2,
    "address": "WXF3+4CM ตำบล เซกา อำเภอ เซกา",
    "lat": 17.9228332,
    "lng": 103.953535
  },
  {
    "mu_place": "ถ้ำนาคา",
    "name": "ร้านระเบียงไม้",
    "rating": 3.8,
    "address": "58 อำเภอ บึงโขงหลง",
    "lat": 17.9836893,
    "lng": 104.0261314
  },
  {
    "mu_place": "ถ้ำนาคา",
    "name": "ร้านอาหารอุ้มทอง",
    "rating": 4,
    "address": "X659+4QG ตำบล บ้านแพง อำเภอ บ้านแพง",
    "lat": 17.9578148,
    "lng": 104.2194446
  },
  {
    "mu_place": "ถ้ำนาคา",
    "name": "ปรมินทร์ อาหารตามสั่ง",
    "rating": 4.6,
    "address": "254 หมู่ 16 ตำบล เซกา เซกา อำเภอ เซกา",
    "lat": 17.9293802,
    "lng": 103.9607024
  },
  {
    "mu_place": "ถ้ำนาคา",
    "name": "ครัวเพ็ญพิชชา เบียร์วุ้น",
    "rating": 4.4,
    "address": "49 หมู่3 ตำบล บึงโขงหลง อำเภอ บึงโขงหลง",
    "lat": 17.9792992,
    "lng": 104.0273476
  },
  {
    "mu_place": "ถ้ำนาคา",
    "name": "ครัวคุณเพชร",
    "rating": 4.2,
    "address": "ตำบล บึงโขงหลง อำเภอ บึงโขงหลง",
    "lat": 17.9864375,
    "lng": 104.0248125
  },
  {
    "mu_place": "ถ้ำนาคา",
    "name": "ร้านอาหาร ติ๋มโภชนา",
    "rating": 5,
    "address": "R5M2+X58 นพ.3004 ตำบล หนองซน อำเภอ นาทม",
    "lat": 17.8349158,
    "lng": 104.1504388
  },
  {
    "mu_place": "ถ้ำนาคา",
    "name": "ร้านอาหารระเบียงบึงการ์เด้น",
    "rating": 3.4,
    "address": "X2QF+2R8 ตำบล บึงโขงหลง อำเภอ บึงโขงหลง",
    "lat": 17.9875364,
    "lng": 104.0245647
  },
  {
    "mu_place": "ถ้ำนาคา",
    "name": "ร้านหลบมุมซอย8",
    "rating": 4.3,
    "address": "บ้านดอนกลาง ตำบล บึงโขงหลง อำเภอ บึงโขงหลง",
    "lat": 17.9600675,
    "lng": 104.0376229
  },
  {
    "mu_place": "ถ้ำนาคา",
    "name": "ร้านอาหารทองจันทร์การ์เด้น",
    "rating": 4.1,
    "address": "ร้านทองจันทร์การ์เด้น ตำบล บึงโขงหลง อำเภอ บึงโขงหลง",
    "lat": 17.9866813,
    "lng": 104.0246688
  },
  {
    "mu_place": "ถ้ำนาคา",
    "name": "ครัวจันทมาลี",
    "rating": 4.7,
    "address": "อ, 403 อำเภอ บึงโขงหลง",
    "lat": 17.9620861,
    "lng": 104.0472768
  },
  {
    "mu_place": "ถ้ำนาคา",
    "name": "สวนอาหารเลาะภู",
    "rating": 4.3,
    "address": "X35R+CM5 บก.4017 ตำบล โพธิ์หมากแข้ง อำเภอ บึงโขงหลง",
    "lat": 17.9584952,
    "lng": 104.091705
  },
  {
    "mu_place": "ถ้ำนาคา",
    "name": "ร้านอาหารน้องเพลง",
    "rating": 2.9,
    "address": "Unnamed Road ตำบล บึงโขงหลง อำเภอ บึงโขงหลง",
    "lat": 17.9800411,
    "lng": 104.0270933
  },
  {
    "mu_place": "ถ้ำนาคา",
    "name": "ร้านอาหาร เอ็มมี่ปลาเผา",
    "rating": 5,
    "address": "X2HG+QXJ ตำบล บึงโขงหลง อำเภอ บึงโขงหลง",
    "lat": 17.9794587,
    "lng": 104.0273998
  },
  {
    "mu_place": "ถ้ำนาคา",
    "name": "ร้านแยกดงบัง",
    "rating": 4.1,
    "address": "24JQ+7X9 ตำบล ดงบัง อำเภอ บึงโขงหลง",
    "lat": 18.0306658,
    "lng": 104.1399974
  },
  {
    "mu_place": "ถ้ำนาคา",
    "name": "ล้านแสนแซบ อ.เซกา",
    "rating": 4.3,
    "address": "WXJ4+QGG ตำบล เซกา อำเภอ เซกา",
    "lat": 17.9319073,
    "lng": 103.9563189
  },
  {
    "mu_place": "ถ้ำนาคา",
    "name": "ร้านบ้านสวนตังสุมา",
    "rating": 4.4,
    "address": "X32V+633 บก.4017 ตำบล โพธิ์หมากแข้ง อำเภอ บึงโขงหลง",
    "lat": 17.9504108,
    "lng": 104.0926709
  },
  {
    "mu_place": "ถ้ำนาคา",
    "name": "ร้านอาหารบูม",
    "rating": 3.9,
    "address": "X677+4GC ตำบล บ้านแพง อำเภอ บ้านแพง",
    "lat": 17.9628166,
    "lng": 104.2138303
  },
  {
    "mu_place": "ถ้ำนาคา",
    "name": "ร้านบันเทิงนาวา@หาดคำสมบูรณ์",
    "rating": 4.1,
    "address": "X2PG+54F ตำบล บึงโขงหลง อำเภอ บึงโขงหลง",
    "lat": 17.9854375,
    "lng": 104.0253125
  },
  {
    "mu_place": "ท้าวเวสสุวรรณ วัดพระศรีรัตนมหาธาตุวิหาร(วัดใหญ่)",
    "name": "ร้านอาหารใบตอง",
    "rating": 4.4,
    "address": "Q57R+5HC ตำบล ท่าโพธิ์ อำเภอเมืองพิษณุโลก",
    "lat": 16.7629407,
    "lng": 100.1913892
  },
  {
    "mu_place": "ท้าวเวสสุวรรณ วัดพระศรีรัตนมหาธาตุวิหาร(วัดใหญ่)",
    "name": "ร้านอาหารเพลิน",
    "rating": 4.5,
    "address": "ตำบล ท่าโพธิ์ อำเภอเมืองพิษณุโลก",
    "lat": 16.752826,
    "lng": 100.2015879
  },
  {
    "mu_place": "ท้าวเวสสุวรรณ วัดพระศรีรัตนมหาธาตุวิหาร(วัดใหญ่)",
    "name": "ฝาชี อาหารไทยพื้นบ้าน",
    "rating": 4.4,
    "address": "ถนน สีหราชเดโชชัย ตำบลบ้านคลอง อำเภอเมืองพิษณุโลก",
    "lat": 16.816259,
    "lng": 100.2400787
  },
  {
    "mu_place": "ท้าวเวสสุวรรณ วัดพระศรีรัตนมหาธาตุวิหาร(วัดใหญ่)",
    "name": "ร้านอาหารอีซ้ายรสเด็ด",
    "rating": 4.3,
    "address": "137 8 ตำบลพลายชุมพล อำเภอเมืองพิษณุโลก",
    "lat": 16.8551721,
    "lng": 100.2243036
  },
  {
    "mu_place": "ท้าวเวสสุวรรณ วัดพระศรีรัตนมหาธาตุวิหาร(วัดใหญ่)",
    "name": "ร้านอาหารพรศรี",
    "rating": 4.4,
    "address": "121 หมู่2 ตำบลวัดโบสถ์ อำเภอวัดโบสถ์ จังหวัดพิษณุโลก 65160",
    "lat": 17.0022185,
    "lng": 100.3266031
  },
  {
    "mu_place": "ท้าวเวสสุวรรณ วัดพระศรีรัตนมหาธาตุวิหาร(วัดใหญ่)",
    "name": "ครัวน่านน้ำ - KruaNannum",
    "rating": 4.2,
    "address": "94/2 ถนน วังจันทน์ ตำบล ในเมือง อำเภอเมืองพิษณุโลก",
    "lat": 16.8117816,
    "lng": 100.2568215
  },
  {
    "mu_place": "ท้าวเวสสุวรรณ วัดพระศรีรัตนมหาธาตุวิหาร(วัดใหญ่)",
    "name": "ครัว",
    "rating": 4.5,
    "address": "172 14 ถนน สนามบิน เมือง, อำเภอเมืองพิษณุโลก",
    "lat": 16.8025935,
    "lng": 100.2708271
  },
  {
    "mu_place": "ท้าวเวสสุวรรณ วัดพระศรีรัตนมหาธาตุวิหาร(วัดใหญ่)",
    "name": "ร้านอาหารบ้านไม้",
    "rating": 4.4,
    "address": "ตำบล ในเมือง อำเภอเมืองพิษณุโลก",
    "lat": 16.8174299,
    "lng": 100.2685862
  },
  {
    "mu_place": "ท้าวเวสสุวรรณ วัดพระศรีรัตนมหาธาตุวิหาร(วัดใหญ่)",
    "name": "ร้านอาหารอาหุย",
    "rating": 4.4,
    "address": "RCFG+8HM ตำบลวังทอง อำเภอวังทอง",
    "lat": 16.8233297,
    "lng": 100.4264158
  },
  {
    "mu_place": "ท้าวเวสสุวรรณ วัดพระศรีรัตนมหาธาตุวิหาร(วัดใหญ่)",
    "name": "ร้านอาหารตั้งหลัก",
    "rating": 4.3,
    "address": "ตำบล ในเมือง อำเภอเมืองพิษณุโลก",
    "lat": 16.8279055,
    "lng": 100.2654983
  },
  {
    "mu_place": "ท้าวเวสสุวรรณ วัดพระศรีรัตนมหาธาตุวิหาร(วัดใหญ่)",
    "name": "ร้านอาหารสี่ทิศ",
    "rating": 3.5,
    "address": "V83X+QCF ตำบล สมอแข อำเภอเมืองพิษณุโลก",
    "lat": 16.854439,
    "lng": 100.3485587
  },
  {
    "mu_place": "ท้าวเวสสุวรรณ วัดพระศรีรัตนมหาธาตุวิหาร(วัดใหญ่)",
    "name": "ร้านอาหารลุงแย้ม",
    "rating": 4.4,
    "address": "112 1 ตำบลหัวรอ อำเภอเมืองพิษณุโลก",
    "lat": 16.8646769,
    "lng": 100.2821514
  },
  {
    "mu_place": "ท้าวเวสสุวรรณ วัดพระศรีรัตนมหาธาตุวิหาร(วัดใหญ่)",
    "name": "ร้านอาหารลุงเด",
    "rating": 4.7,
    "address": "240/33 ซอย พญาเสือ 12 ตำบล ในเมือง อำเภอเมืองพิษณุโลก",
    "lat": 16.8227477,
    "lng": 100.2737086
  },
  {
    "mu_place": "ท้าวเวสสุวรรณ วัดพระศรีรัตนมหาธาตุวิหาร(วัดใหญ่)",
    "name": "ร้านอาหารลุงเทิง",
    "rating": 4.2,
    "address": "48 3 ตำบลพลายชุมพล อำเภอเมืองพิษณุโลก",
    "lat": 16.8555737,
    "lng": 100.2266213
  },
  {
    "mu_place": "ท้าวเวสสุวรรณ วัดพระศรีรัตนมหาธาตุวิหาร(วัดใหญ่)",
    "name": "ร้านอาหารอิ่มอร่อย",
    "rating": 4.1,
    "address": "R89C+28F ตำบล สมอแข อำเภอเมืองพิษณุโลก",
    "lat": 16.8175705,
    "lng": 100.3208785
  },
  {
    "mu_place": "ท้าวเวสสุวรรณ วัดพระศรีรัตนมหาธาตุวิหาร(วัดใหญ่)",
    "name": "Lada ร้านอาหาร",
    "rating": 4.1,
    "address": "Q53W+4HG ตำบล ท่าโพธิ์ อำเภอเมืองพิษณุโลก",
    "lat": 16.7528124,
    "lng": 100.1964335
  },
  {
    "mu_place": "ท้าวเวสสุวรรณ วัดพระศรีรัตนมหาธาตุวิหาร(วัดใหญ่)",
    "name": "ครัวนายลาบเป็ด ร้านอาหารพิษณุโลก",
    "rating": 4.3,
    "address": "12/8 69/9 ท่าโพธิ์ อำเภอเมืองพิษณุโลก",
    "lat": 16.738846,
    "lng": 100.179681
  },
  {
    "mu_place": "ท้าวเวสสุวรรณ วัดพระศรีรัตนมหาธาตุวิหาร(วัดใหญ่)",
    "name": "ร้านอาหารป้าบัวโรย",
    "rating": 4.1,
    "address": "R7G5+7HV ตำบล ในเมือง อำเภอเมืองพิษณุโลก",
    "lat": 16.8257097,
    "lng": 100.2589112
  },
  {
    "mu_place": "ท้าวเวสสุวรรณ วัดพระศรีรัตนมหาธาตุวิหาร(วัดใหญ่)",
    "name": "ร้านอาหารสวนดอกไม้",
    "rating": 4.4,
    "address": "25 18 ม.9 ตำบล ท่าโพธิ์ เมือง",
    "lat": 16.7369676,
    "lng": 100.1900392
  },
  {
    "mu_place": "ท้าวเวสสุวรรณ วัดพระศรีรัตนมหาธาตุวิหาร(วัดใหญ่)",
    "name": "ร้านอาหารหมู่เฮา โดยนายนิรันดร์ ประเสริฐศรี",
    "rating": 4.2,
    "address": "888/13 ถ.มิตรภาพ ในเมือง เมือง",
    "lat": 16.8222995,
    "lng": 100.2814341
  },
  {
    "mu_place": "วัดมณีวงศ์",
    "name": "ร้าน ศ พิสดาร",
    "rating": 3.9,
    "address": "133 23-24 ถ. สุวรรณศร ตำบล บ้านใหญ่ อำเภอเมืองนครนายก",
    "lat": 14.2069432,
    "lng": 101.2169531
  },
  {
    "mu_place": "วัดมณีวงศ์",
    "name": "ร้านอาหารเต็ม10",
    "rating": 4.4,
    "address": "189 ตำบล ป่าขะ ตำบล บ้านนา",
    "lat": 14.3203437,
    "lng": 101.0652764
  },
  {
    "mu_place": "วัดมณีวงศ์",
    "name": "ร้านอาหารแป๊ะฮก",
    "rating": 3.8,
    "address": "เลขที่ 117 4 ตำบล พรหมณี อำเภอเมืองนครนายก",
    "lat": 14.2226406,
    "lng": 101.1510393
  },
  {
    "mu_place": "วัดมณีวงศ์",
    "name": "ร้านอาหารอร่อยริมทาง จ.นครนายก(ก่อนแยกไฟแดงเขื่อนขุนด่านฯ)",
    "rating": 3.9,
    "address": "75 2 หินตั้ง อำเภอเมืองนครนายก",
    "lat": 14.322217,
    "lng": 101.309853
  },
  {
    "mu_place": "วัดมณีวงศ์",
    "name": "ร้านสามสาว ข้าวแกง",
    "rating": 3.8,
    "address": "305 ตำบล ท่าช้าง อำเภอเมืองนครนายก",
    "lat": 14.2004451,
    "lng": 101.1915144
  },
  {
    "mu_place": "วัดมณีวงศ์",
    "name": "ร้านอาหารลุงยังปลาเผา",
    "rating": 4.2,
    "address": "169 ตำบลองครักษ์ อำเภอองครักษ์",
    "lat": 14.1172296,
    "lng": 101.0143004
  },
  {
    "mu_place": "วัดมณีวงศ์",
    "name": "ร้านอาหารพรอีสาน",
    "rating": 4.1,
    "address": "ตำบล บ้านใหญ่ อำเภอเมืองนครนายก",
    "lat": 14.2183469,
    "lng": 101.2147843
  },
  {
    "mu_place": "วัดมณีวงศ์",
    "name": "ร้านบ้านนายโอ",
    "rating": 4.4,
    "address": "66RW+2H2 ตำบล สาริกา อำเภอเมืองนครนายก",
    "lat": 14.2400091,
    "lng": 101.2463773
  },
  {
    "mu_place": "วัดมณีวงศ์",
    "name": "ร้านอาหารเตยใหญ่",
    "rating": 4.4,
    "address": "48 ม.7 ตำบล บางสมบูรณ์ อำเภอองครักษ์",
    "lat": 14.0199276,
    "lng": 101.124616
  },
  {
    "mu_place": "วัดมณีวงศ์",
    "name": "ร้านอาหารเรือนลอมฟาง",
    "rating": 4,
    "address": "21 ม.10 ถ. สุวรรณศร ตำบล ป่าขะ อำเภอบ้านนา",
    "lat": 14.2722881,
    "lng": 101.0572808
  },
  {
    "mu_place": "วัดมณีวงศ์",
    "name": "ร้านอาหารครัวลุงดำ",
    "rating": 4.2,
    "address": "18 ถนนศาลเจ้าพ่อองครักษ์ ตำบล ทรายมูล อำเภอองครักษ์",
    "lat": 14.1269528,
    "lng": 101.0137246
  },
  {
    "mu_place": "วัดมณีวงศ์",
    "name": "ร้านอาหารครัวน้องออย",
    "rating": 3.5,
    "address": "877W+CHM ทางหลวงแผ่นดินหมายเลข. 3049 สาริกา อำเภอเมืองนครนายก",
    "lat": 14.3135998,
    "lng": 101.2964359
  },
  {
    "mu_place": "วัดมณีวงศ์",
    "name": "ร้านอาหาร น้องต้นปาล์ม",
    "rating": 4.9,
    "address": "88C5+VR2 ทางหลวงแผ่นดินหมายเลข. 3049 ตำบล หินตั้ง อำเภอเมืองนครนายก",
    "lat": 14.322146,
    "lng": 101.3095068
  },
  {
    "mu_place": "วัดมณีวงศ์",
    "name": "ร้านอาหารเรือนศรีนครนายก",
    "rating": 4.3,
    "address": "7724+HR7 ทางหลวงแผ่นดินหมายเลข. 3049 สาริกา อำเภอเมืองนครนายก",
    "lat": 14.251405,
    "lng": 101.2570432
  },
  {
    "mu_place": "วัดมณีวงศ์",
    "name": "ร้านอาหารป่า ลุงหมูกับตุ๊ดตู่จ๋า",
    "rating": 4.7,
    "address": "6588+8HP ถนน รังสิต - นครนายก ตำบล พรหมณี อำเภอเมืองนครนายก",
    "lat": 14.2158376,
    "lng": 101.1664611
  },
  {
    "mu_place": "วัดมณีวงศ์",
    "name": "ร้านอาหารครัวสากเพชร",
    "rating": 4.6,
    "address": "66FM+WGX ตำบล บ้านใหญ่ อำเภอเมืองนครนายก",
    "lat": 14.2248555,
    "lng": 101.233869
  },
  {
    "mu_place": "วัดมณีวงศ์",
    "name": "ร้านอาหารครัวอีสานบ้านเฮา",
    "rating": 4.1,
    "address": "667J+G5R ตำบล บ้านใหญ่ อำเภอเมืองนครนายก",
    "lat": 14.2137674,
    "lng": 101.2303858
  },
  {
    "mu_place": "วัดมณีวงศ์",
    "name": "ร้านอาหาร เจ วี",
    "rating": 4.5,
    "address": "ตำบล พรหมณี อำเภอเมืองนครนายก",
    "lat": 14.2556141,
    "lng": 101.1584095
  },
  {
    "mu_place": "วัดมณีวงศ์",
    "name": "ร้านอาหารเรือนแพ ปราจีนบุรี",
    "rating": 3.9,
    "address": "77 1 ตำบล บางเดชะ อำเภอเมืองปราจีนบุรี",
    "lat": 14.027225,
    "lng": 101.3410985
  },
  {
    "mu_place": "วัดมณีวงศ์",
    "name": "J V Restaurant",
    "rating": 4.2,
    "address": "ตำบล พรหมณี อำเภอเมืองนครนายก",
    "lat": 14.2556093,
    "lng": 101.1584646
  },
  {
    "mu_place": "วัดอินทรวิหาร พระอารามหลวง (บางขุนพรหม)",
    "name": "ร้านอาหารเพลิน",
    "rating": 4.2,
    "address": "7/428 ถนน วิภาวดีรังสิต แขวงจตุจักร เขตจตุจักร",
    "lat": 13.8259653,
    "lng": 100.5571122
  },
  {
    "mu_place": "วัดอินทรวิหาร พระอารามหลวง (บางขุนพรหม)",
    "name": "กินลมชมสะพาน",
    "rating": 4.1,
    "address": "11 6 ถนนจักรพงษ์ แขวงวัดสามพระยา เขตพระนคร",
    "lat": 13.7666469,
    "lng": 100.497129
  },
  {
    "mu_place": "วัดอินทรวิหาร พระอารามหลวง (บางขุนพรหม)",
    "name": "ร้านอาหารประพักตร์",
    "rating": 4.3,
    "address": "89/165 ถนน เทศบาลสงเคราะห์ แขวงลาดยาว เขตจตุจักร",
    "lat": 13.8406963,
    "lng": 100.552399
  },
  {
    "mu_place": "วัดอินทรวิหาร พระอารามหลวง (บางขุนพรหม)",
    "name": "ร้านอาหารข้าวใหม่",
    "rating": 4.6,
    "address": "RHMH+3CX แขวงจันทรเกษม เขตจตุจักร",
    "lat": 13.8327455,
    "lng": 100.578617
  },
  {
    "mu_place": "วัดอินทรวิหาร พระอารามหลวง (บางขุนพรหม)",
    "name": "ร้านอาหารเสี่ยครัวไทย",
    "rating": 4,
    "address": "33/3 ถ.เฉลิมพระเกียรติ ร.9 ดอกไม้ ประเวศ",
    "lat": 13.6999014,
    "lng": 100.6784954
  },
  {
    "mu_place": "วัดอินทรวิหาร พระอารามหลวง (บางขุนพรหม)",
    "name": "Three Mangoes บ้านไทย ชายคลอง",
    "rating": 4.2,
    "address": "76 1 ถ. นครอินทร์ ตำบล บางขนุน อำเภอบางกรวย",
    "lat": 13.8237315,
    "lng": 100.4670198
  },
  {
    "mu_place": "วัดอินทรวิหาร พระอารามหลวง (บางขุนพรหม)",
    "name": "ร้านอาหารเลอ อัญญ์",
    "rating": 4.1,
    "address": "แขวงบางขุนศรี เขตบางกอกน้อย",
    "lat": 13.761189,
    "lng": 100.4693039
  },
  {
    "mu_place": "วัดอินทรวิหาร พระอารามหลวง (บางขุนพรหม)",
    "name": "Bajika Restaurant (ร้านอาหารบาจิกา)",
    "rating": 4.4,
    "address": "46/4 ถ. กาญจนาภิเษก แขวงศาลาธรรมสพน์ เขตทวีวัฒนา",
    "lat": 13.7701897,
    "lng": 100.4069093
  },
  {
    "mu_place": "วัดอินทรวิหาร พระอารามหลวง (บางขุนพรหม)",
    "name": "ร้านอาหารรับลม",
    "rating": 4.1,
    "address": "หมู่ที่1 26/2 ถ. บางกรวย - ไทรน้อย ตำบล บางรักพัฒนา อำเภอบางบัวทอง",
    "lat": 13.9063534,
    "lng": 100.4272884
  },
  {
    "mu_place": "วัดอินทรวิหาร พระอารามหลวง (บางขุนพรหม)",
    "name": "หมีแฟมิลี่ สาขา ประชาชื่น",
    "rating": 4.6,
    "address": "280/1 ถ. ประชาชื่น แขวงจตุจักร เขตจตุจักร",
    "lat": 13.8232274,
    "lng": 100.5384329
  },
  {
    "mu_place": "วัดอินทรวิหาร พระอารามหลวง (บางขุนพรหม)",
    "name": "ร้านอาหาร สวนลุงพร",
    "rating": 4.6,
    "address": "2 2 ตำบล แพรกษา อำเภอเมืองสมุทรปราการ",
    "lat": 13.5877449,
    "lng": 100.6419076
  },
  {
    "mu_place": "วัดอินทรวิหาร พระอารามหลวง (บางขุนพรหม)",
    "name": "ร้านอาหาร ครกไม้ไทยลาว ซอยลาดปลาเค้า 24",
    "rating": 4.3,
    "address": "8 ซ. ลาดปลาเค้า 24 แขวงจรเข้บัว เขตลาดพร้าว",
    "lat": 13.8401614,
    "lng": 100.5958436
  },
  {
    "mu_place": "วัดอินทรวิหาร พระอารามหลวง (บางขุนพรหม)",
    "name": "ร้านอาหารรสสุคนธ์",
    "rating": 4.1,
    "address": "299 12 หมู่ 5 ถ. ศรีนครินทร์ ตำบล บางเมือง อำเภอเมืองสมุทรปราการ",
    "lat": 13.6151095,
    "lng": 100.6209244
  },
  {
    "mu_place": "วัดอินทรวิหาร พระอารามหลวง (บางขุนพรหม)",
    "name": "T and T Restaurant",
    "rating": 4.3,
    "address": "359 เทศบาลนิมิตใต้ ซอย 7 แขวงลาดยาว เขตจตุจักร",
    "lat": 13.8363602,
    "lng": 100.5495098
  },
  {
    "mu_place": "วัดอินทรวิหาร พระอารามหลวง (บางขุนพรหม)",
    "name": "ร้านอาหารแกงป่า(ลุงสง่า)",
    "rating": 4.4,
    "address": "285 162 ซ. งามวงศ์วาน 23 แยก 11 ตำบลบางเขน อำเภอเมือง",
    "lat": 13.8651608,
    "lng": 100.5355962
  },
  {
    "mu_place": "วัดอินทรวิหาร พระอารามหลวง (บางขุนพรหม)",
    "name": "ร้านอาหารลงแพ หรือ @บางขวด",
    "rating": 4.3,
    "address": "3 ซอย นวลจันทร์ 56 แขวงนวลจันทร์ เขตบึงกุ่ม",
    "lat": 13.8328813,
    "lng": 100.6462978
  },
  {
    "mu_place": "วัดอินทรวิหาร พระอารามหลวง (บางขุนพรหม)",
    "name": "ร้านอาหารบ้านใบบัว",
    "rating": 4.3,
    "address": "13, 37 ถ. วงแหวนอุตสาหกรรม ลัดหลวง อำเภอพระประแดง",
    "lat": 13.6646477,
    "lng": 100.5233595
  },
  {
    "mu_place": "วัดอินทรวิหาร พระอารามหลวง (บางขุนพรหม)",
    "name": "ร้านอาหารอีสาน เป็นตาแซ่บ",
    "rating": 4.3,
    "address": "23 ซอย เทิดราชัน 43 แขวงสีกัน เขตดอนเมือง",
    "lat": 13.9441119,
    "lng": 100.5863427
  },
  {
    "mu_place": "วัดอินทรวิหาร พระอารามหลวง (บางขุนพรหม)",
    "name": "ร้านระเบียงเคียงน้ำ 77",
    "rating": 4.1,
    "address": "เลขที่ 76/1 ซอย หมู่ 3 ตำบล บางตะไนย์ อำเภอปากเกร็ด",
    "lat": 13.9180431,
    "lng": 100.4951132
  },
  {
    "mu_place": "วัดอินทรวิหาร พระอารามหลวง (บางขุนพรหม)",
    "name": "ร้านอาหาร ศรีกร",
    "rating": 4.3,
    "address": "233 ถ. สุขุมวิท ตำบลปากน้ำ อำเภอเมืองสมุทรปราการ",
    "lat": 13.601827,
    "lng": 100.5974659
  },
  {
    "mu_place": "ศาลเจ้าพ่อกรมหลวงชุมพร อุดมศักดิ์",
    "name": "ร้านอาหารเพลิน",
    "rating": 4.2,
    "address": "7/428 ถนน วิภาวดีรังสิต แขวงจตุจักร เขตจตุจักร",
    "lat": 13.8259653,
    "lng": 100.5571122
  },
  {
    "mu_place": "ศาลเจ้าพ่อกรมหลวงชุมพร อุดมศักดิ์",
    "name": "กินลมชมสะพาน",
    "rating": 4.1,
    "address": "11 6 ถนนจักรพงษ์ แขวงวัดสามพระยา เขตพระนคร",
    "lat": 13.7666469,
    "lng": 100.497129
  },
  {
    "mu_place": "ศาลเจ้าพ่อกรมหลวงชุมพร อุดมศักดิ์",
    "name": "ร้านอาหารประพักตร์",
    "rating": 4.3,
    "address": "89/165 ถนน เทศบาลสงเคราะห์ แขวงลาดยาว เขตจตุจักร",
    "lat": 13.8406963,
    "lng": 100.552399
  },
  {
    "mu_place": "ศาลเจ้าพ่อกรมหลวงชุมพร อุดมศักดิ์",
    "name": "ร้านอาหารเสี่ยครัวไทย",
    "rating": 4,
    "address": "33/3 ถ.เฉลิมพระเกียรติ ร.9 ดอกไม้ ประเวศ",
    "lat": 13.6999014,
    "lng": 100.6784954
  },
  {
    "mu_place": "ศาลเจ้าพ่อกรมหลวงชุมพร อุดมศักดิ์",
    "name": "Three Mangoes บ้านไทย ชายคลอง",
    "rating": 4.2,
    "address": "76 1 ถ. นครอินทร์ ตำบล บางขนุน อำเภอบางกรวย",
    "lat": 13.8237315,
    "lng": 100.4670198
  },
  {
    "mu_place": "ศาลเจ้าพ่อกรมหลวงชุมพร อุดมศักดิ์",
    "name": "ร้านอาหารไก่เพชร",
    "rating": 4.3,
    "address": "7 6 ซอย ลาดพร้าว 8 แยก 3 แขวงจอมพล เขตจตุจักร",
    "lat": 13.8103274,
    "lng": 100.5642949
  },
  {
    "mu_place": "ศาลเจ้าพ่อกรมหลวงชุมพร อุดมศักดิ์",
    "name": "ร้านอาหาร เมลโล่การ์เด้น",
    "rating": 4.5,
    "address": "10/804 เกษตร - นวมินทร์ แขวงนวลจันทร์ เขตบึงกุ่ม",
    "lat": 13.8276017,
    "lng": 100.6307115
  },
  {
    "mu_place": "ศาลเจ้าพ่อกรมหลวงชุมพร อุดมศักดิ์",
    "name": "ร้านอาหารเลอ อัญญ์",
    "rating": 4.1,
    "address": "แขวงบางขุนศรี เขตบางกอกน้อย",
    "lat": 13.761189,
    "lng": 100.4693039
  },
  {
    "mu_place": "ศาลเจ้าพ่อกรมหลวงชุมพร อุดมศักดิ์",
    "name": "Bajika Restaurant (ร้านอาหารบาจิกา)",
    "rating": 4.4,
    "address": "46/4 ถ. กาญจนาภิเษก แขวงศาลาธรรมสพน์ เขตทวีวัฒนา",
    "lat": 13.7701897,
    "lng": 100.4069093
  },
  {
    "mu_place": "ศาลเจ้าพ่อกรมหลวงชุมพร อุดมศักดิ์",
    "name": "ร้านอาหารรับลม",
    "rating": 4.1,
    "address": "หมู่ที่1 26/2 ถ. บางกรวย - ไทรน้อย ตำบล บางรักพัฒนา อำเภอบางบัวทอง",
    "lat": 13.9063534,
    "lng": 100.4272884
  },
  {
    "mu_place": "ศาลเจ้าพ่อกรมหลวงชุมพร อุดมศักดิ์",
    "name": "หมีแฟมิลี่ สาขา ประชาชื่น",
    "rating": 4.6,
    "address": "280/1 ถ. ประชาชื่น แขวงจตุจักร เขตจตุจักร",
    "lat": 13.8232274,
    "lng": 100.5384329
  },
  {
    "mu_place": "ศาลเจ้าพ่อกรมหลวงชุมพร อุดมศักดิ์",
    "name": "ร้านอาหาร สวนลุงพร",
    "rating": 4.6,
    "address": "2 2 ตำบล แพรกษา อำเภอเมืองสมุทรปราการ",
    "lat": 13.5877449,
    "lng": 100.6419076
  },
  {
    "mu_place": "ศาลเจ้าพ่อกรมหลวงชุมพร อุดมศักดิ์",
    "name": "ร้านอาหาร ครกไม้ไทยลาว ซอยลาดปลาเค้า 24",
    "rating": 4.3,
    "address": "8 ซ. ลาดปลาเค้า 24 แขวงจรเข้บัว เขตลาดพร้าว",
    "lat": 13.8401614,
    "lng": 100.5958436
  },
  {
    "mu_place": "ศาลเจ้าพ่อกรมหลวงชุมพร อุดมศักดิ์",
    "name": "ร้านอาหารรสสุคนธ์",
    "rating": 4.1,
    "address": "299 12 หมู่ 5 ถ. ศรีนครินทร์ ตำบล บางเมือง อำเภอเมืองสมุทรปราการ",
    "lat": 13.6151095,
    "lng": 100.6209244
  },
  {
    "mu_place": "ศาลเจ้าพ่อกรมหลวงชุมพร อุดมศักดิ์",
    "name": "T and T Restaurant",
    "rating": 4.3,
    "address": "359 เทศบาลนิมิตใต้ ซอย 7 แขวงลาดยาว เขตจตุจักร",
    "lat": 13.8363602,
    "lng": 100.5495098
  },
  {
    "mu_place": "ศาลเจ้าพ่อกรมหลวงชุมพร อุดมศักดิ์",
    "name": "ร้านอาหารแกงป่า(ลุงสง่า)",
    "rating": 4.4,
    "address": "285 162 ซ. งามวงศ์วาน 23 แยก 11 ตำบลบางเขน อำเภอเมือง",
    "lat": 13.8651608,
    "lng": 100.5355962
  },
  {
    "mu_place": "ศาลเจ้าพ่อกรมหลวงชุมพร อุดมศักดิ์",
    "name": "ร้านอาหารลงแพ หรือ @บางขวด",
    "rating": 4.3,
    "address": "3 ซอย นวลจันทร์ 56 แขวงนวลจันทร์ เขตบึงกุ่ม",
    "lat": 13.8328813,
    "lng": 100.6462978
  },
  {
    "mu_place": "ศาลเจ้าพ่อกรมหลวงชุมพร อุดมศักดิ์",
    "name": "ร้านอาหารบ้านใบบัว",
    "rating": 4.3,
    "address": "13, 37 ถ. วงแหวนอุตสาหกรรม ลัดหลวง อำเภอพระประแดง",
    "lat": 13.6646477,
    "lng": 100.5233595
  },
  {
    "mu_place": "ศาลเจ้าพ่อกรมหลวงชุมพร อุดมศักดิ์",
    "name": "ร้านระเบียงเคียงน้ำ 77",
    "rating": 4.1,
    "address": "เลขที่ 76/1 ซอย หมู่ 3 ตำบล บางตะไนย์ อำเภอปากเกร็ด",
    "lat": 13.9180431,
    "lng": 100.4951132
  },
  {
    "mu_place": "ศาลเจ้าพ่อกรมหลวงชุมพร อุดมศักดิ์",
    "name": "ร้านอาหาร ศรีกร",
    "rating": 4.3,
    "address": "233 ถ. สุขุมวิท ตำบลปากน้ำ อำเภอเมืองสมุทรปราการ",
    "lat": 13.601827,
    "lng": 100.5974659
  },
  {
    "mu_place": "วิหารพระพุทธชินราชมงคลปราการ",
    "name": "กินลมชมสะพาน",
    "rating": 4.1,
    "address": "11 6 ถนนจักรพงษ์ แขวงวัดสามพระยา เขตพระนคร",
    "lat": 13.7666469,
    "lng": 100.497129
  },
  {
    "mu_place": "วิหารพระพุทธชินราชมงคลปราการ",
    "name": "ร้านอาหาร โค้งไผ่หลิว",
    "rating": 4.2,
    "address": "1/1 ม.9 ถ.พระราชวิริยาภรณ์ ต.บางพึ่ง อ.พระประแดง, อำเภอพระประแดง",
    "lat": 13.6683159,
    "lng": 100.5207053
  },
  {
    "mu_place": "วิหารพระพุทธชินราชมงคลปราการ",
    "name": "ร้านอาหาร เอ้เต",
    "rating": 3.9,
    "address": "56 ซอย สมปรารถนา แขวงดินแดง เขตดินแดง",
    "lat": 13.7675246,
    "lng": 100.559853
  },
  {
    "mu_place": "วิหารพระพุทธชินราชมงคลปราการ",
    "name": "ร้านอาหารเสี่ยครัวไทย",
    "rating": 4,
    "address": "33/3 ถ.เฉลิมพระเกียรติ ร.9 ดอกไม้ ประเวศ",
    "lat": 13.6999014,
    "lng": 100.6784954
  },
  {
    "mu_place": "วิหารพระพุทธชินราชมงคลปราการ",
    "name": "ร้านอาหารเลอ อัญญ์",
    "rating": 4.1,
    "address": "แขวงบางขุนศรี เขตบางกอกน้อย",
    "lat": 13.761189,
    "lng": 100.4693039
  },
  {
    "mu_place": "วิหารพระพุทธชินราชมงคลปราการ",
    "name": "ร้านอาหารเรือนแสน",
    "rating": 4.1,
    "address": "JPMQ+RV5 ตำบลบางโฉลง อำเภอบางพลี",
    "lat": 13.6345017,
    "lng": 100.7397468
  },
  {
    "mu_place": "วิหารพระพุทธชินราชมงคลปราการ",
    "name": "ร้านอาหารต้นทอง",
    "rating": 4.1,
    "address": "38, 2 ถนน เพชรพระราม แขวง ห้วยขวาง, เขตบางกะปิ",
    "lat": 13.7467027,
    "lng": 100.5984029
  },
  {
    "mu_place": "วิหารพระพุทธชินราชมงคลปราการ",
    "name": "ร้านอาหาร สวนลุงพร",
    "rating": 4.6,
    "address": "2 2 ตำบล แพรกษา อำเภอเมืองสมุทรปราการ",
    "lat": 13.5877449,
    "lng": 100.6419076
  },
  {
    "mu_place": "วิหารพระพุทธชินราชมงคลปราการ",
    "name": "ร้านอาหารรสสุคนธ์",
    "rating": 4.1,
    "address": "299 12 หมู่ 5 ถ. ศรีนครินทร์ ตำบล บางเมือง อำเภอเมืองสมุทรปราการ",
    "lat": 13.6151095,
    "lng": 100.6209244
  },
  {
    "mu_place": "วิหารพระพุทธชินราชมงคลปราการ",
    "name": "ป้าเรย์",
    "rating": 3.9,
    "address": "4-6-8 ถนนเทียนร่วมมิตร แขวงห้วยขวาง",
    "lat": 13.7667789,
    "lng": 100.5811614
  },
  {
    "mu_place": "วิหารพระพุทธชินราชมงคลปราการ",
    "name": "ร้านอาหารมิตรโกหย่วน",
    "rating": 4.4,
    "address": "186 ถนน ดินสอ แขวงเสาชิงช้า เขตพระนคร",
    "lat": 13.7537797,
    "lng": 100.5010968
  },
  {
    "mu_place": "วิหารพระพุทธชินราชมงคลปราการ",
    "name": "ร้านอาหารบ้านใบบัว",
    "rating": 4.3,
    "address": "13, 37 ถ. วงแหวนอุตสาหกรรม ลัดหลวง อำเภอพระประแดง",
    "lat": 13.6646477,
    "lng": 100.5233595
  },
  {
    "mu_place": "วิหารพระพุทธชินราชมงคลปราการ",
    "name": "ร้านอาหาร ศรีกร",
    "rating": 4.3,
    "address": "233 ถ. สุขุมวิท ตำบลปากน้ำ อำเภอเมืองสมุทรปราการ",
    "lat": 13.601827,
    "lng": 100.5974659
  },
  {
    "mu_place": "วิหารพระพุทธชินราชมงคลปราการ",
    "name": "ประจักษ์",
    "rating": 4.2,
    "address": "1415 ถ. เจริญกรุง แขวงสีลม เขตบางรัก",
    "lat": 13.7203946,
    "lng": 100.5160089
  },
  {
    "mu_place": "วิหารพระพุทธชินราชมงคลปราการ",
    "name": "ร้านอาหาร​บ้าน​แบบ​ไทย",
    "rating": 4.7,
    "address": "​ ​ 307 ซอย สาทร 19 แขวงยานนาวา เขตยานนาวา",
    "lat": 13.7178337,
    "lng": 100.517159
  },
  {
    "mu_place": "วิหารพระพุทธชินราชมงคลปราการ",
    "name": "ร้านอาหารแต้จิ๋ว",
    "rating": 4.2,
    "address": "MGV5+C7X ซอยแฉล้มนิมิตร แขวงบางโคล่ เขตบางคอแหลม",
    "lat": 13.6936123,
    "lng": 100.5082329
  },
  {
    "mu_place": "วิหารพระพุทธชินราชมงคลปราการ",
    "name": "Amorn Lake Front ร้านอาหาร ริมทะเลสาบ สัมมากร",
    "rating": 4.3,
    "address": "ซอย รามคำแหง 112 แขวงสะพานสูง เขตสะพานสูง",
    "lat": 13.7627527,
    "lng": 100.6786588
  },
  {
    "mu_place": "วิหารพระพุทธชินราชมงคลปราการ",
    "name": "อร่อย",
    "rating": 4.1,
    "address": "2309 ถนนสุขุมวิท93 แขวงบางจาก เขตพระโขนง",
    "lat": 13.6989074,
    "lng": 100.6045301
  },
  {
    "mu_place": "วิหารพระพุทธชินราชมงคลปราการ",
    "name": "บึงตลิ่งชัน ร้านอาหารและบ่อตกเล่น",
    "rating": 4.4,
    "address": "QC2C+3PF ถนน บางเชือกหนัง แขวงบางเชือกหนัง เขตตลิ่งชัน",
    "lat": 13.750177,
    "lng": 100.421786
  },
  {
    "mu_place": "วิหารพระพุทธชินราชมงคลปราการ",
    "name": "แสนอร่อยโภชนา",
    "rating": 4.3,
    "address": "Soi Bangna 48, บางนาใต้ เขตบางนา",
    "lat": 13.6643772,
    "lng": 100.6427948
  },
  {
    "mu_place": "ท้าวเวสสุวรรณ วัดจุฬามณี",
    "name": "ร้านอาหารคุณจ๋า",
    "rating": 4.4,
    "address": "8W23+FFC ตำบล ยี่สาร อำเภออัมพวา",
    "lat": 13.3012316,
    "lng": 99.90357910000002
  },
  {
    "mu_place": "ท้าวเวสสุวรรณ วัดจุฬามณี",
    "name": "ร้านอาหารครัวแม่อุไร",
    "rating": 4.4,
    "address": "84 4 ตำบล บ้านปรก อำเภอเมืองสมุทรสงคราม",
    "lat": 13.410067,
    "lng": 99.9773857
  },
  {
    "mu_place": "ท้าวเวสสุวรรณ วัดจุฬามณี",
    "name": "ร้านแดงอาหารทะเล (เจ้าเก่า)",
    "rating": 4.3,
    "address": "40/25 ถนน ราษฎร์ประสิทธิ์ ตำบล แม่กลอง อำเภอเมืองสมุทรสงคราม",
    "lat": 13.3879712,
    "lng": 99.98819089999999
  },
  {
    "mu_place": "ท้าวเวสสุวรรณ วัดจุฬามณี",
    "name": "ร้านอาหารเพื่อคุณดำเนินสะดวก",
    "rating": 4.4,
    "address": "60 หมู่3 ตำบล ท่านัด อำเภอดำเนินสะดวก",
    "lat": 13.5491599,
    "lng": 99.96145039999999
  },
  {
    "mu_place": "ท้าวเวสสุวรรณ วัดจุฬามณี",
    "name": "ร้านอาหารคุ้มพี่หลวง",
    "rating": 4.2,
    "address": "56 2 ตำบล ลาดใหญ่ เมือง",
    "lat": 13.4255093,
    "lng": 99.999826
  },
  {
    "mu_place": "ท้าวเวสสุวรรณ วัดจุฬามณี",
    "name": "ร้านอาหาร 3 ด.",
    "rating": 4.5,
    "address": "GRJC+2W5 ตำบล หน้าเมือง อำเภอเมืองราชบุรี",
    "lat": 13.5300113,
    "lng": 99.8223033
  },
  {
    "mu_place": "ท้าวเวสสุวรรณ วัดจุฬามณี",
    "name": "ร้านอาหารริมน้ำ",
    "rating": 4.3,
    "address": "9XVP+8M4 ตำบล แม่กลอง อำเภอเมืองสมุทรสงคราม",
    "lat": 13.3932627,
    "lng": 99.9866735
  },
  {
    "mu_place": "ท้าวเวสสุวรรณ วัดจุฬามณี",
    "name": "ร้านอาหารบางตะบูนเบย์",
    "rating": 4.4,
    "address": "14 ถนน พระครูวชิระกิจโกศล ตำบล บางตะบูน อำเภอ บ้านแหลม",
    "lat": 13.2671727,
    "lng": 99.93676839999999
  },
  {
    "mu_place": "ท้าวเวสสุวรรณ วัดจุฬามณี",
    "name": "ร้านอาหารเรือนป้าห่อ",
    "rating": 4.2,
    "address": "34 ถนน แม้นรำลึก ตำบล หน้าเมือง อำเภอเมืองราชบุรี",
    "lat": 13.5260266,
    "lng": 99.81811119999999
  },
  {
    "mu_place": "ท้าวเวสสุวรรณ วัดจุฬามณี",
    "name": "ร้านอาหารปีเถาะ",
    "rating": 4.1,
    "address": "GRCG+94C ตำบลดอนตะโก อำเภอเมืองราชบุรี",
    "lat": 13.5209435,
    "lng": 99.82525899999999
  },
  {
    "mu_place": "ท้าวเวสสุวรรณ วัดจุฬามณี",
    "name": "ร้านอาหารเจดีย์หักโภชนา ราชบุรี",
    "rating": 4.2,
    "address": "588 หมู่ 3 ตำบล เจดีย์หัก อำเภอเมืองราชบุรี",
    "lat": 13.5436979,
    "lng": 99.79590080000001
  },
  {
    "mu_place": "ท้าวเวสสุวรรณ วัดจุฬามณี",
    "name": "ร้านอาหารคลายเครียด",
    "rating": 4.5,
    "address": "GRH5+QPQ ตำบล หน้าเมือง อำเภอเมืองราชบุรี",
    "lat": 13.5294625,
    "lng": 99.8093648
  },
  {
    "mu_place": "ท้าวเวสสุวรรณ วัดจุฬามณี",
    "name": "ร้านอาหารเจ้าสำราญ",
    "rating": 4.1,
    "address": "14 ถนน พวงสมบูรณ์ ตำบล อัมพวา อำเภออัมพวา",
    "lat": 13.4242667,
    "lng": 99.9560813
  },
  {
    "mu_place": "ท้าวเวสสุวรรณ วัดจุฬามณี",
    "name": "ร้านอาหารเคียงทะเล",
    "rating": 4,
    "address": "ตำบล บางจะเกร็ง อำเภอเมืองสมุทรสงคราม",
    "lat": 13.3644664,
    "lng": 100.0256221
  },
  {
    "mu_place": "ท้าวเวสสุวรรณ วัดจุฬามณี",
    "name": "ร้านอาหารเจ๊ใจ ชายทะเลกาหลง",
    "rating": 4.5,
    "address": "58 4 ตำบล กาหลง อำเภอเมืองสมุทรสาคร",
    "lat": 13.4485203,
    "lng": 100.1506473
  },
  {
    "mu_place": "ท้าวเวสสุวรรณ วัดจุฬามณี",
    "name": "ร้านอาหารลอยแก้ว",
    "rating": 4,
    "address": "161/11-15 ซอย ชาวดิน ตำบล หน้าเมือง อำเภอเมืองราชบุรี",
    "lat": 13.5287437,
    "lng": 99.798425
  },
  {
    "mu_place": "ท้าวเวสสุวรรณ วัดจุฬามณี",
    "name": "ร้านอาหารลูกปลา",
    "rating": 4,
    "address": "F473+W8Q ตำบล นาโคก อำเภอเมืองสมุทรสาคร",
    "lat": 13.4649102,
    "lng": 100.1033334
  },
  {
    "mu_place": "ท้าวเวสสุวรรณ วัดจุฬามณี",
    "name": "ร้านอาหารสามัญชน",
    "rating": 4.2,
    "address": "389 Moo 3 ตำบล หน้าเมือง อำเภอเมืองราชบุรี",
    "lat": 13.5233117,
    "lng": 99.8156051
  },
  {
    "mu_place": "ท้าวเวสสุวรรณ วัดจุฬามณี",
    "name": "ร้านอาหารเรือนวารี",
    "rating": 4.2,
    "address": "153 2 ตำบล แม่กลอง อำเภอเมือง",
    "lat": 13.3871166,
    "lng": 99.9835284
  },
  {
    "mu_place": "ท้าวเวสสุวรรณ วัดจุฬามณี",
    "name": "ร้านอาหารขวัญดำเนิน (แยกไฟแดง)Kwan Damnoen (original).",
    "rating": 4.2,
    "address": "33 หมู่ 9 ถนนแม่กลอง-บางแพ แยกทางเข้าตลาดน้ำดำเนินสะดวก ตำบล ดำเนินสะดวก อำเภอดำเนินสะดวก",
    "lat": 13.5236941,
    "lng": 99.97038590000001
  },
  {
    "mu_place": "หลวงพ่อปลดหนี้ วัดห้วยน้ำทรัพย์ หรือ วัดพระธาตุวาโย",
    "name": "ร้านอาหารบ้านปรุงแต่ง",
    "rating": 4.8,
    "address": "HFF3+PF7 ตำบล ลาดกระทิง อำเภอสนามชัยเขต",
    "lat": 13.5742833,
    "lng": 101.4536621
  },
  {
    "mu_place": "หลวงพ่อปลดหนี้ วัดห้วยน้ำทรัพย์ หรือ วัดพระธาตุวาโย",
    "name": "สวนอาหารบึงบัว",
    "rating": 4.1,
    "address": "97XM+X65 ตำบลท่าบุญมี อำเภอเกาะจันทร์",
    "lat": 13.3999161,
    "lng": 101.2831789
  },
  {
    "mu_place": "หลวงพ่อปลดหนี้ วัดห้วยน้ำทรัพย์ หรือ วัดพระธาตุวาโย",
    "name": "ร้านเจ้อ๋อ อาหารตามสั่ง ข้าวต้มทะเล",
    "rating": 4.4,
    "address": "ตำบล คลองตะเกรา อำเภอท่าตะเกียบ",
    "lat": 13.4415525,
    "lng": 101.6130122
  },
  {
    "mu_place": "หลวงพ่อปลดหนี้ วัดห้วยน้ำทรัพย์ หรือ วัดพระธาตุวาโย",
    "name": "ครัวเล็กเล็ก",
    "rating": 4.5,
    "address": "75/2 หมู่6 ,ตำบล ท่าถ่าน อำเภอ พนมสารคาม ฉะเชิงเทรา 24120 ท่าถ่าน อำเภอพนมสารคาม",
    "lat": 13.7124711,
    "lng": 101.3500882
  },
  {
    "mu_place": "หลวงพ่อปลดหนี้ วัดห้วยน้ำทรัพย์ หรือ วัดพระธาตุวาโย",
    "name": "ร้านอาหารน้องพร ตำบลเกาะจันทร์",
    "rating": 4.4,
    "address": "C87W+RJH 3341 ตำบล เกาะจันทร์ อำเภอเกาะจันทร์",
    "lat": 13.4147602,
    "lng": 101.3466032
  },
  {
    "mu_place": "หลวงพ่อปลดหนี้ วัดห้วยน้ำทรัพย์ หรือ วัดพระธาตุวาโย",
    "name": "ครัวร่มไม้ชายคลอง",
    "rating": 4.2,
    "address": "P8QW+7RX ตำบล ท่าถ่าน อำเภอพนมสารคาม",
    "lat": 13.7382325,
    "lng": 101.3471087
  },
  {
    "mu_place": "หลวงพ่อปลดหนี้ วัดห้วยน้ำทรัพย์ หรือ วัดพระธาตุวาโย",
    "name": "ร้านอาหารป่า",
    "rating": 4.3,
    "address": "J83G+VXR ซอย เกตเวย์ซิตี้ใต้ ตำบล หัวสำโรง อำเภอแปลงยาว",
    "lat": 13.6047459,
    "lng": 101.3274032
  },
  {
    "mu_place": "หลวงพ่อปลดหนี้ วัดห้วยน้ำทรัพย์ หรือ วัดพระธาตุวาโย",
    "name": "ร้านอาหารเจ๊จง",
    "rating": 4.2,
    "address": "H7XG+72F ตำบล แปลงยาว อำเภอแปลงยาว",
    "lat": 13.5981806,
    "lng": 101.2750466
  },
  {
    "mu_place": "หลวงพ่อปลดหนี้ วัดห้วยน้ำทรัพย์ หรือ วัดพระธาตุวาโย",
    "name": "ร้านดวงพร",
    "rating": 4.1,
    "address": "C8FW+J3C ตำบล เกาะจันทร์ อำเภอเกาะจันทร์",
    "lat": 13.424068,
    "lng": 101.3451514
  },
  {
    "mu_place": "หลวงพ่อปลดหนี้ วัดห้วยน้ำทรัพย์ หรือ วัดพระธาตุวาโย",
    "name": "ร้านอาหารครัวอุษา",
    "rating": 4.5,
    "address": "F6MW+7CC ตำบลหนองเหียง อำเภอพนัสนิคม",
    "lat": 13.4832128,
    "lng": 101.2460142
  },
  {
    "mu_place": "หลวงพ่อปลดหนี้ วัดห้วยน้ำทรัพย์ หรือ วัดพระธาตุวาโย",
    "name": "ร้านอาหารตามสั่งหมูนุ่มบ้านนอก",
    "rating": 4.8,
    "address": "J7VQ+P2G Unnamed Road ตำบล หัวสำโรง อำเภอแปลงยาว",
    "lat": 13.6443068,
    "lng": 101.287572
  },
  {
    "mu_place": "หลวงพ่อปลดหนี้ วัดห้วยน้ำทรัพย์ หรือ วัดพระธาตุวาโย",
    "name": "ครัวลุงเปีย",
    "rating": 4.1,
    "address": "50 ตำบล หนองแหน อำเภอพนมสารคาม",
    "lat": 13.6448044,
    "lng": 101.3423707
  },
  {
    "mu_place": "หลวงพ่อปลดหนี้ วัดห้วยน้ำทรัพย์ หรือ วัดพระธาตุวาโย",
    "name": "ครัวตัวเอ็ม",
    "rating": 4.4,
    "address": "หมู่18 168/4 ตำบล คลองตะเกรา อำเภอท่าตะเกียบ",
    "lat": 13.4417154,
    "lng": 101.6119751
  },
  {
    "mu_place": "หลวงพ่อปลดหนี้ วัดห้วยน้ำทรัพย์ หรือ วัดพระธาตุวาโย",
    "name": "ครัวสวนป่าสัก",
    "rating": 4.3,
    "address": "HFG4+5FX ตำบล ลาดกระทิง อำเภอสนามชัยเขต",
    "lat": 13.5755135,
    "lng": 101.4562783
  },
  {
    "mu_place": "หลวงพ่อปลดหนี้ วัดห้วยน้ำทรัพย์ หรือ วัดพระธาตุวาโย",
    "name": "สวนอาหารบ้านใหม่",
    "rating": 4.5,
    "address": "P75X+C6Q ตำบลเมืองเก่า อำเภอพนมสารคาม",
    "lat": 13.7086195,
    "lng": 101.2981573
  },
  {
    "mu_place": "หลวงพ่อปลดหนี้ วัดห้วยน้ำทรัพย์ หรือ วัดพระธาตุวาโย",
    "name": "ร้านธรรมดาดี",
    "rating": 4.2,
    "address": "3245 ตำบล พนมสารคาม อำเภอพนมสารคาม",
    "lat": 13.7456036,
    "lng": 101.3310054
  },
  {
    "mu_place": "หลวงพ่อปลดหนี้ วัดห้วยน้ำทรัพย์ หรือ วัดพระธาตุวาโย",
    "name": "ร้านบ้านห้วยพลู",
    "rating": 4.5,
    "address": "MCF2+8GW ฉช.3017 ตำบล เกาะขนุน อำเภอพนมสารคาม",
    "lat": 13.6733591,
    "lng": 101.401344
  },
  {
    "mu_place": "หลวงพ่อปลดหนี้ วัดห้วยน้ำทรัพย์ หรือ วัดพระธาตุวาโย",
    "name": "ร้านแปด โภชนา",
    "rating": 3.9,
    "address": "PFHG+98W 331 ตำบล เขาหินซ้อน อำเภอพนมสารคาม",
    "lat": 13.7284111,
    "lng": 101.4758552
  },
  {
    "mu_place": "หลวงพ่อปลดหนี้ วัดห้วยน้ำทรัพย์ หรือ วัดพระธาตุวาโย",
    "name": "ร้านเยาวมาลย์ชวนชิม",
    "rating": 4.1,
    "address": "HCPR+5V5 ตำบล ลาดกระทิง อำเภอสนามชัยเขต",
    "lat": 13.5853872,
    "lng": 101.442238
  },
  {
    "mu_place": "หลวงพ่อปลดหนี้ วัดห้วยน้ำทรัพย์ หรือ วัดพระธาตุวาโย",
    "name": "ร้านอาหารเจ๊จิตร",
    "rating": 4.1,
    "address": "H737+XR4 ตำบล สระสี่เหลี่ยม อำเภอพนัสนิคม",
    "lat": 13.554882,
    "lng": 101.2645776
  },
  {
    "mu_place": "ลานพญาศรีสัตตนาคราช",
    "name": "ยอดฟ้า ร้านอาหาร",
    "rating": 3.8,
    "address": "140 บำรุงเมือง ตำบล ในเมือง อำเภอเมืองนครพนม",
    "lat": 17.4033704,
    "lng": 104.7851466
  },
  {
    "mu_place": "ลานพญาศรีสัตตนาคราช",
    "name": "ร้านอาหารสามเด้ง",
    "rating": 4.1,
    "address": "ที่ว่าการอำเภอเมืองนครพนม 68/2 ในเมือง อำเภอเมืองนครพนม",
    "lat": 17.4049985,
    "lng": 104.7843911
  },
  {
    "mu_place": "ลานพญาศรีสัตตนาคราช",
    "name": "ครัวริมโขง อาหารตามสั่ง",
    "rating": 5,
    "address": "CQ9H+8FW ถ. ชยางกูร ตำบล ในเมือง อำเภอเมืองนครพนม",
    "lat": 17.4183179,
    "lng": 104.7785957
  },
  {
    "mu_place": "ลานพญาศรีสัตตนาคราช",
    "name": "ร้านอาหารระเบียงโขง นครพนม",
    "rating": 4.3,
    "address": "137 ถนน สุนทรวิจิตร ในเมือง เมือง",
    "lat": 17.4056697,
    "lng": 104.7869915
  },
  {
    "mu_place": "ลานพญาศรีสัตตนาคราช",
    "name": "ร้านอาหารเรือนริมน้ำ",
    "rating": 3.8,
    "address": "83 ถนน สุนทรวิจิตร ตำบล ในเมือง อำเภอเมืองนครพนม",
    "lat": 17.4188371,
    "lng": 104.7782598
  },
  {
    "mu_place": "ลานพญาศรีสัตตนาคราช",
    "name": "สบายดี นครพนม",
    "rating": 4.3,
    "address": "414 6 ถนน สุนทรวิจิตร ตำบล ในเมือง อำเภอเมืองนครพนม",
    "lat": 17.4052706,
    "lng": 104.7869671
  },
  {
    "mu_place": "ลานพญาศรีสัตตนาคราช",
    "name": "ร้านเป๋นปลาเป็น",
    "rating": 4.4,
    "address": "115 หมู่ที่ 6 หมู่บ้าน อาจสามารถ ตำบล อาจสามารถ อำเภอเมืองนครพนม",
    "lat": 17.4497508,
    "lng": 104.7470192
  },
  {
    "mu_place": "ลานพญาศรีสัตตนาคราช",
    "name": "ร้าน ชมจันทร์",
    "rating": 3.9,
    "address": "ตำบล ในเมือง อำเภอเมืองนครพนม",
    "lat": 17.4156143,
    "lng": 104.780432
  },
  {
    "mu_place": "ลานพญาศรีสัตตนาคราช",
    "name": "ร้านอาหารจำปาสัก นครพนม",
    "rating": 3.8,
    "address": "CQ4P+5PX ซอย สุนทรวิจิตร ตำบล ในเมือง อำเภอเมืองนครพนม",
    "lat": 17.4054996,
    "lng": 104.786849
  },
  {
    "mu_place": "ลานพญาศรีสัตตนาคราช",
    "name": "ร้านอาหารสวนรุ่งเรือง",
    "rating": 3.8,
    "address": "64/2 ถ. ชยางกูร ในเมือง เมือง",
    "lat": 17.3736098,
    "lng": 104.7927629
  },
  {
    "mu_place": "ลานพญาศรีสัตตนาคราช",
    "name": "ร้านอาหารตามสั่ง",
    "rating": 3.4,
    "address": "50 1 ตำบล ในเมือง อำเภอเมืองนครพนม",
    "lat": 17.4046946,
    "lng": 104.7848075
  },
  {
    "mu_place": "ลานพญาศรีสัตตนาคราช",
    "name": "สามอนงค์",
    "rating": 4.3,
    "address": "5/4 ซอย สมุทรบรรหาร ตำบล ในเมือง อำเภอเมืองนครพนม",
    "lat": 17.4136875,
    "lng": 104.7813377
  },
  {
    "mu_place": "ลานพญาศรีสัตตนาคราช",
    "name": "ร้านอาหารบ้านลุงหมาน",
    "rating": 4.3,
    "address": "9QMV+J9R ทางหลวงจังหวัด นครพนม-มุกดาหาร ตำบล ในเมือง อำเภอเมืองนครพนม",
    "lat": 17.3841173,
    "lng": 104.793393
  },
  {
    "mu_place": "ลานพญาศรีสัตตนาคราช",
    "name": "ร้านอาหารต้นคูณ กาแฟโบราณ",
    "rating": 4.8,
    "address": "197 หมู่ที่ 1 บ.ดงโชค ตำบล หนองญาติ เมือง",
    "lat": 17.3592052,
    "lng": 104.7606623
  },
  {
    "mu_place": "ลานพญาศรีสัตตนาคราช",
    "name": "ริมน้ำริเวอร์ไซด์ นครพนม by เรือนริมน้ำ",
    "rating": 4.1,
    "address": "9/6 ถนนนครพนม-ท่าอุเทน อาจสามารถ อำเภอเมืองนครพนม",
    "lat": 17.4397393,
    "lng": 104.7530522
  },
  {
    "mu_place": "ลานพญาศรีสัตตนาคราช",
    "name": "ร้านอาหารสตางค์",
    "rating": 4.3,
    "address": "9QRR+RXM ตำบล ในเมือง อำเภอเมืองนครพนม",
    "lat": 17.3920154,
    "lng": 104.7924441
  },
  {
    "mu_place": "ลานพญาศรีสัตตนาคราช",
    "name": "ร้านอาหารป้าลำใย",
    "rating": 4,
    "address": "FPGG+QC4 ตำบล อาจสามารถ อำเภอเมืองนครพนม",
    "lat": 17.4768788,
    "lng": 104.7260397
  },
  {
    "mu_place": "ลานพญาศรีสัตตนาคราช",
    "name": "River Bar & Restaurant",
    "rating": 4.2,
    "address": "ตำบล ในเมือง อำเภอเมืองนครพนม",
    "lat": 17.3762316,
    "lng": 104.7937829
  },
  {
    "mu_place": "ลานพญาศรีสัตตนาคราช",
    "name": "ร้าน จ๊ะเอ๋อาหารไทย",
    "rating": 4.7,
    "address": "CQ2H+2G3 เฟื่องนคร ตำบล ในเมือง อำเภอเมืองนครพนม",
    "lat": 17.3999989,
    "lng": 104.77881
  },
  {
    "mu_place": "ลานพญาศรีสัตตนาคราช",
    "name": "ร้านอาหารเจ้าสำราญ",
    "rating": 4.9,
    "address": "132 อาจสามารถ ตำบล อาจสามารถ เมือง",
    "lat": 17.4519939,
    "lng": 104.7461013
  },
  {
    "mu_place": "วัดธารทหาร (ห้วยด้วน) หลวงพ่อพัฒน์ ปุญญกาโม",
    "name": "ร้านอาหารครูณี",
    "rating": 4.2,
    "address": "JFQH+QQC ตำบล ท่าตะโก อำเภอ ท่าตะโก",
    "lat": 15.6394392,
    "lng": 100.4794061
  },
  {
    "mu_place": "วัดธารทหาร (ห้วยด้วน) หลวงพ่อพัฒน์ ปุญญกาโม",
    "name": "ครัวจิตตมาส",
    "rating": 4.4,
    "address": "199/2 หมู่ที่ 12 ตำบล หนองกลับ อำเภอ หนองบัว",
    "lat": 15.8716583,
    "lng": 100.606175
  },
  {
    "mu_place": "วัดธารทหาร (ห้วยด้วน) หลวงพ่อพัฒน์ ปุญญกาโม",
    "name": "คนกันเอง อาหารตามสั่ง",
    "rating": 4.1,
    "address": "WPPX+RH2 ตำบล ทุ่งทอง อำเภอ หนองบัว",
    "lat": 15.9370363,
    "lng": 100.7488802
  },
  {
    "mu_place": "วัดธารทหาร (ห้วยด้วน) หลวงพ่อพัฒน์ ปุญญกาโม",
    "name": "ร้านอาหารหนุ่มสยาม",
    "rating": 4.1,
    "address": "VJ95+4GC ตำบล หนองกลับ อำเภอ หนองบัว",
    "lat": 15.8678179,
    "lng": 100.6087597
  },
  {
    "mu_place": "วัดธารทหาร (ห้วยด้วน) หลวงพ่อพัฒน์ ปุญญกาโม",
    "name": "ร้านฉำฉา 2",
    "rating": 4.3,
    "address": "599/8 หมู่3 หนองกลับ อำเภอ หนองบัว",
    "lat": 15.867503,
    "lng": 100.611608
  },
  {
    "mu_place": "วัดธารทหาร (ห้วยด้วน) หลวงพ่อพัฒน์ ปุญญกาโม",
    "name": "สวนอาหารคุณเล็ก",
    "rating": 2.3,
    "address": "JHFF+7C6 ตำบล โคกเดื่อ อำเภอ ไพศาลี",
    "lat": 15.6231589,
    "lng": 100.5735339
  },
  {
    "mu_place": "วัดธารทหาร (ห้วยด้วน) หลวงพ่อพัฒน์ ปุญญกาโม",
    "name": "ร้านอาหารมาลอง Ma'Long ท่าตะโก",
    "rating": 4,
    "address": "JFPH+P35 แก้วหมื่นราม ตำบล ท่าตะโก อำเภอ ท่าตะโก",
    "lat": 15.6367537,
    "lng": 100.4777387
  },
  {
    "mu_place": "วัดธารทหาร (ห้วยด้วน) หลวงพ่อพัฒน์ ปุญญกาโม",
    "name": "ร้านอนงค์โภชนา",
    "rating": 4.1,
    "address": "JFQJ+XR7 ตำบล ท่าตะโก อำเภอ ท่าตะโก",
    "lat": 15.639899,
    "lng": 100.4820534
  },
  {
    "mu_place": "วัดธารทหาร (ห้วยด้วน) หลวงพ่อพัฒน์ ปุญญกาโม",
    "name": "ร้านลุงดุลย์ก๋วยเตี๋ยวไก่มะระอาหารตามสั่ง",
    "rating": 4.8,
    "address": "VH8V+CXQ ตำบล หนองกลับ อำเภอ หนองบัว",
    "lat": 15.8660813,
    "lng": 100.595004
  },
  {
    "mu_place": "วัดธารทหาร (ห้วยด้วน) หลวงพ่อพัฒน์ ปุญญกาโม",
    "name": "ร้านอาหารแซบอีหลี",
    "rating": 4.3,
    "address": "VH7H+XJ6 ตำบล หนองบัว อำเภอ หนองบัว",
    "lat": 15.8649238,
    "lng": 100.5790246
  },
  {
    "mu_place": "วัดธารทหาร (ห้วยด้วน) หลวงพ่อพัฒน์ ปุญญกาโม",
    "name": "ร้านอาหาร ครัว 3อ.อ่าง",
    "rating": 3,
    "address": "VH5J+3HC 1119 ตำบล หนองบัว อำเภอ หนองบัว",
    "lat": 15.8577018,
    "lng": 100.5813789
  },
  {
    "mu_place": "วัดธารทหาร (ห้วยด้วน) หลวงพ่อพัฒน์ ปุญญกาโม",
    "name": "แต้วชวนชิม",
    "rating": 4.6,
    "address": "186 ตำบล ธารทหาร อำเภอ หนองบัว",
    "lat": 15.8083822,
    "lng": 100.5498249
  },
  {
    "mu_place": "วัดธารทหาร (ห้วยด้วน) หลวงพ่อพัฒน์ ปุญญกาโม",
    "name": "ร้านคุณเอส",
    "rating": 4.5,
    "address": "WJF7+X3R ตำบล หนองกลับ อำเภอ หนองบัว",
    "lat": 15.9249788,
    "lng": 100.6126529
  },
  {
    "mu_place": "วัดธารทหาร (ห้วยด้วน) หลวงพ่อพัฒน์ ปุญญกาโม",
    "name": "ร้านอาหารบ้านเพื่อน",
    "rating": 4.3,
    "address": "JFVR+3X4 ตำบล ท่าตะโก อำเภอ ท่าตะโก",
    "lat": 15.6426467,
    "lng": 100.4924545
  },
  {
    "mu_place": "วัดธารทหาร (ห้วยด้วน) หลวงพ่อพัฒน์ ปุญญกาโม",
    "name": "สุปราณี อาหารสด",
    "rating": 4.4,
    "address": "JFPH+JH2 แก้วหมื่นราม ตำบล ท่าตะโก อำเภอ ท่าตะโก",
    "lat": 15.6365052,
    "lng": 100.4788741
  },
  {
    "mu_place": "วัดธารทหาร (ห้วยด้วน) หลวงพ่อพัฒน์ ปุญญกาโม",
    "name": "ร้านอาหารพาฝัน",
    "rating": 5,
    "address": "7, ตำบล หนองบัว อำเภอ หนองบัว",
    "lat": 15.8661688,
    "lng": 100.5739868
  },
  {
    "mu_place": "วัดธารทหาร (ห้วยด้วน) หลวงพ่อพัฒน์ ปุญญกาโม",
    "name": "แชมป์โภชนา",
    "rating": 4.6,
    "address": "259/29 ตำบล หนองกลับ อำเภอ หนองบัว",
    "lat": 15.8658376,
    "lng": 100.5900147
  },
  {
    "mu_place": "วัดธารทหาร (ห้วยด้วน) หลวงพ่อพัฒน์ ปุญญกาโม",
    "name": "ร้านอาหารครัวลาภปาก",
    "rating": 3.9,
    "address": "JFRR+CFJ ตำบล ท่าตะโก อำเภอ ท่าตะโก",
    "lat": 15.6410834,
    "lng": 100.4912039
  },
  {
    "mu_place": "วัดธารทหาร (ห้วยด้วน) หลวงพ่อพัฒน์ ปุญญกาโม",
    "name": "เจ้มาดี อาหารตามสั่ง",
    "rating": 0,
    "address": "ตำบล ห้วยพุก อำเภอ ดงเจริญ",
    "lat": 15.9754047,
    "lng": 100.5758299
  },
  {
    "mu_place": "วัดธารทหาร (ห้วยด้วน) หลวงพ่อพัฒน์ ปุญญกาโม",
    "name": "ร้านอาหารFcพี่จุ๋มพริ้ง",
    "rating": 5,
    "address": "หมู่ 8 ต พนม รก อ อำเภอ ท่าตะโก",
    "lat": 15.7313019,
    "lng": 100.5067753
  },
  {
    "mu_place": "หลวงพ่อฤาษีลิงดำ( พระราชพรหมยาน)",
    "name": "ร้านอาหารต้นตะขบ",
    "rating": 4.2,
    "address": "557Q+6X9 ตำบล บางหลวง อำเภอสรรพยา",
    "lat": 15.163027,
    "lng": 100.1899815
  },
  {
    "mu_place": "หลวงพ่อฤาษีลิงดำ( พระราชพรหมยาน)",
    "name": "ร้านอาหารเพื่อน",
    "rating": 4.3,
    "address": "99 พิบูลย์ศิริ พิบูลย์ศิริ ตำบล อุทัยใหม่ อำเภอเมืองอุทัยธานี",
    "lat": 15.3751407,
    "lng": 100.0294173
  },
  {
    "mu_place": "หลวงพ่อฤาษีลิงดำ( พระราชพรหมยาน)",
    "name": "ร้านอาหารครัวโบราณ(พยุหคีรี)",
    "rating": 4.1,
    "address": "C4WM+57F ตำบล พยุหะ อำเภอพยุหะคีรี",
    "lat": 15.445438,
    "lng": 100.1333029
  },
  {
    "mu_place": "หลวงพ่อฤาษีลิงดำ( พระราชพรหมยาน)",
    "name": "ร้านอาหารป้าสำราญ",
    "rating": 4.1,
    "address": "93FC+7WP ตำบล เกาะเทโพ อำเภอเมืองอุทัยธานี",
    "lat": 15.3732038,
    "lng": 100.072303
  },
  {
    "mu_place": "หลวงพ่อฤาษีลิงดำ( พระราชพรหมยาน)",
    "name": "ร้านอาหารเกษยานันท์",
    "rating": 3.9,
    "address": "54PF+42C ตำบล ในเมือง อำเภอเมืองชัยนาท",
    "lat": 15.1853084,
    "lng": 100.1225078
  },
  {
    "mu_place": "หลวงพ่อฤาษีลิงดำ( พระราชพรหมยาน)",
    "name": "ร้านอาหารน้องอุ๋ม",
    "rating": 4.2,
    "address": "93HF+C57 ตำบล เกาะเทโพ อำเภอเมืองอุทัยธานี",
    "lat": 15.3785347,
    "lng": 100.0729127
  },
  {
    "mu_place": "หลวงพ่อฤาษีลิงดำ( พระราชพรหมยาน)",
    "name": "ร้านอาหารสมบัติ ชวนชิม",
    "rating": 4.4,
    "address": "93GC+4XR Chao Phraya River, ตำบล เกาะเทโพ อำเภอเมืองอุทัยธานี",
    "lat": 15.3753547,
    "lng": 100.0723952
  },
  {
    "mu_place": "หลวงพ่อฤาษีลิงดำ( พระราชพรหมยาน)",
    "name": "ร้านอาหารปุ๊",
    "rating": 4.5,
    "address": "เลขที่ 335 5 ตำบล บ้านกล้วย อำเภอเมืองชัยนาท",
    "lat": 15.1897939,
    "lng": 100.1306848
  },
  {
    "mu_place": "หลวงพ่อฤาษีลิงดำ( พระราชพรหมยาน)",
    "name": "Saeng Duan Restaurant",
    "rating": 4.3,
    "address": "9362+G27 ตำบล น้ำซึม อำเภอเมืองอุทัยธานี",
    "lat": 15.3612869,
    "lng": 100.0500476
  },
  {
    "mu_place": "หลวงพ่อฤาษีลิงดำ( พระราชพรหมยาน)",
    "name": "ร้านอาหารหอมไกล",
    "rating": 3.6,
    "address": "7365+2Q9 ตำบล มะขามเฒ่า อำเภอ วัดสิงห์",
    "lat": 15.2600301,
    "lng": 100.0594633
  },
  {
    "mu_place": "หลวงพ่อฤาษีลิงดำ( พระราชพรหมยาน)",
    "name": "ร้านป้าเจนครัวริมน้ำ",
    "rating": 4.1,
    "address": "547M+G5Q ตำบล ท่าชัย อำเภอเมืองชัยนาท",
    "lat": 15.1637947,
    "lng": 100.1329951
  },
  {
    "mu_place": "หลวงพ่อฤาษีลิงดำ( พระราชพรหมยาน)",
    "name": "ร้านอาหารหนิง",
    "rating": 5,
    "address": "646J+7H9 ตำบล เขาท่าพระ อำเภอเมืองชัยนาท",
    "lat": 15.2106865,
    "lng": 100.1314604
  },
  {
    "mu_place": "หลวงพ่อฤาษีลิงดำ( พระราชพรหมยาน)",
    "name": "ร้านอาหารเรือนไม้ริมน้ำ",
    "rating": 4.2,
    "address": "187 ตำบล น้ำซึม เมือง",
    "lat": 15.3470578,
    "lng": 100.0612932
  },
  {
    "mu_place": "หลวงพ่อฤาษีลิงดำ( พระราชพรหมยาน)",
    "name": "ร้านอาหารปรียนันท์",
    "rating": 4.3,
    "address": "C4QV+PJH ตำบล พยุหะ อำเภอพยุหะคีรี",
    "lat": 15.439323,
    "lng": 100.1441257
  },
  {
    "mu_place": "หลวงพ่อฤาษีลิงดำ( พระราชพรหมยาน)",
    "name": "นกน้อย สวนอาหาร",
    "rating": 4.1,
    "address": "9 4 ศรีอุทัย ตำบล อุทัยใหม่ อำเภอเมืองอุทัยธานี",
    "lat": 15.3695565,
    "lng": 100.0449475
  },
  {
    "mu_place": "หลวงพ่อฤาษีลิงดำ( พระราชพรหมยาน)",
    "name": "ร้านอาหารบ้านสวน",
    "rating": 4.2,
    "address": "54FG+4XG ตำบล ในเมือง อำเภอเมืองชัยนาท",
    "lat": 15.1728128,
    "lng": 100.1274416
  },
  {
    "mu_place": "หลวงพ่อฤาษีลิงดำ( พระราชพรหมยาน)",
    "name": "ร้านอาหารเฟรชชี่",
    "rating": 4.2,
    "address": "92HG+48H ตำบล อุทัยใหม่ อำเภอเมืองอุทัยธานี",
    "lat": 15.3778182,
    "lng": 100.0258651
  },
  {
    "mu_place": "หลวงพ่อฤาษีลิงดำ( พระราชพรหมยาน)",
    "name": "ร้านอาหารครัวทิดเทือง",
    "rating": 4.2,
    "address": "2/3 หมู่ 1 ต.ท่าน้ำอ้อย อ.พยุหะคีรี",
    "lat": 15.4274496,
    "lng": 100.1379583
  },
  {
    "mu_place": "หลวงพ่อฤาษีลิงดำ( พระราชพรหมยาน)",
    "name": "ครัวคุ้งสำเภา",
    "rating": 4.3,
    "address": "833H+QJF ตำบล ท่าซุง อำเภอเมืองอุทัยธานี",
    "lat": 15.3044369,
    "lng": 100.0790488
  },
  {
    "mu_place": "หลวงพ่อฤาษีลิงดำ( พระราชพรหมยาน)",
    "name": "ร้านอาหารชบา ชัยนาท",
    "rating": 3.9,
    "address": "180 ตำบล บ้านกล้วย อำเภอเมืองชัยนาท",
    "lat": 15.1565762,
    "lng": 100.1617535
  },
  {
    "mu_place": "วัดสายไหม",
    "name": "ร้านอาหารเพลิน",
    "rating": 4.2,
    "address": "7/428 ถนน วิภาวดีรังสิต แขวงจตุจักร เขตจตุจักร",
    "lat": 13.8259653,
    "lng": 100.5571122
  },
  {
    "mu_place": "วัดสายไหม",
    "name": "Chantana - ร้านอาหาร จันทนา",
    "rating": 4.3,
    "address": "852 854 ถ. ประชาอุทิศ แขวงสามเสนนอก เขตห้วยขวาง",
    "lat": 13.7690873,
    "lng": 100.5903625
  },
  {
    "mu_place": "วัดสายไหม",
    "name": "ร้านอาหารแม่น้ำ ปทุมธานี",
    "rating": 4.9,
    "address": "อาคารเรือนแพขาว ตำบล บางปรอก อำเภอเมืองปทุมธานี",
    "lat": 14.0218219,
    "lng": 100.5351672
  },
  {
    "mu_place": "วัดสายไหม",
    "name": "ร้านอาหารหลานโกฮับ",
    "rating": 4.1,
    "address": "RMVF+369 ถนนวงแหวนรอบนอกตะวันออก แขวงคันนายาว เขตคันนายาว",
    "lat": 13.8426082,
    "lng": 100.6731185
  },
  {
    "mu_place": "วัดสายไหม",
    "name": "กินลมชมสะพาน",
    "rating": 4.1,
    "address": "11 6 ถนนจักรพงษ์ แขวงวัดสามพระยา เขตพระนคร",
    "lat": 13.7666469,
    "lng": 100.497129
  },
  {
    "mu_place": "วัดสายไหม",
    "name": "ร้านอาหาร สามเสนวิลล่า พญาไท",
    "rating": 4.5,
    "address": "49/2 ถนน เศรษฐศิริ แขวงพญาไท เขตพญาไท",
    "lat": 13.7806484,
    "lng": 100.5318687
  },
  {
    "mu_place": "วัดสายไหม",
    "name": "ร้านอาหาร ครัวสายไหม",
    "rating": 4.2,
    "address": "6/31 ซอย สายไหม 32 ถนน สายไหม แขวงสายไหม เขตสายไหม",
    "lat": 13.9212257,
    "lng": 100.644538
  },
  {
    "mu_place": "วัดสายไหม",
    "name": "ร้านอาหารมุมทอง",
    "rating": 4.1,
    "address": "155/51 หมู่ 5 หมู่บ้านสมชาย ตำบลบางกรวย อำเภอบางกรวย",
    "lat": 13.8083203,
    "lng": 100.4986441
  },
  {
    "mu_place": "วัดสายไหม",
    "name": "บ้านตา-ยาย ร้านอาหารไทย",
    "rating": 4.4,
    "address": "10 ซอย วิภาวดีรังสิต 13 แขวงจตุจักร เขตจตุจักร",
    "lat": 13.8222788,
    "lng": 100.557107
  },
  {
    "mu_place": "วัดสายไหม",
    "name": "กังตงย้ง ร้านอาหาร",
    "rating": 4.3,
    "address": "12120 ถนน พหลโยธิน 54 1 ตำบล คลองสาม อำเภอคลองหลวง",
    "lat": 14.0232524,
    "lng": 100.6632695
  },
  {
    "mu_place": "วัดสายไหม",
    "name": "ร้านอาหารประพักตร์",
    "rating": 4.3,
    "address": "89/165 ถนน เทศบาลสงเคราะห์ แขวงลาดยาว เขตจตุจักร",
    "lat": 13.8406963,
    "lng": 100.552399
  },
  {
    "mu_place": "วัดสายไหม",
    "name": "ร้านอาหารคุณอี้ด",
    "rating": 3.8,
    "address": "23, 8 ซอย งามวงศ์วาน 54 แยก 1 แขวงลาดยาว เขตจตุจักร",
    "lat": 13.83962,
    "lng": 100.569853
  },
  {
    "mu_place": "วัดสายไหม",
    "name": "ร้านอาหารครัวคุณไก่",
    "rating": 4.3,
    "address": "เลขที่ 489-491 อำเภอธัญบุรี",
    "lat": 13.9897632,
    "lng": 100.6398132
  },
  {
    "mu_place": "วัดสายไหม",
    "name": "ร้านอาหารข้าวใหม่",
    "rating": 4.6,
    "address": "RHMH+3CX แขวงจันทรเกษม เขตจตุจักร",
    "lat": 13.8327455,
    "lng": 100.578617
  },
  {
    "mu_place": "วัดสายไหม",
    "name": "ร้านอาหารโอมออม OHM AOM",
    "rating": 4,
    "address": "ร้านวิเชียรเคหะภัณฑ์ ตำบล คลองสาม อำเภอคลองหลวง",
    "lat": 14.0186076,
    "lng": 100.6635905
  },
  {
    "mu_place": "วัดสายไหม",
    "name": "ร้านอาหาร เอ้เต",
    "rating": 3.9,
    "address": "56 ซอย สมปรารถนา แขวงดินแดง เขตดินแดง",
    "lat": 13.7675246,
    "lng": 100.559853
  },
  {
    "mu_place": "วัดสายไหม",
    "name": "ร้านอาหารไก่เพชร",
    "rating": 4.3,
    "address": "7 6 ซอย ลาดพร้าว 8 แยก 3 แขวงจอมพล เขตจตุจักร",
    "lat": 13.8103274,
    "lng": 100.5642949
  },
  {
    "mu_place": "วัดสายไหม",
    "name": "ร้านอาหาร เมลโล่การ์เด้น",
    "rating": 4.5,
    "address": "10/804 เกษตร - นวมินทร์ แขวงนวลจันทร์ เขตบึงกุ่ม",
    "lat": 13.8276017,
    "lng": 100.6307115
  },
  {
    "mu_place": "วัดสายไหม",
    "name": "ร้านอาหารริมชล",
    "rating": 4.4,
    "address": "811 ถ. นครไชยศรี แขวงถนนนครไชยศรี เขตดุสิต",
    "lat": 13.7894495,
    "lng": 100.5104817
  },
  {
    "mu_place": "วัดสายไหม",
    "name": "หมีแฟมิลี่ สาขา ประชาชื่น",
    "rating": 4.6,
    "address": "280/1 ถ. ประชาชื่น แขวงจตุจักร เขตจตุจักร",
    "lat": 13.8232274,
    "lng": 100.5384329
  },
  {
    "mu_place": "พุทธสถาน จีเต็กลิ้ม",
    "name": "ร้าน ศ พิสดาร",
    "rating": 3.9,
    "address": "133 23-24 ถ. สุวรรณศร ตำบล บ้านใหญ่ อำเภอเมืองนครนายก",
    "lat": 14.2069432,
    "lng": 101.2169531
  },
  {
    "mu_place": "พุทธสถาน จีเต็กลิ้ม",
    "name": "ร้านเลิศรสโภชนา",
    "rating": 4.2,
    "address": "663H+8MP อำเภอเมืองนครนายก",
    "lat": 14.2033019,
    "lng": 101.2291281
  },
  {
    "mu_place": "พุทธสถาน จีเต็กลิ้ม",
    "name": "ครัวมัจฉา Krua Matcha",
    "rating": 4.2,
    "address": "55VW+6HG ตำบล ท่าช้าง อำเภอเมืองนครนายก",
    "lat": 14.1930503,
    "lng": 101.1964571
  },
  {
    "mu_place": "พุทธสถาน จีเต็กลิ้ม",
    "name": "ร้านสามสาว ข้าวแกง",
    "rating": 3.8,
    "address": "305 ตำบล ท่าช้าง อำเภอเมืองนครนายก",
    "lat": 14.2004451,
    "lng": 101.1915144
  },
  {
    "mu_place": "พุทธสถาน จีเต็กลิ้ม",
    "name": "ร้านอาหาร ราดหน้ายอดผัก",
    "rating": 3.7,
    "address": "6635+P9R ตำบล บ้านใหญ่ อำเภอเมืองนครนายก",
    "lat": 14.204359,
    "lng": 101.2083832
  },
  {
    "mu_place": "พุทธสถาน จีเต็กลิ้ม",
    "name": "ร้านอาหารเตยใหญ่",
    "rating": 4.4,
    "address": "48 ม.7 ตำบล บางสมบูรณ์ อำเภอองครักษ์",
    "lat": 14.0199276,
    "lng": 101.124616
  },
  {
    "mu_place": "พุทธสถาน จีเต็กลิ้ม",
    "name": "ร้านอาหารลุงยังปลาเผา",
    "rating": 4.2,
    "address": "169 ตำบลองครักษ์ อำเภอองครักษ์",
    "lat": 14.1172296,
    "lng": 101.0143004
  },
  {
    "mu_place": "พุทธสถาน จีเต็กลิ้ม",
    "name": "ร้านอาหารฌอกะเฌอ",
    "rating": 4.2,
    "address": "98 105 319 ตำบล ไม้เค็ด อำเภอเมืองปราจีนบุรี",
    "lat": 14.1198343,
    "lng": 101.3245503
  },
  {
    "mu_place": "พุทธสถาน จีเต็กลิ้ม",
    "name": "ร้านอาหารครัวลุงดำ",
    "rating": 4.2,
    "address": "18 ถนนศาลเจ้าพ่อองครักษ์ ตำบล ทรายมูล อำเภอองครักษ์",
    "lat": 14.1269528,
    "lng": 101.0137246
  },
  {
    "mu_place": "พุทธสถาน จีเต็กลิ้ม",
    "name": "ร้านอาหารน้องนก (ฤาชาปราจีน)",
    "rating": 4.2,
    "address": "ตำบล โคกไม้ลาย อำเภอเมืองปราจีนบุรี",
    "lat": 14.1501738,
    "lng": 101.3100933
  },
  {
    "mu_place": "พุทธสถาน จีเต็กลิ้ม",
    "name": "ร้านอาหารจันทรกานต์",
    "rating": 4.3,
    "address": "4 M6 National Highway No.3481 Bang Tean ตำบล บางแตน อำเภอ บ้านสร้าง",
    "lat": 13.9006519,
    "lng": 101.1702476
  },
  {
    "mu_place": "พุทธสถาน จีเต็กลิ้ม",
    "name": "ครัวคุ้งน้ำ Khung Nam Restaurant",
    "rating": 4.2,
    "address": "19/1 ม.7 ตำบล ทรายมูล อำเภอองครักษ์",
    "lat": 14.1266468,
    "lng": 101.012983
  },
  {
    "mu_place": "พุทธสถาน จีเต็กลิ้ม",
    "name": "ร้านอาหารเรือนแพ ปราจีนบุรี",
    "rating": 3.9,
    "address": "77 1 ตำบล บางเดชะ อำเภอเมืองปราจีนบุรี",
    "lat": 14.027225,
    "lng": 101.3410985
  },
  {
    "mu_place": "พุทธสถาน จีเต็กลิ้ม",
    "name": "ร้านอาหารนายเต๋า",
    "rating": 0,
    "address": "25X8+57X ทางหลวงชนบท นครนายก ตำบล ศรีจุฬา อำเภอเมืองนครนายก",
    "lat": 14.0480247,
    "lng": 101.1657217
  },
  {
    "mu_place": "พุทธสถาน จีเต็กลิ้ม",
    "name": "ร้านอาหารวิลาวัลย์",
    "rating": 3.9,
    "address": "W5FM+C24 ตำบล บางยาง อำเภอ บ้านสร้าง",
    "lat": 13.9235197,
    "lng": 101.1825878
  },
  {
    "mu_place": "พุทธสถาน จีเต็กลิ้ม",
    "name": "ห้องอาหารสุวดี",
    "rating": 3.5,
    "address": "ข/2 258 ถนนสุวรรณศร ตำบล บ้านใหญ่ อำเภอเมืองนครนายก",
    "lat": 14.2058728,
    "lng": 101.2112655
  },
  {
    "mu_place": "พุทธสถาน จีเต็กลิ้ม",
    "name": "ร้านอาหาร สมใจ",
    "rating": 4.5,
    "address": "554P+9VC ถนน รังสิต - นครนายก ตำบล ดงละคร อำเภอเมืองนครนายก",
    "lat": 14.1559954,
    "lng": 101.1871486
  },
  {
    "mu_place": "พุทธสถาน จีเต็กลิ้ม",
    "name": "ร้านอาหาร",
    "rating": 0,
    "address": "อำเภอเมืองนครนายก",
    "lat": 14.1965201,
    "lng": 101.221707
  },
  {
    "mu_place": "พุทธสถาน จีเต็กลิ้ม",
    "name": "ร้านอาหารมุมเสบียง",
    "rating": 3.9,
    "address": "93 หมู่ 11 ตำบล ไม้เค็ด อำเภอเมืองปราจีนบุรี",
    "lat": 14.1042146,
    "lng": 101.3303389
  },
  {
    "mu_place": "พุทธสถาน จีเต็กลิ้ม",
    "name": "ร้านที่ตามหา",
    "rating": 4.5,
    "address": "ตำบล ดงละคร อำเภอเมืองนครนายก",
    "lat": 14.1512092,
    "lng": 101.1745051
  },
  {
    "mu_place": "ศาลาหลวงปู่ดู่",
    "name": "ร้านอาหารบ้านเคียงน้ำ",
    "rating": 4.1,
    "address": "8H48+W5V ตำบล บ้านรุน อำเภอ พระนครศรีอยุธยา",
    "lat": 14.3073613,
    "lng": 100.5654221
  },
  {
    "mu_place": "ศาลาหลวงปู่ดู่",
    "name": "ร้านอาหารสบายสบาย",
    "rating": 4.6,
    "address": "ตำบล ธนู อำเภออุทัย",
    "lat": 14.3559375,
    "lng": 100.6081875
  },
  {
    "mu_place": "ศาลาหลวงปู่ดู่",
    "name": "ร้านอาหารต้นคูณ อุทัย",
    "rating": 4.4,
    "address": "8PX4+R6J ตำบล สามบัณฑิต อำเภออุทัย",
    "lat": 14.3495836,
    "lng": 100.7055245
  },
  {
    "mu_place": "ศาลาหลวงปู่ดู่",
    "name": "ร้านอาหารศรีกรุง",
    "rating": 3.8,
    "address": "21/2 โรจนะ 1/2 ตำบล ไผ่ลิง อำเภอ พระนครศรีอยุธยา",
    "lat": 14.3552763,
    "lng": 100.5911076
  },
  {
    "mu_place": "ศาลาหลวงปู่ดู่",
    "name": "ร้านอาหารปทุมรัตน์101",
    "rating": 4.4,
    "address": "ร้าน อาหาร ปทุม รั น์ 101 หมู่บ้าน สิน ธิ วา ธานี ต จ อยุธยา, ตำบล สามเรือน อำเภอบางปะอิน",
    "lat": 14.3136306,
    "lng": 100.6366596
  },
  {
    "mu_place": "ศาลาหลวงปู่ดู่",
    "name": "ร้านอาหารมองดูเรือ",
    "rating": 4,
    "address": "35 1 ถ. อู่ทอง ตำบล ประตูชัย อำเภอ พระนครศรีอยุธยา",
    "lat": 14.3496871,
    "lng": 100.5457087
  },
  {
    "mu_place": "ศาลาหลวงปู่ดู่",
    "name": "ร้านอาหารสีกุก",
    "rating": 4.3,
    "address": "118 1 ตำบล พระขาว อำเภอ บางบาล",
    "lat": 14.3230392,
    "lng": 100.4663468
  },
  {
    "mu_place": "ศาลาหลวงปู่ดู่",
    "name": "ร้านอาหารตายาย",
    "rating": 4.4,
    "address": "6HQJ+4F5 ตำบล บ้านเลน อำเภอบางปะอิน",
    "lat": 14.237761,
    "lng": 100.5812208
  },
  {
    "mu_place": "ศาลาหลวงปู่ดู่",
    "name": "ร้านอาหารภูตะวัน",
    "rating": 4.1,
    "address": "58 ตำบล คลองจิก อำเภอบางปะอิน",
    "lat": 14.195342,
    "lng": 100.6106846
  },
  {
    "mu_place": "ศาลาหลวงปู่ดู่",
    "name": "ร้านอาหาร ชบาบาร์น คาเฟ่",
    "rating": 4.4,
    "address": "เลขที่ 100 ตำบล บ้านป้อม อำเภอ พระนครศรีอยุธยา",
    "lat": 14.3359274,
    "lng": 100.5284841
  },
  {
    "mu_place": "ศาลาหลวงปู่ดู่",
    "name": "ร้านอาหาร บ้านไม้ริมน้ำ อยุธยา",
    "rating": 4.2,
    "address": "หมู่ที่ 2, 43/1, ถ. อู่ทอง ต.ประตูชัย",
    "lat": 14.3479253,
    "lng": 100.5695847
  },
  {
    "mu_place": "ศาลาหลวงปู่ดู่",
    "name": "ร้านอาหารโค้งเจ้าพระยา",
    "rating": 3.9,
    "address": "26 3477 ตำบล บ้านโพธิ์ อำเภอบางปะอิน",
    "lat": 14.2632039,
    "lng": 100.5859575
  },
  {
    "mu_place": "ศาลาหลวงปู่ดู่",
    "name": "ร้านคนดีศรีอยุธยา",
    "rating": 4.6,
    "address": "39 76 ม.1 ตำบล บางกระสั้น อำเภอบางปะอิน",
    "lat": 14.2029725,
    "lng": 100.5658526
  },
  {
    "mu_place": "ศาลาหลวงปู่ดู่",
    "name": "ร้านอาหารเรือนแก้ว วังน้อย",
    "rating": 4.6,
    "address": "163 ตำบล ลำไทร อำเภอวังน้อย",
    "lat": 14.2322365,
    "lng": 100.717208
  },
  {
    "mu_place": "ศาลาหลวงปู่ดู่",
    "name": "ร้านอาหารระเบียงแม่น้ำ",
    "rating": 4.1,
    "address": "120 ตำบล คลองสวนพลู ตำบลคลองสวนพลู อำเภอ พระนครศรีอยุธยา",
    "lat": 14.329362,
    "lng": 100.5762202
  },
  {
    "mu_place": "ศาลาหลวงปู่ดู่",
    "name": "ร้านอาหารน้องนุช",
    "rating": 4.3,
    "address": "FJWC+2F2 ตำบล แม่ลา อำเภอนครหลวง",
    "lat": 14.4949454,
    "lng": 100.6212757
  },
  {
    "mu_place": "ศาลาหลวงปู่ดู่",
    "name": "ร้านชายนา",
    "rating": 3.9,
    "address": "8HCF+6W5 ตำบล เกาะเรียน อำเภอ พระนครศรีอยุธยา",
    "lat": 14.3205019,
    "lng": 100.5748659
  },
  {
    "mu_place": "ศาลาหลวงปู่ดู่",
    "name": "ร้านอาหาร ระเบียงวิว อยุธยา",
    "rating": 4.2,
    "address": "52 3, ตำบล วัดตูม, อำเภอ พระนครศรีอยุธยา",
    "lat": 14.4007122,
    "lng": 100.5298859
  },
  {
    "mu_place": "ศาลาหลวงปู่ดู่",
    "name": "ร้านอาหาร บ้านพิมพ์",
    "rating": 4.2,
    "address": "8HXR+HVJ 3477 ตำบล ไผ่ลิง อำเภอ พระนครศรีอยุธยา",
    "lat": 14.3489643,
    "lng": 100.5921501
  },
  {
    "mu_place": "ศาลาหลวงปู่ดู่",
    "name": "Venice Restaurant - ร้านอาหารเวนิส",
    "rating": 3.9,
    "address": "ข 28 1-3 ถ. อู่ทอง อำเภอ พระนครศรีอยุธยา",
    "lat": 14.3527471,
    "lng": 100.5806247
  },
  {
    "mu_place": "วัดดาวดึงษาราม",
    "name": "ร้านอาหารเพลิน",
    "rating": 4.2,
    "address": "7/428 ถนน วิภาวดีรังสิต แขวงจตุจักร เขตจตุจักร",
    "lat": 13.8259653,
    "lng": 100.5571122
  },
  {
    "mu_place": "วัดดาวดึงษาราม",
    "name": "กินลมชมสะพาน",
    "rating": 4.1,
    "address": "11 6 ถนนจักรพงษ์ แขวงวัดสามพระยา เขตพระนคร",
    "lat": 13.7666469,
    "lng": 100.497129
  },
  {
    "mu_place": "วัดดาวดึงษาราม",
    "name": "ร้านอาหารประพักตร์",
    "rating": 4.3,
    "address": "89/165 ถนน เทศบาลสงเคราะห์ แขวงลาดยาว เขตจตุจักร",
    "lat": 13.8406963,
    "lng": 100.552399
  },
  {
    "mu_place": "วัดดาวดึงษาราม",
    "name": "ร้านอาหารข้าวใหม่",
    "rating": 4.6,
    "address": "RHMH+3CX แขวงจันทรเกษม เขตจตุจักร",
    "lat": 13.8327455,
    "lng": 100.578617
  },
  {
    "mu_place": "วัดดาวดึงษาราม",
    "name": "Three Mangoes บ้านไทย ชายคลอง",
    "rating": 4.2,
    "address": "76 1 ถ. นครอินทร์ ตำบล บางขนุน อำเภอบางกรวย",
    "lat": 13.8237315,
    "lng": 100.4670198
  },
  {
    "mu_place": "วัดดาวดึงษาราม",
    "name": "ร้านอาหารเลอ อัญญ์",
    "rating": 4.1,
    "address": "แขวงบางขุนศรี เขตบางกอกน้อย",
    "lat": 13.761189,
    "lng": 100.4693039
  },
  {
    "mu_place": "วัดดาวดึงษาราม",
    "name": "Bajika Restaurant (ร้านอาหารบาจิกา)",
    "rating": 4.4,
    "address": "46/4 ถ. กาญจนาภิเษก แขวงศาลาธรรมสพน์ เขตทวีวัฒนา",
    "lat": 13.7701897,
    "lng": 100.4069093
  },
  {
    "mu_place": "วัดดาวดึงษาราม",
    "name": "ร้านอาหารรับลม",
    "rating": 4.1,
    "address": "หมู่ที่1 26/2 ถ. บางกรวย - ไทรน้อย ตำบล บางรักพัฒนา อำเภอบางบัวทอง",
    "lat": 13.9063534,
    "lng": 100.4272884
  },
  {
    "mu_place": "วัดดาวดึงษาราม",
    "name": "หมีแฟมิลี่ สาขา ประชาชื่น",
    "rating": 4.6,
    "address": "280/1 ถ. ประชาชื่น แขวงจตุจักร เขตจตุจักร",
    "lat": 13.8232274,
    "lng": 100.5384329
  },
  {
    "mu_place": "วัดดาวดึงษาราม",
    "name": "ร้านอาหาร สวนลุงพร",
    "rating": 4.6,
    "address": "2 2 ตำบล แพรกษา อำเภอเมืองสมุทรปราการ",
    "lat": 13.5877449,
    "lng": 100.6419076
  },
  {
    "mu_place": "วัดดาวดึงษาราม",
    "name": "ร้านอาหาร ครกไม้ไทยลาว ซอยลาดปลาเค้า 24",
    "rating": 4.3,
    "address": "8 ซ. ลาดปลาเค้า 24 แขวงจรเข้บัว เขตลาดพร้าว",
    "lat": 13.8401614,
    "lng": 100.5958436
  },
  {
    "mu_place": "วัดดาวดึงษาราม",
    "name": "ร้านอาหารรสสุคนธ์",
    "rating": 4.1,
    "address": "299 12 หมู่ 5 ถ. ศรีนครินทร์ ตำบล บางเมือง อำเภอเมืองสมุทรปราการ",
    "lat": 13.6151095,
    "lng": 100.6209244
  },
  {
    "mu_place": "วัดดาวดึงษาราม",
    "name": "T and T Restaurant",
    "rating": 4.3,
    "address": "359 เทศบาลนิมิตใต้ ซอย 7 แขวงลาดยาว เขตจตุจักร",
    "lat": 13.8363602,
    "lng": 100.5495098
  },
  {
    "mu_place": "วัดดาวดึงษาราม",
    "name": "ร้านอาหารแกงป่า(ลุงสง่า)",
    "rating": 4.4,
    "address": "285 162 ซ. งามวงศ์วาน 23 แยก 11 ตำบลบางเขน อำเภอเมือง",
    "lat": 13.8651608,
    "lng": 100.5355962
  },
  {
    "mu_place": "วัดดาวดึงษาราม",
    "name": "ร้านอาหารลงแพ หรือ @บางขวด",
    "rating": 4.3,
    "address": "3 ซอย นวลจันทร์ 56 แขวงนวลจันทร์ เขตบึงกุ่ม",
    "lat": 13.8328813,
    "lng": 100.6462978
  },
  {
    "mu_place": "วัดดาวดึงษาราม",
    "name": "ร้านอาหารบ้านใบบัว",
    "rating": 4.3,
    "address": "13, 37 ถ. วงแหวนอุตสาหกรรม ลัดหลวง อำเภอพระประแดง",
    "lat": 13.6646477,
    "lng": 100.5233595
  },
  {
    "mu_place": "วัดดาวดึงษาราม",
    "name": "ร้านอาหารอีสาน เป็นตาแซ่บ",
    "rating": 4.3,
    "address": "23 ซอย เทิดราชัน 43 แขวงสีกัน เขตดอนเมือง",
    "lat": 13.9441119,
    "lng": 100.5863427
  },
  {
    "mu_place": "วัดดาวดึงษาราม",
    "name": "ร้านระเบียงเคียงน้ำ 77",
    "rating": 4.1,
    "address": "เลขที่ 76/1 ซอย หมู่ 3 ตำบล บางตะไนย์ อำเภอปากเกร็ด",
    "lat": 13.9180431,
    "lng": 100.4951132
  },
  {
    "mu_place": "วัดดาวดึงษาราม",
    "name": "ร้านอาหาร ศรีกร",
    "rating": 4.3,
    "address": "233 ถ. สุขุมวิท ตำบลปากน้ำ อำเภอเมืองสมุทรปราการ",
    "lat": 13.601827,
    "lng": 100.5974659
  },
  {
    "mu_place": "วัดดาวดึงษาราม",
    "name": "ประจักษ์",
    "rating": 4.2,
    "address": "1415 ถ. เจริญกรุง แขวงสีลม เขตบางรัก",
    "lat": 13.7203946,
    "lng": 100.5160089
  },
  {
    "mu_place": "วิหารหลวงพ่อสำเร็จศักดิ์สิทธิ์",
    "name": "ร้านอาหารสบายสบาย",
    "rating": 4.6,
    "address": "ตำบล ธนู อำเภออุทัย",
    "lat": 14.3559375,
    "lng": 100.6081875
  },
  {
    "mu_place": "วิหารหลวงพ่อสำเร็จศักดิ์สิทธิ์",
    "name": "ร้านอาหารต้นคูณ อุทัย",
    "rating": 4.4,
    "address": "8PX4+R6J ตำบล สามบัณฑิต อำเภออุทัย",
    "lat": 14.3495836,
    "lng": 100.7055245
  },
  {
    "mu_place": "วิหารหลวงพ่อสำเร็จศักดิ์สิทธิ์",
    "name": "ร้านอาหารบ้านสวนหนองแค",
    "rating": 4.3,
    "address": "116 ถ. พหลโยธิน ตำบล หนองแค อำเภอหนองแค",
    "lat": 14.3479942,
    "lng": 100.8680251
  },
  {
    "mu_place": "วิหารหลวงพ่อสำเร็จศักดิ์สิทธิ์",
    "name": "ร้านอาหารซุ้มกอ",
    "rating": 4.1,
    "address": "GVXR+6VQ ถ. เทศบาล 5 ตำบล ดาวเรือง อำเภอเมืองสระบุรี",
    "lat": 14.5480483,
    "lng": 100.8921944
  },
  {
    "mu_place": "วิหารหลวงพ่อสำเร็จศักดิ์สิทธิ์",
    "name": "ร้านอาหารปทุมรัตน์101",
    "rating": 4.4,
    "address": "ร้าน อาหาร ปทุม รั น์ 101 หมู่บ้าน สิน ธิ วา ธานี ต จ อยุธยา, ตำบล สามเรือน อำเภอบางปะอิน",
    "lat": 14.3136306,
    "lng": 100.6366596
  },
  {
    "mu_place": "วิหารหลวงพ่อสำเร็จศักดิ์สิทธิ์",
    "name": "ร้านอาหารริมคลองชล",
    "rating": 4.2,
    "address": "700/15 ปากเพรียว",
    "lat": 14.5401085,
    "lng": 100.892542
  },
  {
    "mu_place": "วิหารหลวงพ่อสำเร็จศักดิ์สิทธิ์",
    "name": "ร้านอาหารคุณ",
    "rating": 4.2,
    "address": "55 ถ. สุวรรณศร ตำบล โคกแย้ อำเภอหนองแค",
    "lat": 14.4036298,
    "lng": 100.9001636
  },
  {
    "mu_place": "วิหารหลวงพ่อสำเร็จศักดิ์สิทธิ์",
    "name": "ร้านอาหารน้องนุช",
    "rating": 4.3,
    "address": "FJWC+2F2 ตำบล แม่ลา อำเภอนครหลวง",
    "lat": 14.4949454,
    "lng": 100.6212757
  },
  {
    "mu_place": "วิหารหลวงพ่อสำเร็จศักดิ์สิทธิ์",
    "name": "ร้านอาหารเรือนแก้ว วังน้อย",
    "rating": 4.6,
    "address": "163 ตำบล ลำไทร อำเภอวังน้อย",
    "lat": 14.2322365,
    "lng": 100.717208
  },
  {
    "mu_place": "วิหารหลวงพ่อสำเร็จศักดิ์สิทธิ์",
    "name": "ร้านอาหารริมชล หนองแค",
    "rating": 4.1,
    "address": "2/2 ถ. พหลโยธินสายเก่า ตำบล หนองแค อำเภอหนองแค",
    "lat": 14.3384517,
    "lng": 100.8532867
  },
  {
    "mu_place": "วิหารหลวงพ่อสำเร็จศักดิ์สิทธิ์",
    "name": "ร้านอาหารกุ้งเพื่อนแพรว",
    "rating": 4.2,
    "address": "98/8 กุ้งเพื่อนแพรว ตลาดกลางฯ ถ.สายเอเชีย",
    "lat": 14.3707771,
    "lng": 100.6113967
  },
  {
    "mu_place": "วิหารหลวงพ่อสำเร็จศักดิ์สิทธิ์",
    "name": "ร้านอาหาร \"สวนไผ่นายอ๊อด\"",
    "rating": 4.4,
    "address": "39 39 2 ตำบล ท่าเจ้าสนุก อำเภอ ท่าเรือ",
    "lat": 14.5488202,
    "lng": 100.7183708
  },
  {
    "mu_place": "วิหารหลวงพ่อสำเร็จศักดิ์สิทธิ์",
    "name": "ร้านอาหารมายเฟรนด์",
    "rating": 4,
    "address": "ร้านอาหารมายเฟรนด์ 7/11 ตำบล ท่าเรือ อำเภอ ท่าเรือ",
    "lat": 14.5700209,
    "lng": 100.7264601
  },
  {
    "mu_place": "วิหารหลวงพ่อสำเร็จศักดิ์สิทธิ์",
    "name": "ร้านอาหารบ้านนาปลาเผา",
    "rating": 4.2,
    "address": "HW77+FG3 ตำบล ดาวเรือง อำเภอเมืองสระบุรี",
    "lat": 14.5636093,
    "lng": 100.9137977
  },
  {
    "mu_place": "วิหารหลวงพ่อสำเร็จศักดิ์สิทธิ์",
    "name": "ร้านอาหารต้อมแควป่าสัก",
    "rating": 4,
    "address": "ตำบล เสาไห้ อำเภอ เสาไห้",
    "lat": 14.5554085,
    "lng": 100.8563926
  },
  {
    "mu_place": "วิหารหลวงพ่อสำเร็จศักดิ์สิทธิ์",
    "name": "ร้านบ้านน้ำเคียงฟ้า",
    "rating": 4.2,
    "address": "สุดบรรทัด ตำบล ปากเพรียว อำเภอเมืองสระบุรี",
    "lat": 14.527157,
    "lng": 100.9311819
  },
  {
    "mu_place": "วิหารหลวงพ่อสำเร็จศักดิ์สิทธิ์",
    "name": "ร้านอาหาร เจ็ดทับสอง",
    "rating": 4.8,
    "address": "HV3P+566 ตำบล นาโฉง อำเภอเมืองสระบุรี",
    "lat": 14.5529124,
    "lng": 100.8855123
  },
  {
    "mu_place": "วิหารหลวงพ่อสำเร็จศักดิ์สิทธิ์",
    "name": "ร้านอาหารระเบียงกะเพรา ท่าเรือ",
    "rating": 4.5,
    "address": "ซินแสน้อย ถนนสายท่าเรือ(เทศบาล5)-บ้านร่อม ใกล้สนามชนไก่เพชรชมพู-ศาลเจ้า ตำบล ท่าเจ้าสนุก อำเภอ ท่าเรือ",
    "lat": 14.5645462,
    "lng": 100.7073592
  },
  {
    "mu_place": "วิหารหลวงพ่อสำเร็จศักดิ์สิทธิ์",
    "name": "ร้านอาหารครัวไทย",
    "rating": 3.9,
    "address": "GXV4+F5X ตำบล ตลิ่งชัน อำเภอเมืองสระบุรี",
    "lat": 14.5437383,
    "lng": 100.9554824
  },
  {
    "mu_place": "วิหารหลวงพ่อสำเร็จศักดิ์สิทธิ์",
    "name": "ร้านอาหารส.ข้าวหอม",
    "rating": 4.4,
    "address": "HP8G+X8W ทางหลวงแผ่นดินหมายเลข 3023 ตำบล ท่าเรือ อำเภอ ท่าเรือ",
    "lat": 14.5674887,
    "lng": 100.725833
  },
  {
    "mu_place": "หลวงพ่อรวย วัดตะโก",
    "name": "ร้านอาหารสบายสบาย",
    "rating": 4.6,
    "address": "ตำบล ธนู อำเภออุทัย",
    "lat": 14.3559375,
    "lng": 100.6081875
  },
  {
    "mu_place": "หลวงพ่อรวย วัดตะโก",
    "name": "ร้านอาหารคลองบุญ เจ้าปลุก 3",
    "rating": 4.4,
    "address": "ตำบล เจ้าปลุก อำเภอมหาราช",
    "lat": 14.5756785,
    "lng": 100.5334636
  },
  {
    "mu_place": "หลวงพ่อรวย วัดตะโก",
    "name": "ร้านอาหารต้นคูณ อุทัย",
    "rating": 4.4,
    "address": "8PX4+R6J ตำบล สามบัณฑิต อำเภออุทัย",
    "lat": 14.3495836,
    "lng": 100.7055245
  },
  {
    "mu_place": "หลวงพ่อรวย วัดตะโก",
    "name": "ร้านอาหารบ้านสวนหนองแค",
    "rating": 4.3,
    "address": "116 ถ. พหลโยธิน ตำบล หนองแค อำเภอหนองแค",
    "lat": 14.3479942,
    "lng": 100.8680251
  },
  {
    "mu_place": "หลวงพ่อรวย วัดตะโก",
    "name": "ร้านอาหารศรีกรุง",
    "rating": 3.8,
    "address": "21/2 โรจนะ 1/2 ตำบล ไผ่ลิง อำเภอ พระนครศรีอยุธยา",
    "lat": 14.3552763,
    "lng": 100.5911076
  },
  {
    "mu_place": "หลวงพ่อรวย วัดตะโก",
    "name": "ร้านอาหารครัวคุณติ๋ม",
    "rating": 4.3,
    "address": "HRH2+Q9H ตำบล บ้านยาง อำเภอ เสาไห้",
    "lat": 14.5794259,
    "lng": 100.8009949
  },
  {
    "mu_place": "หลวงพ่อรวย วัดตะโก",
    "name": "ร้านอาหารซุ้มกอ",
    "rating": 4.1,
    "address": "GVXR+6VQ ถ. เทศบาล 5 ตำบล ดาวเรือง อำเภอเมืองสระบุรี",
    "lat": 14.5480483,
    "lng": 100.8921944
  },
  {
    "mu_place": "หลวงพ่อรวย วัดตะโก",
    "name": "ร้านอาหารปทุมรัตน์101",
    "rating": 4.4,
    "address": "ร้าน อาหาร ปทุม รั น์ 101 หมู่บ้าน สิน ธิ วา ธานี ต จ อยุธยา, ตำบล สามเรือน อำเภอบางปะอิน",
    "lat": 14.3136306,
    "lng": 100.6366596
  },
  {
    "mu_place": "หลวงพ่อรวย วัดตะโก",
    "name": "ร้านอาหารริมคลองชล",
    "rating": 4.2,
    "address": "700/15 ปากเพรียว",
    "lat": 14.5401085,
    "lng": 100.892542
  },
  {
    "mu_place": "หลวงพ่อรวย วัดตะโก",
    "name": "ร้านอาหารมองดูเรือ",
    "rating": 4,
    "address": "35 1 ถ. อู่ทอง ตำบล ประตูชัย อำเภอ พระนครศรีอยุธยา",
    "lat": 14.3496871,
    "lng": 100.5457087
  },
  {
    "mu_place": "หลวงพ่อรวย วัดตะโก",
    "name": "ร้านอาหาร บ้านไม้ริมน้ำ อยุธยา",
    "rating": 4.2,
    "address": "หมู่ที่ 2, 43/1, ถ. อู่ทอง ต.ประตูชัย",
    "lat": 14.3479253,
    "lng": 100.5695847
  },
  {
    "mu_place": "หลวงพ่อรวย วัดตะโก",
    "name": "ร้านอาหารคุณ",
    "rating": 4.2,
    "address": "55 ถ. สุวรรณศร ตำบล โคกแย้ อำเภอหนองแค",
    "lat": 14.4036298,
    "lng": 100.9001636
  },
  {
    "mu_place": "หลวงพ่อรวย วัดตะโก",
    "name": "ร้านอาหารระเบียงแม่น้ำ",
    "rating": 4.1,
    "address": "120 ตำบล คลองสวนพลู ตำบลคลองสวนพลู อำเภอ พระนครศรีอยุธยา",
    "lat": 14.329362,
    "lng": 100.5762202
  },
  {
    "mu_place": "หลวงพ่อรวย วัดตะโก",
    "name": "ร้านอาหารน้องนุช",
    "rating": 4.3,
    "address": "FJWC+2F2 ตำบล แม่ลา อำเภอนครหลวง",
    "lat": 14.4949454,
    "lng": 100.6212757
  },
  {
    "mu_place": "หลวงพ่อรวย วัดตะโก",
    "name": "ร้านชายนา",
    "rating": 3.9,
    "address": "8HCF+6W5 ตำบล เกาะเรียน อำเภอ พระนครศรีอยุธยา",
    "lat": 14.3205019,
    "lng": 100.5748659
  },
  {
    "mu_place": "หลวงพ่อรวย วัดตะโก",
    "name": "ร้านอาหารริมชล หนองแค",
    "rating": 4.1,
    "address": "2/2 ถ. พหลโยธินสายเก่า ตำบล หนองแค อำเภอหนองแค",
    "lat": 14.3384517,
    "lng": 100.8532867
  },
  {
    "mu_place": "หลวงพ่อรวย วัดตะโก",
    "name": "ร้านอาหาร บ้านพิมพ์",
    "rating": 4.2,
    "address": "8HXR+HVJ 3477 ตำบล ไผ่ลิง อำเภอ พระนครศรีอยุธยา",
    "lat": 14.3489643,
    "lng": 100.5921501
  },
  {
    "mu_place": "หลวงพ่อรวย วัดตะโก",
    "name": "Venice Restaurant - ร้านอาหารเวนิส",
    "rating": 3.9,
    "address": "ข 28 1-3 ถ. อู่ทอง อำเภอ พระนครศรีอยุธยา",
    "lat": 14.3527471,
    "lng": 100.5806247
  },
  {
    "mu_place": "หลวงพ่อรวย วัดตะโก",
    "name": "ร้านอาหารครัวคนไท",
    "rating": 4.3,
    "address": "16/1 71/1 บ้าน ยาง, ตำบล บ้านยาง อำเภอ เสาไห้",
    "lat": 14.5812793,
    "lng": 100.8035473
  },
  {
    "mu_place": "หลวงพ่อรวย วัดตะโก",
    "name": "ร้านอาหารอยุธยารมณ์",
    "rating": 4.2,
    "address": "1 1 ตำบล บ้านป้อม อำเภอ พระนครศรีอยุธยา",
    "lat": 14.3533326,
    "lng": 100.5461572
  },
  {
    "mu_place": "ศาลเจ้าหน่าจาซาไท้จื้อ อ่างศิลา",
    "name": "ร้านอาหารคุณเหมียว",
    "rating": 4.2,
    "address": "ถนนบายพาส ตำบล หนองไม้แดง อำเภอเมืองชลบุรี",
    "lat": 13.3966159,
    "lng": 101.0085631
  },
  {
    "mu_place": "ศาลเจ้าหน่าจาซาไท้จื้อ อ่างศิลา",
    "name": "ร้านอาหารครัวยายชิ้น",
    "rating": 4.2,
    "address": "เลขที่ 348 ถนน ซอย ศรีบัญญัติ อำเภอเมืองชลบุรี",
    "lat": 13.3660339,
    "lng": 100.9786688
  },
  {
    "mu_place": "ศาลเจ้าหน่าจาซาไท้จื้อ อ่างศิลา",
    "name": "ร้านอาหารสิริรส",
    "rating": 4.4,
    "address": "วชิรปราการ ตำบล บางปลาสร้อย อำเภอเมืองชลบุรี",
    "lat": 13.3576974,
    "lng": 100.9834612
  },
  {
    "mu_place": "ศาลเจ้าหน่าจาซาไท้จื้อ อ่างศิลา",
    "name": "ร้านอาหารแม่พลอยโภชนา",
    "rating": 4.6,
    "address": "369/115 สุรศักดิ์ อำเภอศรีราชา",
    "lat": 13.1535927,
    "lng": 100.939995
  },
  {
    "mu_place": "ศาลเจ้าหน่าจาซาไท้จื้อ อ่างศิลา",
    "name": "ห้องอาหารดีพร้อม​",
    "rating": 4.4,
    "address": "No.7, ถนน ลงหาดบางแสน อำเภอเมืองชลบุรี",
    "lat": 13.3005936,
    "lng": 100.9020602
  },
  {
    "mu_place": "ศาลเจ้าหน่าจาซาไท้จื้อ อ่างศิลา",
    "name": "ร้านอาหารป้า (เจ้าเก่านาเกลือ)",
    "rating": 4.2,
    "address": "หมู่ที่ 4 257 ตำบล บางพระ อำเภอศรีราชา",
    "lat": 13.1830729,
    "lng": 100.9689492
  },
  {
    "mu_place": "ศาลเจ้าหน่าจาซาไท้จื้อ อ่างศิลา",
    "name": "ร้านอาหารบ้านกลางสวน",
    "rating": 4.7,
    "address": "สุรศักดิ์ อำเภอศรีราชา",
    "lat": 13.155077,
    "lng": 100.9712186
  },
  {
    "mu_place": "ศาลเจ้าหน่าจาซาไท้จื้อ อ่างศิลา",
    "name": "ร้านอาหาร บัวหลวง",
    "rating": 4.4,
    "address": "ตำบล ดอนหัวฬอ อำเภอเมืองชลบุรี",
    "lat": 13.4380783,
    "lng": 101.0606346
  },
  {
    "mu_place": "ศาลเจ้าหน่าจาซาไท้จื้อ อ่างศิลา",
    "name": "ร้านอาหารเดชา ศรีราชา",
    "rating": 4.2,
    "address": "5W9X+PPF สุรศักดิ์ อำเภอศรีราชา",
    "lat": 13.1693552,
    "lng": 100.9493576
  },
  {
    "mu_place": "ศาลเจ้าหน่าจาซาไท้จื้อ อ่างศิลา",
    "name": "ร้านอาหารหลังเขา",
    "rating": 4,
    "address": "เลขที่ 84/8 ถนน สายบายพาส ตำบล หนองไม้แดง อำเภอเมืองชลบุรี",
    "lat": 13.3999954,
    "lng": 101.0053018
  },
  {
    "mu_place": "ศาลเจ้าหน่าจาซาไท้จื้อ อ่างศิลา",
    "name": "ร้านอาหารไผ่ทะเล",
    "rating": 3.9,
    "address": "FVFM+34G จันทร์เกษม ตำบล สองคลอง อำเภอบางปะกง",
    "lat": 13.4727421,
    "lng": 100.8828493
  },
  {
    "mu_place": "ศาลเจ้าหน่าจาซาไท้จื้อ อ่างศิลา",
    "name": "ร้านอาหารDream2Dream",
    "rating": 4.6,
    "address": "1/4 หมู่ 1 ทองเหลือง ตำบล ดอน หัว ฬ่ อ อ เมือง ชลบุรี",
    "lat": 13.4030269,
    "lng": 101.0550073
  },
  {
    "mu_place": "ศาลเจ้าหน่าจาซาไท้จื้อ อ่างศิลา",
    "name": "ร้านอาหารกลิ่นแก้ว",
    "rating": 4,
    "address": "ซอย ศรีราชา-หนองยายบู่ 10 สุรศักดิ์ อำเภอศรีราชา",
    "lat": 13.1584748,
    "lng": 100.9404233
  },
  {
    "mu_place": "ศาลเจ้าหน่าจาซาไท้จื้อ อ่างศิลา",
    "name": "ร้านอาหารช่อชบา อ.บ้านบึง",
    "rating": 4.4,
    "address": "999/51, ถนน ชลบุรี-บ้านบึง ตำบล บ้านบึง อำเภอบ้านบึง",
    "lat": 13.321104,
    "lng": 101.1017138
  },
  {
    "mu_place": "ศาลเจ้าหน่าจาซาไท้จื้อ อ่างศิลา",
    "name": "คุณรักษ์ ร้านอาหาร",
    "rating": 4.2,
    "address": "178 ถ. สุขุมวิท ตำบลแสนสุข อำเภอเมืองชลบุรี",
    "lat": 13.2809781,
    "lng": 100.9365471
  },
  {
    "mu_place": "ศาลเจ้าหน่าจาซาไท้จื้อ อ่างศิลา",
    "name": "ร้านอาหารไทยชาววังเทียบทอง",
    "rating": 4.2,
    "address": "880 6-7 ถ. สุขุมวิท ตำบล บางปลาสร้อย อำเภอเมืองชลบุรี",
    "lat": 13.3660881,
    "lng": 100.9903785
  },
  {
    "mu_place": "ศาลเจ้าหน่าจาซาไท้จื้อ อ่างศิลา",
    "name": "ร้านอาหารพูพาน",
    "rating": 4,
    "address": "253/26 ถ.นาพร้าว (อัสสัม-สวนเสือ สุรศักดิ์ อำเภอศรีราชา",
    "lat": 13.1566169,
    "lng": 100.9728199
  },
  {
    "mu_place": "ศาลเจ้าหน่าจาซาไท้จื้อ อ่างศิลา",
    "name": "ร้านอาหาร อ อูมซีฟู้ด",
    "rating": 4,
    "address": "89/4 3 ตำบล บางทราย อำเภอเมืองชลบุรี",
    "lat": 13.3850667,
    "lng": 100.9883508
  },
  {
    "mu_place": "ศาลเจ้าหน่าจาซาไท้จื้อ อ่างศิลา",
    "name": "ไก่อบโอ่งเขาเขียว (สูตรต้นตำรับ)​",
    "rating": 4.2,
    "address": "6238+WWM ตำบล บางพระ อำเภอศรีราชา",
    "lat": 13.2048286,
    "lng": 101.0173093
  },
  {
    "mu_place": "ศาลเจ้าหน่าจาซาไท้จื้อ อ่างศิลา",
    "name": "ร้านอาหารครัวต้นปีบ",
    "rating": 4.3,
    "address": "8XJ6+6QH ตำบล เสม็ด อำเภอเมืองชลบุรี",
    "lat": 13.3305902,
    "lng": 100.9619725
  },
  {
    "mu_place": "อนุสาวรีย์ พระนางเลือดขาว แม่เจ้าอยู่หัว",
    "name": "ร้านเยี่ยมโอชา",
    "rating": 4.4,
    "address": "51 ถ.จันทรานนท์ ตำบล ชะอวด อำเภอ ชะอวด",
    "lat": 7.9649344,
    "lng": 99.9953507
  },
  {
    "mu_place": "อนุสาวรีย์ พระนางเลือดขาว แม่เจ้าอยู่หัว",
    "name": "ร้านครูหนั่น",
    "rating": 4.8,
    "address": "11 ม .10 บ้านลำคลอง เขาพังไกร อำเภอ หัวไทร",
    "lat": 7.9997474,
    "lng": 100.2703073
  },
  {
    "mu_place": "อนุสาวรีย์ พระนางเลือดขาว แม่เจ้าอยู่หัว",
    "name": "ร้านอาหารโอเค",
    "rating": 4.1,
    "address": "ชะอวด 28 ถ.วุฒิราษฎร์รังสฤษดิ์ ข้างโลตัสสาขาละอวด เขตเทศบาล อำเภอ ชะอวด",
    "lat": 7.967057,
    "lng": 99.9966541
  },
  {
    "mu_place": "อนุสาวรีย์ พระนางเลือดขาว แม่เจ้าอยู่หัว",
    "name": "ร้านอาหารนั่งเล่นชะอวด",
    "rating": 4,
    "address": "1ซ.บุญช่วย ชะอวด อำเภอ ชะอวด",
    "lat": 7.968742600000001,
    "lng": 99.99561089999999
  },
  {
    "mu_place": "อนุสาวรีย์ พระนางเลือดขาว แม่เจ้าอยู่หัว",
    "name": "ร้าน พรเพ็ญ อาหารตามสั่ง ก๋วยเตี๋ยว",
    "rating": 3.9,
    "address": "268Q+4QR Unnamed Road ตำบล ทรายขาว อำเภอ หัวไทร",
    "lat": 8.0153531,
    "lng": 100.2393996
  },
  {
    "mu_place": "อนุสาวรีย์ พระนางเลือดขาว แม่เจ้าอยู่หัว",
    "name": "ร้านอาหารบ้านแม่เอียด โดยนางประโลมศรี วิรัตินันต์",
    "rating": 4.8,
    "address": "077 ตำบลบ้านเนิน อำเภอ เชียรใหญ่",
    "lat": 8.111336999999999,
    "lng": 100.097493
  },
  {
    "mu_place": "อนุสาวรีย์ พระนางเลือดขาว แม่เจ้าอยู่หัว",
    "name": "ร้านครัวน้าดับ",
    "rating": 4.2,
    "address": "33VQ+QRX 4151 ตำบล แม่เจ้าอยู่หัว อำเภอ เชียรใหญ่",
    "lat": 8.0944788,
    "lng": 100.089616
  },
  {
    "mu_place": "อนุสาวรีย์ พระนางเลือดขาว แม่เจ้าอยู่หัว",
    "name": "ร้านน้าม่อน ก๋วยเตี๋ยวเนื้อตุ๋น อาหารตามสั่ง",
    "rating": 4.4,
    "address": "34R8+GQ8 408 ตำบล แม่เจ้าอยู่หัว อำเภอ เชียรใหญ่",
    "lat": 8.0912832,
    "lng": 100.1169685
  },
  {
    "mu_place": "อนุสาวรีย์ พระนางเลือดขาว แม่เจ้าอยู่หัว",
    "name": "ร้านอาหารนกน้อย",
    "rating": 5,
    "address": "XXCV+F37 ตำบล ชะอวด อำเภอ ชะอวด",
    "lat": 7.971165800000001,
    "lng": 99.9926807
  },
  {
    "mu_place": "อนุสาวรีย์ พระนางเลือดขาว แม่เจ้าอยู่หัว",
    "name": "ร้านอาหารแซบอีหลี",
    "rating": 1,
    "address": "XXCW+5CW ตำบล ชะอวด อำเภอ ชะอวด",
    "lat": 7.970466,
    "lng": 99.9959603
  },
  {
    "mu_place": "อนุสาวรีย์ พระนางเลือดขาว แม่เจ้าอยู่หัว",
    "name": "ลูกเกด",
    "rating": 4.4,
    "address": "435W+7X3 ทางหลวงจังหวัดหมายเลข 4151 เชียรใหญ่ อำเภอ เชียรใหญ่",
    "lat": 8.1081303,
    "lng": 100.0974327
  },
  {
    "mu_place": "อนุสาวรีย์ พระนางเลือดขาว แม่เจ้าอยู่หัว",
    "name": "ร้านอาหารตามสั่งเจ๊แมว",
    "rating": 1,
    "address": "4WVH+W5V ต, ตำบล ควนชุม อำเภอร่อนพิบูลย์",
    "lat": 8.144901899999999,
    "lng": 99.9279071
  },
  {
    "mu_place": "อนุสาวรีย์ พระนางเลือดขาว แม่เจ้าอยู่หัว",
    "name": "ร้านน้องปอย อาหารตามสั่ง อาหารอีสาน",
    "rating": 5,
    "address": "15 หมู่ 3 ตำบล สวนหลวง อำเภอ เฉลิมพระเกียรติ",
    "lat": 8.1445721,
    "lng": 100.0663162
  },
  {
    "mu_place": "อนุสาวรีย์ พระนางเลือดขาว แม่เจ้าอยู่หัว",
    "name": "ร้านเรณู",
    "rating": 3.9,
    "address": "27WG+MWH 408 ตำบล หัวไทร อำเภอ หัวไทร",
    "lat": 8.0466616,
    "lng": 100.277351
  },
  {
    "mu_place": "อนุสาวรีย์ พระนางเลือดขาว แม่เจ้าอยู่หัว",
    "name": "ร้านน้ำชาจ่าหมาย",
    "rating": 5,
    "address": "XX9W+939 ตำบล ชะอวด อำเภอ ชะอวด",
    "lat": 7.9684934,
    "lng": 99.99520059999999
  },
  {
    "mu_place": "อนุสาวรีย์ พระนางเลือดขาว แม่เจ้าอยู่หัว",
    "name": "ร้านกาลคร้ังหนึ่ง",
    "rating": 5,
    "address": "ประชาสโมสร 38/1 อำเภอเมืองขอนแก่น ขอนแก่น 40000",
    "lat": 8.0954135,
    "lng": 100.1152663
  },
  {
    "mu_place": "อนุสาวรีย์ พระนางเลือดขาว แม่เจ้าอยู่หัว",
    "name": "ร้านอาหาร อีสานกลางซอย",
    "rating": 4.8,
    "address": "X292+V33 ตำบล ชะอวด อำเภอ ชะอวด",
    "lat": 7.969639699999998,
    "lng": 100.0001811
  },
  {
    "mu_place": "อนุสาวรีย์ พระนางเลือดขาว แม่เจ้าอยู่หัว",
    "name": "ร้านอาหารตามสั่งพี่น้อยตลาดดอน",
    "rating": 3.8,
    "address": "X7J5+76F ตำบล เขาพังไกร อำเภอ หัวไทร",
    "lat": 7.9806778,
    "lng": 100.2580649
  },
  {
    "mu_place": "อนุสาวรีย์ พระนางเลือดขาว แม่เจ้าอยู่หัว",
    "name": "ร้านครัวบัวทอง",
    "rating": 4,
    "address": "44J9+8C5 4094 ตำบล ท้องลำเจียก อำเภอ เชียรใหญ่",
    "lat": 8.1307698,
    "lng": 100.1186023
  },
  {
    "mu_place": "อนุสาวรีย์ พระนางเลือดขาว แม่เจ้าอยู่หัว",
    "name": "ครัวจรูญ",
    "rating": 4.7,
    "address": "629F+WXC 408 ตำบล ทางพูน อำเภอ เฉลิมพระเกียรติ",
    "lat": 8.219843,
    "lng": 100.0249575
  },
  {
    "mu_place": "วัดทุ่งเศรษฐี ราม2",
    "name": "ร้านอาหารเพลิน",
    "rating": 4.2,
    "address": "7/428 ถนน วิภาวดีรังสิต แขวงจตุจักร เขตจตุจักร",
    "lat": 13.8259653,
    "lng": 100.5571122
  },
  {
    "mu_place": "วัดทุ่งเศรษฐี ราม2",
    "name": "Chantana - ร้านอาหาร จันทนา",
    "rating": 4.3,
    "address": "852 854 ถ. ประชาอุทิศ แขวงสามเสนนอก เขตห้วยขวาง",
    "lat": 13.7690873,
    "lng": 100.5903625
  },
  {
    "mu_place": "วัดทุ่งเศรษฐี ราม2",
    "name": "ร้านอาหาร สามเสนวิลล่า พญาไท",
    "rating": 4.5,
    "address": "49/2 ถนน เศรษฐศิริ แขวงพญาไท เขตพญาไท",
    "lat": 13.7806484,
    "lng": 100.5318687
  },
  {
    "mu_place": "วัดทุ่งเศรษฐี ราม2",
    "name": "ร้านอาหารประพักตร์",
    "rating": 4.3,
    "address": "89/165 ถนน เทศบาลสงเคราะห์ แขวงลาดยาว เขตจตุจักร",
    "lat": 13.8406963,
    "lng": 100.552399
  },
  {
    "mu_place": "วัดทุ่งเศรษฐี ราม2",
    "name": "ร้านอาหารข้าวใหม่",
    "rating": 4.6,
    "address": "RHMH+3CX แขวงจันทรเกษม เขตจตุจักร",
    "lat": 13.8327455,
    "lng": 100.578617
  },
  {
    "mu_place": "วัดทุ่งเศรษฐี ราม2",
    "name": "ร้านอาหารเสี่ยครัวไทย",
    "rating": 4,
    "address": "33/3 ถ.เฉลิมพระเกียรติ ร.9 ดอกไม้ ประเวศ",
    "lat": 13.6999014,
    "lng": 100.6784954
  },
  {
    "mu_place": "วัดทุ่งเศรษฐี ราม2",
    "name": "ร้านอาหารไก่เพชร",
    "rating": 4.3,
    "address": "7 6 ซอย ลาดพร้าว 8 แยก 3 แขวงจอมพล เขตจตุจักร",
    "lat": 13.8103274,
    "lng": 100.5642949
  },
  {
    "mu_place": "วัดทุ่งเศรษฐี ราม2",
    "name": "ร้านอาหาร เมลโล่การ์เด้น",
    "rating": 4.5,
    "address": "10/804 เกษตร - นวมินทร์ แขวงนวลจันทร์ เขตบึงกุ่ม",
    "lat": 13.8276017,
    "lng": 100.6307115
  },
  {
    "mu_place": "วัดทุ่งเศรษฐี ราม2",
    "name": "ร้านอาหารริมชล",
    "rating": 4.4,
    "address": "811 ถ. นครไชยศรี แขวงถนนนครไชยศรี เขตดุสิต",
    "lat": 13.7894495,
    "lng": 100.5104817
  },
  {
    "mu_place": "วัดทุ่งเศรษฐี ราม2",
    "name": "หมีแฟมิลี่ สาขา ประชาชื่น",
    "rating": 4.6,
    "address": "280/1 ถ. ประชาชื่น แขวงจตุจักร เขตจตุจักร",
    "lat": 13.8232274,
    "lng": 100.5384329
  },
  {
    "mu_place": "วัดทุ่งเศรษฐี ราม2",
    "name": "ร้านอาหาร สวนลุงพร",
    "rating": 4.6,
    "address": "2 2 ตำบล แพรกษา อำเภอเมืองสมุทรปราการ",
    "lat": 13.5877449,
    "lng": 100.6419076
  },
  {
    "mu_place": "วัดทุ่งเศรษฐี ราม2",
    "name": "ร้านอาหาร ครกไม้ไทยลาว ซอยลาดปลาเค้า 24",
    "rating": 4.3,
    "address": "8 ซ. ลาดปลาเค้า 24 แขวงจรเข้บัว เขตลาดพร้าว",
    "lat": 13.8401614,
    "lng": 100.5958436
  },
  {
    "mu_place": "วัดทุ่งเศรษฐี ราม2",
    "name": "ร้านอาหารรสสุคนธ์",
    "rating": 4.1,
    "address": "299 12 หมู่ 5 ถ. ศรีนครินทร์ ตำบล บางเมือง อำเภอเมืองสมุทรปราการ",
    "lat": 13.6151095,
    "lng": 100.6209244
  },
  {
    "mu_place": "วัดทุ่งเศรษฐี ราม2",
    "name": "T and T Restaurant",
    "rating": 4.3,
    "address": "359 เทศบาลนิมิตใต้ ซอย 7 แขวงลาดยาว เขตจตุจักร",
    "lat": 13.8363602,
    "lng": 100.5495098
  },
  {
    "mu_place": "วัดทุ่งเศรษฐี ราม2",
    "name": "ป้าเรย์",
    "rating": 3.9,
    "address": "4-6-8 ถนนเทียนร่วมมิตร แขวงห้วยขวาง",
    "lat": 13.7667789,
    "lng": 100.5811614
  },
  {
    "mu_place": "วัดทุ่งเศรษฐี ราม2",
    "name": "ร้านอาหารต้มยำหัวปลา",
    "rating": 4.4,
    "address": "ซ. พหลโยธิน 48 แขวงอนุสาวรีย์ เขตบางเขน",
    "lat": 13.8797791,
    "lng": 100.6093118
  },
  {
    "mu_place": "วัดทุ่งเศรษฐี ราม2",
    "name": "ร้านอาหารบ้านอาจารย์",
    "rating": 4.3,
    "address": "107/7-8 ถนน รางน้ำ แขวงถนนพญาไท เขตราชเทวี",
    "lat": 13.7591564,
    "lng": 100.5418921
  },
  {
    "mu_place": "วัดทุ่งเศรษฐี ราม2",
    "name": "ร้านอาหารแกงป่า(ลุงสง่า)",
    "rating": 4.4,
    "address": "285 162 ซ. งามวงศ์วาน 23 แยก 11 ตำบลบางเขน อำเภอเมือง",
    "lat": 13.8651608,
    "lng": 100.5355962
  },
  {
    "mu_place": "วัดทุ่งเศรษฐี ราม2",
    "name": "ร้านอาหารลงแพ หรือ @บางขวด",
    "rating": 4.3,
    "address": "3 ซอย นวลจันทร์ 56 แขวงนวลจันทร์ เขตบึงกุ่ม",
    "lat": 13.8328813,
    "lng": 100.6462978
  },
  {
    "mu_place": "วัดทุ่งเศรษฐี ราม2",
    "name": "ร้านอาหารบ้านใบบัว",
    "rating": 4.3,
    "address": "13, 37 ถ. วงแหวนอุตสาหกรรม ลัดหลวง อำเภอพระประแดง",
    "lat": 13.6646477,
    "lng": 100.5233595
  },
  {
    "mu_place": "วัดเขาบันไดอิฐ",
    "name": "ร้านอาหารญาดา",
    "rating": 4.3,
    "address": "3XR4+RH2 ตำบล นาวุ้ง อำเภอเมืองเพชรบุรี",
    "lat": 13.0920215,
    "lng": 99.95638179999999
  },
  {
    "mu_place": "วัดเขาบันไดอิฐ",
    "name": "ร้านอาหารเปลญวน เพชรบุรี",
    "rating": 4.4,
    "address": "66 หมู่ที่ 6 ซอย เทศบาลบ้านลาด 21 ตำบล ท่าเสน อำเภอบ้านลาด",
    "lat": 13.0588099,
    "lng": 99.9340063
  },
  {
    "mu_place": "วัดเขาบันไดอิฐ",
    "name": "ร้านอาหารชิมดุ๊",
    "rating": 4.2,
    "address": "4W4M+GV7 ตำบล บ้านหม้อ อำเภอเมืองเพชรบุรี",
    "lat": 13.1062914,
    "lng": 99.9346824
  },
  {
    "mu_place": "วัดเขาบันไดอิฐ",
    "name": "ร้านอาหารกิ่งกาญจน์",
    "rating": 4.4,
    "address": "ถ. เพชรเกษม ตำบล ท่าเสน อำเภอบ้านลาด",
    "lat": 13.055216,
    "lng": 99.9434933
  },
  {
    "mu_place": "วัดเขาบันไดอิฐ",
    "name": "ร้านอาหารป๋าอ๊อด",
    "rating": 4.4,
    "address": "3WQV+QJX 238 ตำบล คลองกระแซง อำเภอเมืองเพชรบุรี",
    "lat": 13.0894871,
    "lng": 99.9441454
  },
  {
    "mu_place": "วัดเขาบันไดอิฐ",
    "name": "ร้านตาตือ จิ้มเปรี้ยว",
    "rating": 4.3,
    "address": "4W2X+PPV ตำบล ท่าราบ อำเภอเมืองเพชรบุรี",
    "lat": 13.1018678,
    "lng": 99.94926679999999
  },
  {
    "mu_place": "วัดเขาบันไดอิฐ",
    "name": "Relax Restaurant",
    "rating": 4.3,
    "address": "2/61-63 M.1, T.Raisom, อำเภอเมืองเพชรบุรี",
    "lat": 13.1125451,
    "lng": 99.9328063
  },
  {
    "mu_place": "วัดเขาบันไดอิฐ",
    "name": "ร้านอาหารบางตะบูนเบย์",
    "rating": 4.4,
    "address": "14 ถนน พระครูวชิระกิจโกศล ตำบล บางตะบูน อำเภอ บ้านแหลม",
    "lat": 13.2671727,
    "lng": 99.93676839999999
  },
  {
    "mu_place": "วัดเขาบันไดอิฐ",
    "name": "Baanrimnam Restaurant&Cafe Phetchburi",
    "rating": 4.2,
    "address": "22 ถนน ราชดำริห์ ตำบล ท่าราบ เมือง",
    "lat": 13.0887772,
    "lng": 99.9486271
  },
  {
    "mu_place": "วัดเขาบันไดอิฐ",
    "name": "ร้านอาหารกี่วา",
    "rating": 4.3,
    "address": "3WFQ+72G 3179 ตำบล บ้านหม้อ อำเภอเมืองเพชรบุรี",
    "lat": 13.0731688,
    "lng": 99.9375687
  },
  {
    "mu_place": "วัดเขาบันไดอิฐ",
    "name": "ร้านอาหารลมบก",
    "rating": 4.4,
    "address": "6 ซอย ตำรวจทางหลวง 7/5 ตำบล คลองกระแซง อำเภอเมืองเพชรบุรี",
    "lat": 13.0868206,
    "lng": 99.9477304
  },
  {
    "mu_place": "วัดเขาบันไดอิฐ",
    "name": "ร้านอาหารศรีสวัสดิ์",
    "rating": 4.6,
    "address": "4W88+8H4 ตำบล ไร่ส้ม อำเภอเมืองเพชรบุรี",
    "lat": 13.1157744,
    "lng": 99.9164513
  },
  {
    "mu_place": "วัดเขาบันไดอิฐ",
    "name": "\"JM Cuisine\" / \"เจ๊กเม้ง\" / ร้านอาหารความคิดสร้างสรรค์ต้นตำรับเพชรบุรี",
    "rating": 3.9,
    "address": "ตำบล คลองกระแซง อำเภอเมืองเพชรบุรี",
    "lat": 13.1081416,
    "lng": 99.9346999
  },
  {
    "mu_place": "วัดเขาบันไดอิฐ",
    "name": "ร้านอาหาร มะกอ",
    "rating": 4.4,
    "address": "87 เทศบาล 7 ตำบล ท่าคอย อำเภอท่ายาง",
    "lat": 12.9707159,
    "lng": 99.8846523
  },
  {
    "mu_place": "วัดเขาบันไดอิฐ",
    "name": "ร้านน้องโบว์2 อาหารอีสาน",
    "rating": 4.3,
    "address": "3X92+424 ตำบล ต้นมะม่วง อำเภอบ้านลาด",
    "lat": 13.0677585,
    "lng": 99.9500911
  },
  {
    "mu_place": "วัดเขาบันไดอิฐ",
    "name": "ร้านอาหารลูกแก้ว",
    "rating": 4.4,
    "address": "ร้านอาหารลูกแก้ว ตำบล บ้านลาด อำเภอบ้านลาด",
    "lat": 13.0556704,
    "lng": 99.9199735
  },
  {
    "mu_place": "วัดเขาบันไดอิฐ",
    "name": "ครัวคุ้มไม้พะยูงเขาหลวง (ร้านอาหารคุ้มไม้พะยูง)",
    "rating": 4.1,
    "address": "1/2, Moo 8, Kiri Ratthaya Road Tambon Thong Chai อำเภอเมืองเพชรบุรี",
    "lat": 13.1280874,
    "lng": 99.933881
  },
  {
    "mu_place": "วัดเขาบันไดอิฐ",
    "name": "ร้านอาหารเจ๊น้อยท่ายาง",
    "rating": 4.4,
    "address": "XVCM+8Q5 ตำบล ท่ายาง อำเภอท่ายาง",
    "lat": 12.9707736,
    "lng": 99.8844788
  },
  {
    "mu_place": "วัดเขาบันไดอิฐ",
    "name": "ร้านอาหารตุ๊ก",
    "rating": 4.3,
    "address": "ตำบล บ้านแหลม อำเภอ บ้านแหลม",
    "lat": 13.2016301,
    "lng": 99.9813028
  },
  {
    "mu_place": "วัดเขาบันไดอิฐ",
    "name": "ร้านข้าวแกงใบตาล",
    "rating": 4.2,
    "address": "9-11 พานิชเจริญ ตำบล ท่าราบ อำเภอเมืองเพชรบุรี",
    "lat": 13.1123731,
    "lng": 99.93798550000001
  },
  {
    "mu_place": "วัดป่าสว่างธรรม",
    "name": "อาหารร้านตะวัน",
    "rating": 4,
    "address": "CV33+WWW ตำบล หนองนาคำ อำเภอเมืองอุดรธานี",
    "lat": 17.4048617,
    "lng": 102.8548361
  },
  {
    "mu_place": "วัดป่าสว่างธรรม",
    "name": "ร้านอาหาร ปอ.1",
    "rating": 4.6,
    "address": "ยำละเนาะ YUM La-Noh ยำแซ่บ 383 หมู่15 ตำบล สร้อยพร้าว อำเภอเมืองอุดรธานี",
    "lat": 17.4372002,
    "lng": 103.0472164
  },
  {
    "mu_place": "วัดป่าสว่างธรรม",
    "name": "ร้านกินเส้น หนองหาน",
    "rating": 4.2,
    "address": "85 ม.10 ตำบล หนองหาน อำเภอหนองหาน",
    "lat": 17.3641327,
    "lng": 103.0992111
  },
  {
    "mu_place": "วัดป่าสว่างธรรม",
    "name": "ร้านอาหารหนุ่ยโภชนา",
    "rating": 4.2,
    "address": "956G+M4X ตำบล หนองเม็ก อำเภอหนองหาน",
    "lat": 17.3617578,
    "lng": 103.1753448
  },
  {
    "mu_place": "วัดป่าสว่างธรรม",
    "name": "ร้านอาหาร ริมบึง",
    "rating": 4.7,
    "address": "อุดรฟลอล่าวิลล์ ตำบล โนนสูง อำเภอเมืองอุดรธานี",
    "lat": 17.323296,
    "lng": 102.8443418
  },
  {
    "mu_place": "วัดป่าสว่างธรรม",
    "name": "ร้านเฮียงคู่",
    "rating": 4.1,
    "address": "FX9C+7WM 2410 ตำบล ดอนกลอย อำเภอ พิบูลย์รักษ์",
    "lat": 17.4681799,
    "lng": 102.9723184
  },
  {
    "mu_place": "วัดป่าสว่างธรรม",
    "name": "ร้านอาหารตั้งหลัก สามพร้าว",
    "rating": 5,
    "address": "FW25+2V ตำบล สามพร้าว อำเภอเมืองอุดรธานี",
    "lat": 17.4505477,
    "lng": 102.9108131
  },
  {
    "mu_place": "วัดป่าสว่างธรรม",
    "name": "ร้านอาหารยายนา",
    "rating": 4.5,
    "address": "CVWH+4G9 ทางหลวงแผ่นดินหมายเลข 2410 เมืองอุดรธานี อำเภอเมืองอุดรธานี",
    "lat": 17.4452793,
    "lng": 102.878797
  },
  {
    "mu_place": "วัดป่าสว่างธรรม",
    "name": "ครัวแม่แดง",
    "rating": 4.2,
    "address": "59 ตำบล หนองเม็ก อำเภอหนองหาน",
    "lat": 17.3688297,
    "lng": 103.1801334
  },
  {
    "mu_place": "วัดป่าสว่างธรรม",
    "name": "ร้านก๋วยเตี๋ยวแม่จิตหมู+เนื้อ และ อาหารตามสั่ง",
    "rating": 4.6,
    "address": "F298+HHV ตำบล ดอนกลอย อำเภอ พิบูลย์รักษ์",
    "lat": 17.469017,
    "lng": 103.016418
  },
  {
    "mu_place": "วัดป่าสว่างธรรม",
    "name": "ร้านอาหารไม่บก",
    "rating": 3.5,
    "address": "CVXG+32R ตำบล สามพร้าว อำเภอเมืองอุดรธานี",
    "lat": 17.447728,
    "lng": 102.875021
  },
  {
    "mu_place": "วัดป่าสว่างธรรม",
    "name": "บ้านข้าวหอม",
    "rating": 4.6,
    "address": "ซอย สวัสดิชัย ตำบล หนองหาน อำเภอหนองหาน",
    "lat": 17.3637992,
    "lng": 103.1069827
  },
  {
    "mu_place": "วัดป่าสว่างธรรม",
    "name": "ร้านอาหารกระดังงา",
    "rating": 3.3,
    "address": "G653+665 ตำบล นาทม อำเภอ ทุ่งฝน",
    "lat": 17.5080068,
    "lng": 103.2031129
  },
  {
    "mu_place": "วัดป่าสว่างธรรม",
    "name": "ร้านอาหาร เรือนไทย แซ่บสยาม",
    "rating": 4.2,
    "address": "CV77+PHF ตำบล หนองนาคำ อำเภอเมืองอุดรธานี",
    "lat": 17.4141137,
    "lng": 102.8638672
  },
  {
    "mu_place": "วัดป่าสว่างธรรม",
    "name": "ร้านอาหารลูกแฝด",
    "rating": 5,
    "address": "8V62+3Q2 ถ. มิตรภาพ เมืองอุดรธานี อำเภอเมืองอุดรธานี",
    "lat": 17.3101909,
    "lng": 102.8519765
  },
  {
    "mu_place": "วัดป่าสว่างธรรม",
    "name": "ร้านอาหานเก้มก้าม",
    "rating": 4.4,
    "address": "CV62+5MH Unnamed Road ตำบล หนองนาคำ อำเภอเมืองอุดรธานี",
    "lat": 17.4104401,
    "lng": 102.8517441
  },
  {
    "mu_place": "วัดป่าสว่างธรรม",
    "name": "Tings Restaurant",
    "rating": 5,
    "address": "9VC5+625 ซอย พรสวรรค์ 1 ตำบล หนองนาคำ อำเภอเมืองอุดรธานี",
    "lat": 17.3705767,
    "lng": 102.8574916
  },
  {
    "mu_place": "วัดป่าสว่างธรรม",
    "name": "ร้านธรรมดา",
    "rating": 4.5,
    "address": "2410 ตำบล สามพร้าว อำเภอเมืองอุดรธานี",
    "lat": 17.4470311,
    "lng": 102.8939342
  },
  {
    "mu_place": "วัดป่าสว่างธรรม",
    "name": "ร้านกัปตันตั้วข้าวขาหมู ก๋วยเตี๋ยว อาหารตามสั่ง",
    "rating": 4.5,
    "address": "545 ถนน ทางหลวงชนบท อุดรธานี 3056 ตำบล สามพร้าว อำเภอเมืองอุดรธานี",
    "lat": 17.4444715,
    "lng": 102.8732983
  },
  {
    "mu_place": "วัดป่าสว่างธรรม",
    "name": "ร้าน อาหารสถานีแซบคัก",
    "rating": 4.8,
    "address": "M32C+G7Q ตำบล เตาไห อำเภอ เพ็ญ",
    "lat": 17.6513317,
    "lng": 103.0707371
  },
  {
    "mu_place": "วัดศรีดอนมูล",
    "name": "ร้านอาหารดาวคะนอง สาขา ในเมือง",
    "rating": 4.2,
    "address": "340 ถนน เจริญราษฎร์ ตำบล ในเมือง อำเภอเมืองลำพูน",
    "lat": 18.5893673,
    "lng": 99.0115752
  },
  {
    "mu_place": "วัดศรีดอนมูล",
    "name": "ซันซุย ร้านอาหาร",
    "rating": 4.8,
    "address": "299 23 ซอย หมู่บ้านนาทองวิลล์ ตำบล ท่าศาลา อำเภอเมืองเชียงใหม่",
    "lat": 18.7799435,
    "lng": 99.0304594
  },
  {
    "mu_place": "วัดศรีดอนมูล",
    "name": "ร้านอาหารครัวสบันงา By P'preaw",
    "rating": 4.5,
    "address": "473 หมู่ที่ 1 ตำบล สันทรายน้อย อำเภอสันทราย",
    "lat": 18.8319238,
    "lng": 99.0452706
  },
  {
    "mu_place": "วัดศรีดอนมูล",
    "name": "ร้านอาหารครัวไทย",
    "rating": 4.5,
    "address": "เลขที่ 124/308 อำเภอเมืองเชียงใหม่",
    "lat": 18.7877876,
    "lng": 99.0400332
  },
  {
    "mu_place": "วัดศรีดอนมูล",
    "name": "ร้านอาหาร หอมละมุน",
    "rating": 4.4,
    "address": "54/15 ตำบล ฟ้าฮ่าม อำเภอเมืองเชียงใหม่",
    "lat": 18.8184439,
    "lng": 99.0018218
  },
  {
    "mu_place": "วัดศรีดอนมูล",
    "name": "ร้านอาหาร บุญทองทิพย์",
    "rating": 3.9,
    "address": "18°40'01.0\"N 99°03'06., ซอย 7 ตำบล ป่าบง อำเภอ สารภี",
    "lat": 18.666937,
    "lng": 99.05186499999999
  },
  {
    "mu_place": "วัดศรีดอนมูล",
    "name": "ร้านอาหารต้นน้ำ",
    "rating": 4.4,
    "address": "313 ซอย ป่าตัน 9 ตำบล สันผีเสื้อ อำเภอเมืองเชียงใหม่",
    "lat": 18.8328451,
    "lng": 98.991505
  },
  {
    "mu_place": "วัดศรีดอนมูล",
    "name": "ร้านอาหารบ้านชานเมือง เชียงใหม่",
    "rating": 4.1,
    "address": "แยกลิขิตชีวัน-แยกกองพันสัตว์ต่าง ถ. รอบเมืองเชียงใหม่ ตำบล สันผีเสื้อ อำเภอเมืองเชียงใหม่",
    "lat": 18.8565215,
    "lng": 98.9970719
  },
  {
    "mu_place": "วัดศรีดอนมูล",
    "name": "ร้านอาหารโก๋โบราณ..ตลาดโบราณ..bigcook Shop",
    "rating": 4,
    "address": "R2MM+XG2 ตำบล หนองจ๊อม อำเภอสันทราย",
    "lat": 18.8348896,
    "lng": 99.0337455
  },
  {
    "mu_place": "วัดศรีดอนมูล",
    "name": "ร้านอาหารดาวคะนองลำพูน",
    "rating": 4.1,
    "address": "180 หมู่ 4 ถ.ซุปเปอร์ไฮเวย์เชียงใหม่-ลำปาง, ศรีบัวบาน, เมือง",
    "lat": 18.5466817,
    "lng": 99.0579884
  },
  {
    "mu_place": "วัดศรีดอนมูล",
    "name": "Lek Prickkeenoo Shop",
    "rating": 4.3,
    "address": "56/1, Singharat Road, Tambon Sriphoom, Amphoe Muang Chiangmai, Chiangmai, 50300",
    "lat": 18.7925129,
    "lng": 98.981978
  },
  {
    "mu_place": "วัดศรีดอนมูล",
    "name": "ร้านอาหารยอดแซ่บ",
    "rating": 4.2,
    "address": "M2RX+GMV ตำบล ยางเนิ้ง อำเภอ สารภี",
    "lat": 18.6912986,
    "lng": 99.04916399999999
  },
  {
    "mu_place": "วัดศรีดอนมูล",
    "name": "ร้านอาหารอร่อยจริงจริง-好好吃",
    "rating": 4.5,
    "address": "ถนน ศรีวิชัย ตำบลสุเทพ อำเภอเมืองเชียงใหม่",
    "lat": 18.8037473,
    "lng": 98.9199493
  },
  {
    "mu_place": "วัดศรีดอนมูล",
    "name": "ร้านอาหารไทย \"คำดารา\"",
    "rating": 4.2,
    "address": "193 ถนน เจริญราษฎร์ อำเภอเมือง อำเภอเมืองเชียงใหม่",
    "lat": 18.7930324,
    "lng": 99.0009582
  },
  {
    "mu_place": "วัดศรีดอนมูล",
    "name": "ร้านอาหารชาววัง",
    "rating": 4.1,
    "address": "เลขที่ 399/4 ถนน เชียงใหม่- ดอยสะเก็ด อำเภอสันทราย",
    "lat": 18.8135704,
    "lng": 99.03172550000001
  },
  {
    "mu_place": "วัดศรีดอนมูล",
    "name": "เขยเจียงใหม่ - อาหารเหนือ (ร้านอาหารเชียงใหม่)",
    "rating": 4.5,
    "address": "14 ถนน ซอย สันติธรรม ตำบลช้างเผือก อำเภอเมืองเชียงใหม่",
    "lat": 18.8004791,
    "lng": 98.9782729
  },
  {
    "mu_place": "วัดศรีดอนมูล",
    "name": "ร้าน บ้านไร่ยามเย็น",
    "rating": 4.3,
    "address": "ซอย บ้านไร่ หมู่ 3 ตำบล ฟ้าฮ่าม อำเภอเมืองเชียงใหม่",
    "lat": 18.8124211,
    "lng": 99.00781889999999
  },
  {
    "mu_place": "วัดศรีดอนมูล",
    "name": "ร้านอาหารหน้าบ้าน อาหารพื้นเมือง",
    "rating": 4.7,
    "address": "RXCC+F29 ตำบลช้างเผือก อำเภอเมืองเชียงใหม่",
    "lat": 18.8211446,
    "lng": 98.970079
  },
  {
    "mu_place": "วัดศรีดอนมูล",
    "name": "ร้านอาหาร ครัวสวนไผ่",
    "rating": 3.8,
    "address": "119 ตำบล บ้านแป้น อำเภอเมืองลำพูน",
    "lat": 18.5411377,
    "lng": 98.95594799999999
  },
  {
    "mu_place": "วัดศรีดอนมูล",
    "name": "จงชาน ร้านอาหารจีนกวางตุ้ง",
    "rating": 4.3,
    "address": "DK Park, ถนน มหิดล Changklan, อำเภอเมืองเชียงใหม่",
    "lat": 18.7681189,
    "lng": 98.98429829999999
  },
  {
    "mu_place": "วัดพระธาตุดอยสะเก็ด",
    "name": "ซันซุย ร้านอาหาร",
    "rating": 4.8,
    "address": "299 23 ซอย หมู่บ้านนาทองวิลล์ ตำบล ท่าศาลา อำเภอเมืองเชียงใหม่",
    "lat": 18.7799435,
    "lng": 99.0304594
  },
  {
    "mu_place": "วัดพระธาตุดอยสะเก็ด",
    "name": "ร้านอาหารครัวสบันงา By P'preaw",
    "rating": 4.5,
    "address": "473 หมู่ที่ 1 ตำบล สันทรายน้อย อำเภอสันทราย",
    "lat": 18.8319238,
    "lng": 99.0452706
  },
  {
    "mu_place": "วัดพระธาตุดอยสะเก็ด",
    "name": "ร้านอาหารครัวไทย",
    "rating": 4.5,
    "address": "เลขที่ 124/308 อำเภอเมืองเชียงใหม่",
    "lat": 18.7877876,
    "lng": 99.0400332
  },