[
  {
    "mu_place": "ถ้ำนาคา",
    "name": "น้ำตกเจ็ดสี",
    "rating": 4.1,
    "address": "5X63+26V ตำบล บ้านต้อง อำเภอ บุ่งคล้า",
    "lat": 18.1601169,
    "lng": 103.9530437
  },
  {
    "mu_place": "ถ้ำนาคา",
    "name": "นาดี ฟาร์ม",
    "rating": 5,
    "address": "V6FP+P6Q Unnamed Road ตำบล โพนทอง อำเภอ บ้านแพง",
    "lat": 17.8743497,
    "lng": 104.235602
  },
  {
    "mu_place": "ถ้ำนาคา",
    "name": "ถ้ำนาคี นครพนม(Nakee Cave)",
    "rating": 4.8,
    "address": "X4MG+XW5 ตำบล ไผ่ล้อม อำเภอ บ้านแพง",
    "lat": 17.984897,
    "lng": 104.127357
  },
  {
    "mu_place": "ถ้ำนาคา",
    "name": "ร้อย. ทพที่2107",
    "rating": 5,
    "address": "บ้านโพธิ์ชัย ตำบล ไผ่ล้อม อำเภอ บ้านแพง",
    "lat": 18.013956,
    "lng": 104.189737
  },
  {
    "mu_place": "ถ้ำนาคา",
    "name": "เจดีย์พระธาตุน้อยฐานหินลายเกล็ด",
    "rating": 5,
    "address": "X4F7+F6C ตำบล โพธิ์หมากแข้ง อำเภอ บึงโขงหลง",
    "lat": 17.9736938,
    "lng": 104.1130017
  },
  {
    "mu_place": "ถ้ำนาคา",
    "name": "รอยเหมือนพระพุทธบาทจำลองวัดอ่างมโนราห์",
    "rating": 3.7,
    "address": "W48M+85X ตำบล หนองซน อำเภอ นาทม",
    "lat": 17.9158522,
    "lng": 104.1329797
  },
  {
    "mu_place": "ถ้ำนาคา",
    "name": "ทางขึ้นสักการะหลวงพ่อพระขาว",
    "rating": 0,
    "address": "W3WV+9V5 ตำบล โพธิ์หมากแข้ง อำเภอ บึงโขงหลง",
    "lat": 17.9458898,
    "lng": 104.0947274
  },
  {
    "mu_place": "ถ้ำนาคา",
    "name": "Maher Mekong Sanctuary",
    "rating": 0,
    "address": "255V+V56 ตำบล บ้านแพง อำเภอ บ้านแพง",
    "lat": 18.0096875,
    "lng": 104.1929375
  },
  {
    "mu_place": "ถ้ำนาคา",
    "name": "Maher Mekong Sanctuary",
    "rating": 0,
    "address": "254v+jjx ต, ตำบล บ้านแพง อำเภอ บ้านแพง",
    "lat": 18.0065625,
    "lng": 104.1940625
  },
  {
    "mu_place": "ถ้ำนาคา",
    "name": "รอยหินคล้ายคันไถนา",
    "rating": 0,
    "address": "W48R+JC3 ตำบล หนองซน อำเภอ นาทม",
    "lat": 17.9165198,
    "lng": 104.1410327
  },
  {
    "mu_place": "ถ้ำนาคา",
    "name": "รอยหินคันไถนาบ้านาสาร",
    "rating": 0,
    "address": "W48R+JC3 ตำบล หนองซน อำเภอ นาทม",
    "lat": 17.916523,
    "lng": 104.1410313
  },
  {
    "mu_place": "ถ้ำนาคา",
    "name": "เจดีย์กองข้าวศรีบุญเนาว์",
    "rating": 4.5,
    "address": "X4C9+237 ตำบล ไผ่ล้อม อำเภอ บ้านแพง",
    "lat": 17.9700481,
    "lng": 104.1176606
  },
  {
    "mu_place": "ท้าวเวสสุวรรณ วัดพระศรีรัตนมหาธาตุวิหาร(วัดใหญ่)",
    "name": "เขาสมอแคลง",
    "rating": 4.5,
    "address": "RCV3+38R ตำบลวังทอง อำเภอวังทอง",
    "lat": 16.8427419,
    "lng": 100.4032712
  },
  {
    "mu_place": "ท้าวเวสสุวรรณ วัดพระศรีรัตนมหาธาตุวิหาร(วัดใหญ่)",
    "name": "บ้านไร่ รั้วไทรงาม",
    "rating": 4.3,
    "address": "P7P6+2W9 ตำบล บึงพระ อำเภอเมืองพิษณุโลก",
    "lat": 16.7350363,
    "lng": 100.262352
  },
  {
    "mu_place": "ท้าวเวสสุวรรณ วัดพระศรีรัตนมหาธาตุวิหาร(วัดใหญ่)",
    "name": "Street art Phitsanulok (tiger tunnel)",
    "rating": 0,
    "address": "834 สถานีขนส่งผู้โดยสาร จังหวัดพิษณุโลก 44-45 Mittraphap Road อำเภอเมืองพิษณุโลก",
    "lat": 16.8180517,
    "lng": 100.2787912
  },
  {
    "mu_place": "ท้าวเวสสุวรรณ วัดพระศรีรัตนมหาธาตุวิหาร(วัดใหญ่)",
    "name": "Street art Phitsanulok (tiger&man)",
    "rating": 0,
    "address": "187 ถ. บรมไตรโลกนารถ ตำบล ในเมือง อำเภอเมืองพิษณุโลก",
    "lat": 16.8127773,
    "lng": 100.2625022
  },
  {
    "mu_place": "ท้าวเวสสุวรรณ วัดพระศรีรัตนมหาธาตุวิหาร(วัดใหญ่)",
    "name": "ลานสมเด็จพระนเรศวรมหาราช",
    "rating": 4.7,
    "address": "P5XR+VC7 ตำบล ท่าโพธิ์ อำเภอเมืองพิษณุโลก",
    "lat": 16.7496534,
    "lng": 100.1910485
  },
  {
    "mu_place": "ท้าวเวสสุวรรณ วัดพระศรีรัตนมหาธาตุวิหาร(วัดใหญ่)",
    "name": "พระราชวังจันทน์",
    "rating": 4.6,
    "address": "R7H6+WGQ ตำบลบ้านคลอง อำเภอเมืองพิษณุโลก",
    "lat": 16.8298844,
    "lng": 100.2613844
  },
  {
    "mu_place": "ท้าวเวสสุวรรณ วัดพระศรีรัตนมหาธาตุวิหาร(วัดใหญ่)",
    "name": "ทุ่งโสกา",
    "rating": 5,
    "address": "Q69P+FC7 Unnamed Road ตำบล ท่าโพธิ์ อำเภอเมืองพิษณุโลก",
    "lat": 16.768673,
    "lng": 100.236054
  },
  {
    "mu_place": "ท้าวเวสสุวรรณ วัดพระศรีรัตนมหาธาตุวิหาร(วัดใหญ่)",
    "name": "สวนบัวอมรรัตน์ บัวกระด้ง พิษณุโลก (Victoria Waterlilies)",
    "rating": 3.9,
    "address": "R6CJ+2FW ตำบลบ้านคลอง อำเภอเมืองพิษณุโลก",
    "lat": 16.820105,
    "lng": 100.2312048
  },
  {
    "mu_place": "ท้าวเวสสุวรรณ วัดพระศรีรัตนมหาธาตุวิหาร(วัดใหญ่)",
    "name": "สวนภูวนาอินทผลัม",
    "rating": 4.5,
    "address": "ซอยหนองหัวยาง 5 บ้านหนองหัวยาง ตำบล ท่าทอง อำเภอเมืองพิษณุโลก",
    "lat": 16.814509,
    "lng": 100.1645373
  },
  {
    "mu_place": "ท้าวเวสสุวรรณ วัดพระศรีรัตนมหาธาตุวิหาร(วัดใหญ่)",
    "name": "พิพิธภัณฑ์พื้นบ้านจ่าทวี",
    "rating": 4.5,
    "address": "26/138 ถนนวิสุทธิ์กษัตริย์ ตำบล ในเมือง อำเภอเมืองพิษณุโลก",
    "lat": 16.8060025,
    "lng": 100.2674663
  },
  {
    "mu_place": "ท้าวเวสสุวรรณ วัดพระศรีรัตนมหาธาตุวิหาร(วัดใหญ่)",
    "name": "RAMA Street Art",
    "rating": 0,
    "address": "268/141 ถ. บรมไตรโลกนารถ ตำบล ในเมือง อำเภอเมืองพิษณุโลก",
    "lat": 16.8068643,
    "lng": 100.2538475
  },
  {
    "mu_place": "ท้าวเวสสุวรรณ วัดพระศรีรัตนมหาธาตุวิหาร(วัดใหญ่)",
    "name": "Street art Phitsanulok (Golden Tiger)",
    "rating": 0,
    "address": "27/8 ไสฤาไท ตำบล ในเมือง อำเภอเมืองพิษณุโลก",
    "lat": 16.8142798,
    "lng": 100.2644473
  },
  {
    "mu_place": "ท้าวเวสสุวรรณ วัดพระศรีรัตนมหาธาตุวิหาร(วัดใหญ่)",
    "name": "วังมัจฉา",
    "rating": 4,
    "address": "R52X+PVX ตำบล ท่าทอง อำเภอเมืองพิษณุโลก",
    "lat": 16.801871,
    "lng": 100.1997408
  },
  {
    "mu_place": "ท้าวเวสสุวรรณ วัดพระศรีรัตนมหาธาตุวิหาร(วัดใหญ่)",
    "name": "วัดจุฬามณี เมืองพิษณุโลก",
    "rating": 4.5,
    "address": "50/3 หมู่2 ริมแม่น้ำน่าน ตำบล ท่าทอง อำเภอเมืองพิษณุโลก",
    "lat": 16.7877119,
    "lng": 100.2166496
  },
  {
    "mu_place": "ท้าวเวสสุวรรณ วัดพระศรีรัตนมหาธาตุวิหาร(วัดใหญ่)",
    "name": "สวนโกโก้แม่เลียม",
    "rating": 5,
    "address": "90 บ้านทุ่งน้อย 7 ตำบล ท่าตาล อำเภอ บางกระทุ่ม",
    "lat": 16.6604581,
    "lng": 100.3637048
  },
  {
    "mu_place": "ท้าวเวสสุวรรณ วัดพระศรีรัตนมหาธาตุวิหาร(วัดใหญ่)",
    "name": "Wepergee",
    "rating": 0,
    "address": "87 ในเมือง เมือง",
    "lat": 16.8208131,
    "lng": 100.2640036
  },
  {
    "mu_place": "ท้าวเวสสุวรรณ วัดพระศรีรัตนมหาธาตุวิหาร(วัดใหญ่)",
    "name": "Naresuan University Gate 3",
    "rating": 5,
    "address": "P5RR+6JF ตำบล ท่าโพธิ์ อำเภอเมืองพิษณุโลก",
    "lat": 16.7405641,
    "lng": 100.1915597
  },
  {
    "mu_place": "ท้าวเวสสุวรรณ วัดพระศรีรัตนมหาธาตุวิหาร(วัดใหญ่)",
    "name": "ศูนย์ประวัติศาสตร์พระราชวังจันทน์",
    "rating": 4.5,
    "address": "2 ถนน วังจันทน์ ตำบล ในเมือง อำเภอเมืองพิษณุโลก",
    "lat": 16.8285408,
    "lng": 100.2620804
  },
  {
    "mu_place": "ท้าวเวสสุวรรณ วัดพระศรีรัตนมหาธาตุวิหาร(วัดใหญ่)",
    "name": "Sunflower 2022 @wangthong",
    "rating": 0,
    "address": "ตำบลวังทอง อำเภอวังทอง",
    "lat": 16.8161694,
    "lng": 100.4325445
  },
  {
    "mu_place": "ท้าวเวสสุวรรณ วัดพระศรีรัตนมหาธาตุวิหาร(วัดใหญ่)",
    "name": "วัดนางพญา",
    "rating": 4.7,
    "address": "R7F6+2QF, ถนน, จ่าการบุญ อำเภอเมืองพิษณุโลก",
    "lat": 16.8226756,
    "lng": 100.2619229
  },
  {
    "mu_place": "วัดมณีวงศ์",
    "name": "เขื่อนขุนด่านปราการชล",
    "rating": 4.5,
    "address": "หมู่ที่ 2 บ้านท่าด่าน ตำบล หินตั้ง อำเภอเมืองนครนายก",
    "lat": 14.3140835,
    "lng": 101.3213219
  },
  {
    "mu_place": "วัดมณีวงศ์",
    "name": "วังมัจฉา",
    "rating": 4,
    "address": "366 ปราจีนอนุสรณ์ ตำบล หน้าเมือง อำเภอเมืองปราจีนบุรี",
    "lat": 14.0518468,
    "lng": 101.3638754
  },
  {
    "mu_place": "วัดมณีวงศ์",
    "name": "ทุ่งบัวแดง บ้านนา นครนายก",
    "rating": 3.7,
    "address": "63JC+947 ทางหลวงแผ่นดินหมายเลข. 3051 ตำบล ทองหลาง อำเภอบ้านนา",
    "lat": 14.2309123,
    "lng": 101.070288
  },
  {
    "mu_place": "วัดมณีวงศ์",
    "name": "เอเดนฟาร์ม นครนายก",
    "rating": 4.1,
    "address": "655J+5RH ถนน รังสิต - นครนายก ตำบล คลองใหญ่ อำเภอองครักษ์",
    "lat": 14.2079474,
    "lng": 101.1821211
  },
  {
    "mu_place": "วัดมณีวงศ์",
    "name": "น้ำตกสาริกา",
    "rating": 4.2,
    "address": "8754+G49 ตำบล สาริกา อำเภอเมืองนครนายก",
    "lat": 14.3087955,
    "lng": 101.2553557
  },
  {
    "mu_place": "วัดมณีวงศ์",
    "name": "ที่ทำการหมู่บ้านท่องเที่ยวชุมชนบ้านวังรี",
    "rating": 4.7,
    "address": "ที่ทำการผู้ใหญ่บ้าน​ หมู่​ 12​ บ้านวังรี ซอย โยธาธิการ ตำบล เขาพระ อำเภอเมืองนครนายก",
    "lat": 14.3351603,
    "lng": 101.1927134
  },
  {
    "mu_place": "วัดมณีวงศ์",
    "name": "จุดถ่าย สปิลเวย์ เขื่อนขุนด่านปราการชล",
    "rating": 4.6,
    "address": "8869+FWM Unnamed Road ตำบล หินตั้ง อำเภอเมืองนครนายก",
    "lat": 14.3112117,
    "lng": 101.3197981
  },
  {
    "mu_place": "วัดมณีวงศ์",
    "name": "โบสถ์เก่าวัดป่ากระทุ่ม 200 กว่าปี",
    "rating": 4.6,
    "address": "64FM+J93 ตำบล พรหมณี อำเภอเมืองนครนายก",
    "lat": 14.2240163,
    "lng": 101.133432
  },
  {
    "mu_place": "วัดมณีวงศ์",
    "name": "เมืองโบราณดงละคร",
    "rating": 4.2,
    "address": "2010 ซอย พาณิชย์เจริญ 3 ตำบล ดงละคร อำเภอเมืองนครนายก",
    "lat": 14.1591984,
    "lng": 101.1670868
  },
  {
    "mu_place": "วัดมณีวงศ์",
    "name": "ไร่ก้ามปู",
    "rating": 5,
    "address": "ไร่ก้ามปู สาริกา-นางรอง ตำบล สาริกา อำเภอเมืองนครนายก",
    "lat": 14.2595703,
    "lng": 101.2808536
  },
  {
    "mu_place": "วัดมณีวงศ์",
    "name": "Rice Field Viewpoint",
    "rating": 4.3,
    "address": "67PQ+XQQ Unnamed Road ตำบล ศรีนาวา อำเภอเมืองนครนายก",
    "lat": 14.2374573,
    "lng": 101.2894825
  },
  {
    "mu_place": "วัดมณีวงศ์",
    "name": "บึงบัวเเดง",
    "rating": 4.8,
    "address": "90 หมู่ 10 ตำบล บ้านพร้าว อำเภอบ้านนา",
    "lat": 14.2148163,
    "lng": 101.1316348
  },
  {
    "mu_place": "วัดมณีวงศ์",
    "name": "น้ำตกวังตะไคร้",
    "rating": 4.3,
    "address": "ตำบล สาริกา อำเภอเมืองนครนายก",
    "lat": 14.3356255,
    "lng": 101.3061883
  },
  {
    "mu_place": "วัดมณีวงศ์",
    "name": "Khlong Bod Reservoir",
    "rating": 4.2,
    "address": "75PR+JQ6 ตำบล เขาพระ อำเภอเมืองนครนายก",
    "lat": 14.2865358,
    "lng": 101.1919006
  },
  {
    "mu_place": "วัดมณีวงศ์",
    "name": "สะพานทุ่งนาน้อยเขาหล่น",
    "rating": 4.5,
    "address": "68 อำเถอ, 2 ตำบล สาริกา เมือง",
    "lat": 14.26751,
    "lng": 101.26104
  },
  {
    "mu_place": "วัดมณีวงศ์",
    "name": "ซุ้มต้นไผ่ วัดจุฬาภรณ์วนาราม นครนายก",
    "rating": 4.4,
    "address": "72HJ+FRF ตำบล บ้านพริก อำเภอบ้านนา",
    "lat": 14.2786806,
    "lng": 101.0320625
  },
  {
    "mu_place": "วัดมณีวงศ์",
    "name": "สวนวสา",
    "rating": 3.3,
    "address": "5274+QPP ตำบล บางปลากด อำเภอองครักษ์",
    "lat": 14.164451,
    "lng": 101.0068419
  },
  {
    "mu_place": "วัดมณีวงศ์",
    "name": "สวนเกษตรพอเพียง ครูก้อย",
    "rating": 0,
    "address": "778P+5R7 ทางหลวงแผ่นดินหมายเลข. 3239 ตำบล หินตั้ง อำเภอเมืองนครนายก",
    "lat": 14.2654192,
    "lng": 101.2870713
  },
  {
    "mu_place": "วัดมณีวงศ์",
    "name": "อ่างเก็บน้ำห้วยปรือ นครนายก",
    "rating": 4.4,
    "address": "8657+V7Q ตำบล เขาพระ อำเภอเมืองนครนายก",
    "lat": 14.3097157,
    "lng": 101.2132303
  },
  {
    "mu_place": "วัดมณีวงศ์",
    "name": "น้ำตกช่องลม",
    "rating": 4.5,
    "address": "889Q+XCQ ตำบล นาหินลาด อำเภอเมืองนครนายก",
    "lat": 14.3199652,
    "lng": 101.3386168
  },
  {
    "mu_place": "วัดอินทรวิหาร พระอารามหลวง (บางขุนพรหม)",
    "name": "หอดูนก สวนศรีนครเขื่อนขันธ์",
    "rating": 4.3,
    "address": "MHW9+F9V ตำบล บางกะเจ้า อำเภอพระประแดง",
    "lat": 13.6962495,
    "lng": 100.5684135
  },
  {
    "mu_place": "วัดอินทรวิหาร พระอารามหลวง (บางขุนพรหม)",
    "name": "มิวเซียมสยาม",
    "rating": 4.5,
    "address": "4 ถนน สนามไชย แขวงพระบรมมหาราชวัง เขตพระนคร",
    "lat": 13.744147,
    "lng": 100.494137
  },
  {
    "mu_place": "วัดอินทรวิหาร พระอารามหลวง (บางขุนพรหม)",
    "name": "พระที่นั่งพิมานจักรี",
    "rating": 3.4,
    "address": "315 ถ. ราชวิถี แขวงทุ่งพญาไท เขตราชเทวี",
    "lat": 13.7685069,
    "lng": 100.5328757
  },
  {
    "mu_place": "วัดอินทรวิหาร พระอารามหลวง (บางขุนพรหม)",
    "name": "ไร่เหมือนจันทร์",
    "rating": 4.3,
    "address": "166/1 ถนน เลียบคลองทวีวัฒนา แขวงบางไผ่ เขตบางแค",
    "lat": 13.7385124,
    "lng": 100.3592722
  },
  {
    "mu_place": "วัดอินทรวิหาร พระอารามหลวง (บางขุนพรหม)",
    "name": "สวนเกร็ดพุทธ",
    "rating": 4.1,
    "address": "WF4Q+254 ตำบล เกาะเกร็ด อำเภอปากเกร็ด",
    "lat": 13.9050229,
    "lng": 100.4879706
  },
  {
    "mu_place": "วัดอินทรวิหาร พระอารามหลวง (บางขุนพรหม)",
    "name": "พิพิธภัณฑ์ช้างเอราวัณ",
    "rating": 4.4,
    "address": "99 ถ. กาญจนาภิเษก ตำบล บางเมืองใหม่ อำเภอเมืองสมุทรปราการ",
    "lat": 13.6285771,
    "lng": 100.5889193
  },
  {
    "mu_place": "วัดอินทรวิหาร พระอารามหลวง (บางขุนพรหม)",
    "name": "ตลาดน้ำคลองบางหลวง",
    "rating": 4.2,
    "address": "13°43'48. 100°27'50. 99/5 ซอย เพชรเกษม 20 แขวงปากคลองภาษีเจริญ เขตภาษีเจริญ",
    "lat": 13.7316243,
    "lng": 100.46312
  },
  {
    "mu_place": "วัดอินทรวิหาร พระอารามหลวง (บางขุนพรหม)",
    "name": "คลองบางหลวง (คลองบางกอกใหญ่)",
    "rating": 4.4,
    "address": "ซอย เพชรเกษม 20 แขวงปากคลองภาษีเจริญ เขตภาษีเจริญ",
    "lat": 13.7316031,
    "lng": 100.4632156
  },
  {
    "mu_place": "วัดอินทรวิหาร พระอารามหลวง (บางขุนพรหม)",
    "name": "ตลาดน้ำตลิ่งชัน",
    "rating": 4.2,
    "address": "333 ถนน ชักพระ แขวงคลองชักพระ เขตตลิ่งชัน",
    "lat": 13.7762674,
    "lng": 100.4565979
  },
  {
    "mu_place": "วัดอินทรวิหาร พระอารามหลวง (บางขุนพรหม)",
    "name": "ซีไลฟ์ แบงคอก",
    "rating": 4.5,
    "address": "ชั้น บี1-บี2 สยามพารากอน 991 ถ. พระรามที่ ๑ แขวงปทุมวัน เขตปทุมวัน",
    "lat": 13.7459351,
    "lng": 100.5352057
  },
  {
    "mu_place": "วัดอินทรวิหาร พระอารามหลวง (บางขุนพรหม)",
    "name": "บ้านศิลปินคลองบางหลวง : Artist House Bangkok",
    "rating": 4.5,
    "address": "309 ซอย เพชรเกษม 28 แขวงคูหาสวรรค์ เขตภาษีเจริญ",
    "lat": 13.7312977,
    "lng": 100.4632778
  },
  {
    "mu_place": "วัดอินทรวิหาร พระอารามหลวง (บางขุนพรหม)",
    "name": "หาดเติมรัก บางบัวทอง",
    "rating": 4.1,
    "address": "ตำบล บางคูรัด อำเภอบางบัวทอง",
    "lat": 13.8949929,
    "lng": 100.3518422
  },
  {
    "mu_place": "วัดอินทรวิหาร พระอารามหลวง (บางขุนพรหม)",
    "name": "Guide Thailandia & Tours",
    "rating": 0,
    "address": "888TT Building, ซ. สุขุมวิท 81 แขวงบางจาก เขตพระโขนง",
    "lat": 13.7061533,
    "lng": 100.6050823
  },
  {
    "mu_place": "วัดอินทรวิหาร พระอารามหลวง (บางขุนพรหม)",
    "name": "เสาชิงช้า",
    "rating": 4.6,
    "address": "239 ถนน ดินสอ แขวงบางขุนพรหม เขตพระนคร",
    "lat": 13.7517707,
    "lng": 100.5012761
  },
  {
    "mu_place": "วัดอินทรวิหาร พระอารามหลวง (บางขุนพรหม)",
    "name": "พระตำหนักแดง",
    "rating": 4.6,
    "address": "4 ถ. หน้าพระธาตุ แขวงพระบรมมหาราชวัง เขตพระนคร",
    "lat": 13.7577024,
    "lng": 100.491825
  },
  {
    "mu_place": "วัดอินทรวิหาร พระอารามหลวง (บางขุนพรหม)",
    "name": "สูงวัยพาเที่ยว",
    "rating": 0,
    "address": "JGFQ+F6J ถ. สุขสวัสดิ์ เขตจอมทอง",
    "lat": 13.6237038,
    "lng": 100.5380215
  },
  {
    "mu_place": "วัดอินทรวิหาร พระอารามหลวง (บางขุนพรหม)",
    "name": "อุทยานผีเสื้อและแมลง กรุงเทพฯ",
    "rating": 4.1,
    "address": "สวนวิชรเบญจทิศ(สวนรถไฟ ถนน กำแพงเพชร 3 แขวงลาดยาว เขตจตุจักร",
    "lat": 13.8095512,
    "lng": 100.5549011
  },
  {
    "mu_place": "วัดอินทรวิหาร พระอารามหลวง (บางขุนพรหม)",
    "name": "สถานที่ถ่ายรูป พระธรรมกายเทพมงคล",
    "rating": 4.8,
    "address": "766 ถนน เพชรเกษมสายเก่า แขวงวัดท่าพระ เขตบางกอกใหญ่",
    "lat": 13.7232028,
    "lng": 100.480732
  },
  {
    "mu_place": "วัดอินทรวิหาร พระอารามหลวง (บางขุนพรหม)",
    "name": "ช่างชุ่ย",
    "rating": 4.2,
    "address": "460/8 ถนน สิรินธร แขวงบางพลัด เขตบางพลัด",
    "lat": 13.7892225,
    "lng": 100.4707252
  },
  {
    "mu_place": "วัดอินทรวิหาร พระอารามหลวง (บางขุนพรหม)",
    "name": "ริมน้ำโขง หอ14",
    "rating": 0,
    "address": "50, Kasetsart University, Ngam Wong Wan Road, Lat Yao, Khet Chatuchak, Bangkok, 10900 แขวงลาดยาว เขตจตุจักร",
    "lat": 13.8487664,
    "lng": 100.5688721
  },
  {
    "mu_place": "ศาลเจ้าพ่อกรมหลวงชุมพร อุดมศักดิ์",
    "name": "หอดูนก สวนศรีนครเขื่อนขันธ์",
    "rating": 4.3,
    "address": "MHW9+F9V ตำบล บางกะเจ้า อำเภอพระประแดง",
    "lat": 13.6962495,
    "lng": 100.5684135
  },
  {
    "mu_place": "ศาลเจ้าพ่อกรมหลวงชุมพร อุดมศักดิ์",
    "name": "มิวเซียมสยาม",
    "rating": 4.5,
    "address": "4 ถนน สนามไชย แขวงพระบรมมหาราชวัง เขตพระนคร",
    "lat": 13.744147,
    "lng": 100.494137
  },
  {
    "mu_place": "ศาลเจ้าพ่อกรมหลวงชุมพร อุดมศักดิ์",
    "name": "พระที่นั่งพิมานจักรี",
    "rating": 3.4,
    "address": "315 ถ. ราชวิถี แขวงทุ่งพญาไท เขตราชเทวี",
    "lat": 13.7685069,
    "lng": 100.5328757
  },
  {
    "mu_place": "ศาลเจ้าพ่อกรมหลวงชุมพร อุดมศักดิ์",
    "name": "ไร่เหมือนจันทร์",
    "rating": 4.3,
    "address": "166/1 ถนน เลียบคลองทวีวัฒนา แขวงบางไผ่ เขตบางแค",
    "lat": 13.7385124,
    "lng": 100.3592722
  },
  {
    "mu_place": "ศาลเจ้าพ่อกรมหลวงชุมพร อุดมศักดิ์",
    "name": "สวนเกร็ดพุทธ",
    "rating": 4.1,
    "address": "WF4Q+254 ตำบล เกาะเกร็ด อำเภอปากเกร็ด",
    "lat": 13.9050229,
    "lng": 100.4879706
  },
  {
    "mu_place": "ศาลเจ้าพ่อกรมหลวงชุมพร อุดมศักดิ์",
    "name": "พิพิธภัณฑ์ช้างเอราวัณ",
    "rating": 4.4,
    "address": "99 ถ. กาญจนาภิเษก ตำบล บางเมืองใหม่ อำเภอเมืองสมุทรปราการ",
    "lat": 13.6285771,
    "lng": 100.5889193
  },
  {
    "mu_place": "ศาลเจ้าพ่อกรมหลวงชุมพร อุดมศักดิ์",
    "name": "ตลาดน้ำคลองบางหลวง",
    "rating": 4.2,
    "address": "13°43'48. 100°27'50. 99/5 ซอย เพชรเกษม 20 แขวงปากคลองภาษีเจริญ เขตภาษีเจริญ",
    "lat": 13.7316243,
    "lng": 100.46312
  },
  {
    "mu_place": "ศาลเจ้าพ่อกรมหลวงชุมพร อุดมศักดิ์",
    "name": "คลองบางหลวง (คลองบางกอกใหญ่)",
    "rating": 4.4,
    "address": "ซอย เพชรเกษม 20 แขวงปากคลองภาษีเจริญ เขตภาษีเจริญ",
    "lat": 13.7316031,
    "lng": 100.4632156
  },
  {
    "mu_place": "ศาลเจ้าพ่อกรมหลวงชุมพร อุดมศักดิ์",
    "name": "ตลาดน้ำตลิ่งชัน",
    "rating": 4.2,
    "address": "333 ถนน ชักพระ แขวงคลองชักพระ เขตตลิ่งชัน",
    "lat": 13.7762674,
    "lng": 100.4565979
  },
  {
    "mu_place": "ศาลเจ้าพ่อกรมหลวงชุมพร อุดมศักดิ์",
    "name": "ซีไลฟ์ แบงคอก",
    "rating": 4.5,
    "address": "ชั้น บี1-บี2 สยามพารากอน 991 ถ. พระรามที่ ๑ แขวงปทุมวัน เขตปทุมวัน",
    "lat": 13.7459351,
    "lng": 100.5352057
  },
  {
    "mu_place": "ศาลเจ้าพ่อกรมหลวงชุมพร อุดมศักดิ์",
    "name": "บ้านศิลปินคลองบางหลวง : Artist House Bangkok",
    "rating": 4.5,
    "address": "309 ซอย เพชรเกษม 28 แขวงคูหาสวรรค์ เขตภาษีเจริญ",
    "lat": 13.7312977,
    "lng": 100.4632778
  },
  {
    "mu_place": "ศาลเจ้าพ่อกรมหลวงชุมพร อุดมศักดิ์",
    "name": "หาดเติมรัก บางบัวทอง",
    "rating": 4.1,
    "address": "ตำบล บางคูรัด อำเภอบางบัวทอง",
    "lat": 13.8949929,
    "lng": 100.3518422
  },
  {
    "mu_place": "ศาลเจ้าพ่อกรมหลวงชุมพร อุดมศักดิ์",
    "name": "Guide Thailandia & Tours",
    "rating": 0,
    "address": "888TT Building, ซ. สุขุมวิท 81 แขวงบางจาก เขตพระโขนง",
    "lat": 13.7061533,
    "lng": 100.6050823
  },
  {
    "mu_place": "ศาลเจ้าพ่อกรมหลวงชุมพร อุดมศักดิ์",
    "name": "เสาชิงช้า",
    "rating": 4.6,
    "address": "239 ถนน ดินสอ แขวงบางขุนพรหม เขตพระนคร",
    "lat": 13.7517707,
    "lng": 100.5012761
  },
  {
    "mu_place": "ศาลเจ้าพ่อกรมหลวงชุมพร อุดมศักดิ์",
    "name": "พระตำหนักแดง",
    "rating": 4.6,
    "address": "4 ถ. หน้าพระธาตุ แขวงพระบรมมหาราชวัง เขตพระนคร",
    "lat": 13.7577024,
    "lng": 100.491825
  },
  {
    "mu_place": "ศาลเจ้าพ่อกรมหลวงชุมพร อุดมศักดิ์",
    "name": "สูงวัยพาเที่ยว",
    "rating": 0,
    "address": "JGFQ+F6J ถ. สุขสวัสดิ์ เขตจอมทอง",
    "lat": 13.6237038,
    "lng": 100.5380215
  },
  {
    "mu_place": "ศาลเจ้าพ่อกรมหลวงชุมพร อุดมศักดิ์",
    "name": "อุทยานผีเสื้อและแมลง กรุงเทพฯ",
    "rating": 4.1,
    "address": "สวนวิชรเบญจทิศ(สวนรถไฟ ถนน กำแพงเพชร 3 แขวงลาดยาว เขตจตุจักร",
    "lat": 13.8095512,
    "lng": 100.5549011
  },
  {
    "mu_place": "ศาลเจ้าพ่อกรมหลวงชุมพร อุดมศักดิ์",
    "name": "สถานที่ถ่ายรูป พระธรรมกายเทพมงคล",
    "rating": 4.8,
    "address": "766 ถนน เพชรเกษมสายเก่า แขวงวัดท่าพระ เขตบางกอกใหญ่",
    "lat": 13.7232028,
    "lng": 100.480732
  },
  {
    "mu_place": "ศาลเจ้าพ่อกรมหลวงชุมพร อุดมศักดิ์",
    "name": "ริมน้ำโขง หอ14",
    "rating": 0,
    "address": "50, Kasetsart University, Ngam Wong Wan Road, Lat Yao, Khet Chatuchak, Bangkok, 10900 แขวงลาดยาว เขตจตุจักร",
    "lat": 13.8487664,
    "lng": 100.5688721
  },
  {
    "mu_place": "ศาลเจ้าพ่อกรมหลวงชุมพร อุดมศักดิ์",
    "name": "ลาน 60 ปี ธรรมศาสตร์",
    "rating": 4.5,
    "address": "2 ถ. หน้าพระธาตุ แขวงพระบรมมหาราชวัง เขตพระนคร",
    "lat": 13.7575138,
    "lng": 100.4895887
  },
  {
    "mu_place": "วิหารพระพุทธชินราชมงคลปราการ",
    "name": "หอดูนก สวนศรีนครเขื่อนขันธ์",
    "rating": 4.3,
    "address": "MHW9+F9V ตำบล บางกะเจ้า อำเภอพระประแดง",
    "lat": 13.6962495,
    "lng": 100.5684135
  },
  {
    "mu_place": "วิหารพระพุทธชินราชมงคลปราการ",
    "name": "มิวเซียมสยาม",
    "rating": 4.5,
    "address": "4 ถนน สนามไชย แขวงพระบรมมหาราชวัง เขตพระนคร",
    "lat": 13.744147,
    "lng": 100.494137
  },
  {
    "mu_place": "วิหารพระพุทธชินราชมงคลปราการ",
    "name": "พระที่นั่งพิมานจักรี",
    "rating": 3.4,
    "address": "315 ถ. ราชวิถี แขวงทุ่งพญาไท เขตราชเทวี",
    "lat": 13.7685069,
    "lng": 100.5328757
  },
  {
    "mu_place": "วิหารพระพุทธชินราชมงคลปราการ",
    "name": "เมืองโบราณ",
    "rating": 4.5,
    "address": "296 1 ถ. สุขุมวิท ตำบล บางปูใหม่ อำเภอเมืองสมุทรปราการ",
    "lat": 13.5477108,
    "lng": 100.6300391
  },
  {
    "mu_place": "วิหารพระพุทธชินราชมงคลปราการ",
    "name": "พิพิธภัณฑ์ช้างเอราวัณ",
    "rating": 4.4,
    "address": "99 ถ. กาญจนาภิเษก ตำบล บางเมืองใหม่ อำเภอเมืองสมุทรปราการ",
    "lat": 13.6285771,
    "lng": 100.5889193
  },
  {
    "mu_place": "วิหารพระพุทธชินราชมงคลปราการ",
    "name": "ตลาดน้ำคลองบางหลวง",
    "rating": 4.2,
    "address": "13°43'48. 100°27'50. 99/5 ซอย เพชรเกษม 20 แขวงปากคลองภาษีเจริญ เขตภาษีเจริญ",
    "lat": 13.7316243,
    "lng": 100.46312
  },
  {
    "mu_place": "วิหารพระพุทธชินราชมงคลปราการ",
    "name": "สถานตากอากาศบางปู",
    "rating": 4.3,
    "address": "164 ถ. สุขุมวิท ตำบล บางปูใหม่ อำเภอเมืองสมุทรปราการ",
    "lat": 13.5172594,
    "lng": 100.6549268
  },
  {
    "mu_place": "วิหารพระพุทธชินราชมงคลปราการ",
    "name": "คลองบางหลวง (คลองบางกอกใหญ่)",
    "rating": 4.4,
    "address": "ซอย เพชรเกษม 20 แขวงปากคลองภาษีเจริญ เขตภาษีเจริญ",
    "lat": 13.7316031,
    "lng": 100.4632156
  },
  {
    "mu_place": "วิหารพระพุทธชินราชมงคลปราการ",
    "name": "ตลาดน้ำตลิ่งชัน",
    "rating": 4.2,
    "address": "333 ถนน ชักพระ แขวงคลองชักพระ เขตตลิ่งชัน",
    "lat": 13.7762674,
    "lng": 100.4565979
  },
  {
    "mu_place": "วิหารพระพุทธชินราชมงคลปราการ",
    "name": "วิหารวัดพร้าว ตาก (จำลอง)",
    "rating": 0,
    "address": "เมืองโบราณ ตำบล แพรกษา อำเภอเมืองสมุทรปราการ",
    "lat": 13.5494887,
    "lng": 100.6310212
  },
  {
    "mu_place": "วิหารพระพุทธชินราชมงคลปราการ",
    "name": "ซีไลฟ์ แบงคอก",
    "rating": 4.5,
    "address": "ชั้น บี1-บี2 สยามพารากอน 991 ถ. พระรามที่ ๑ แขวงปทุมวัน เขตปทุมวัน",
    "lat": 13.7459351,
    "lng": 100.5352057
  },
  {
    "mu_place": "วิหารพระพุทธชินราชมงคลปราการ",
    "name": "บ้านศิลปินคลองบางหลวง : Artist House Bangkok",
    "rating": 4.5,
    "address": "309 ซอย เพชรเกษม 28 แขวงคูหาสวรรค์ เขตภาษีเจริญ",
    "lat": 13.7312977,
    "lng": 100.4632778
  },
  {
    "mu_place": "วิหารพระพุทธชินราชมงคลปราการ",
    "name": "Guide Thailandia & Tours",
    "rating": 0,
    "address": "888TT Building, ซ. สุขุมวิท 81 แขวงบางจาก เขตพระโขนง",
    "lat": 13.7061533,
    "lng": 100.6050823
  },
  {
    "mu_place": "วิหารพระพุทธชินราชมงคลปราการ",
    "name": "เสาชิงช้า",
    "rating": 4.6,
    "address": "239 ถนน ดินสอ แขวงบางขุนพรหม เขตพระนคร",
    "lat": 13.7517707,
    "lng": 100.5012761
  },
  {
    "mu_place": "วิหารพระพุทธชินราชมงคลปราการ",
    "name": "เขาพระสุเมรุจำลอง เมืองโบราณ สมุทรปราการ (102)",
    "rating": 4.5,
    "address": "GJXH+X8Q ตำบล แพรกษา อำเภอเมืองสมุทรปราการ",
    "lat": 13.5499587,
    "lng": 100.6283551
  },
  {
    "mu_place": "วิหารพระพุทธชินราชมงคลปราการ",
    "name": "พระตำหนักแดง",
    "rating": 4.6,
    "address": "4 ถ. หน้าพระธาตุ แขวงพระบรมมหาราชวัง เขตพระนคร",
    "lat": 13.7577024,
    "lng": 100.491825
  },
  {
    "mu_place": "วิหารพระพุทธชินราชมงคลปราการ",
    "name": "สูงวัยพาเที่ยว",
    "rating": 0,
    "address": "JGFQ+F6J ถ. สุขสวัสดิ์ เขตจอมทอง",
    "lat": 13.6237038,
    "lng": 100.5380215
  },
  {
    "mu_place": "วิหารพระพุทธชินราชมงคลปราการ",
    "name": "ป้อมพระจุลจอมเกล้า",
    "rating": 4.5,
    "address": "GHQM+4FH ตำบล แหลมฟ้าผ่า อำเภอพระสมุทรเจดีย์",
    "lat": 13.5379172,
    "lng": 100.5836028
  },
  {
    "mu_place": "วิหารพระพุทธชินราชมงคลปราการ",
    "name": "สถานที่ถ่ายรูป พระธรรมกายเทพมงคล",
    "rating": 4.8,
    "address": "766 ถนน เพชรเกษมสายเก่า แขวงวัดท่าพระ เขตบางกอกใหญ่",
    "lat": 13.7232028,
    "lng": 100.480732
  },
  {
    "mu_place": "วิหารพระพุทธชินราชมงคลปราการ",
    "name": "ลาน 60 ปี ธรรมศาสตร์",
    "rating": 4.5,
    "address": "2 ถ. หน้าพระธาตุ แขวงพระบรมมหาราชวัง เขตพระนคร",
    "lat": 13.7575138,
    "lng": 100.4895887
  },
  {
    "mu_place": "ท้าวเวสสุวรรณ วัดจุฬามณี",
    "name": "สะพานไม้สายรุ้ง",
    "rating": 4.2,
    "address": "C4WX+V7V ถนนลบทะเล ตำบล กาหลง อำเภอเมืองสมุทรสาคร",
    "lat": 13.4472482,
    "lng": 100.1481764
  },
  {
    "mu_place": "ท้าวเวสสุวรรณ วัดจุฬามณี",
    "name": "แหล่งท่องเที่ยวตำบลเหมืองใหม่",
    "rating": 4.1,
    "address": "FW36+Q44 ตำบล เหมืองใหม่ อำเภออัมพวา",
    "lat": 13.4543971,
    "lng": 99.910337
  },
  {
    "mu_place": "ท้าวเวสสุวรรณ วัดจุฬามณี",
    "name": "เตาตาลดี",
    "rating": 3.8,
    "address": "FX37+FRW ตำบล บางพรม อำเภอ บางคนที",
    "lat": 13.4537475,
    "lng": 99.96457869999999
  },
  {
    "mu_place": "ท้าวเวสสุวรรณ วัดจุฬามณี",
    "name": "ดอนหอยหลอด",
    "rating": 4.2,
    "address": "926F+P46 2009 ตำบล บางจะเกร็ง อำเภอเมืองสมุทรสงคราม",
    "lat": 13.3617839,
    "lng": 100.0227791
  },
  {
    "mu_place": "ท้าวเวสสุวรรณ วัดจุฬามณี",
    "name": "ตลาดน้ำอัมพวา",
    "rating": 4.3,
    "address": "CXG3+2X5 ตำบล อัมพวา อำเภออัมพวา",
    "lat": 13.4250084,
    "lng": 99.95497619999999
  },
  {
    "mu_place": "ท้าวเวสสุวรรณ วัดจุฬามณี",
    "name": "สวนเกษตรชัยไดม่อนการ์เด้น",
    "rating": 3,
    "address": "หมู่ที่​ 9 35 ตำบล สวนหลวง อำเภออัมพวา",
    "lat": 13.4163233,
    "lng": 99.94187590000001
  },
  {
    "mu_place": "ท้าวเวสสุวรรณ วัดจุฬามณี",
    "name": "ช้างเผือกฟาร์ม จำกัด",
    "rating": 3.9,
    "address": "เลขที่ 76/2 ตำบล ขุนพิทักษ์ อำเภอดำเนินสะดวก",
    "lat": 13.5114949,
    "lng": 99.9734331
  },
  {
    "mu_place": "ท้าวเวสสุวรรณ วัดจุฬามณี",
    "name": "ชมรมส่งเสริมการท่องเที่ยวตำบลดำเนินสะดวก",
    "rating": 5,
    "address": "GX82+QVX ตำบล ดำเนินสะดวก อำเภอดำเนินสะดวก",
    "lat": 13.516996,
    "lng": 99.9522303
  },
  {
    "mu_place": "ท้าวเวสสุวรรณ วัดจุฬามณี",
    "name": "ไร่ม่อนตาองค์",
    "rating": 5,
    "address": "201 ม.4, ต.ห้วยไผ่ อ.เมือง ตำบลดอนตะโก อำเภอเมืองราชบุรี",
    "lat": 13.510646,
    "lng": 99.780999
  },
  {
    "mu_place": "ท้าวเวสสุวรรณ วัดจุฬามณี",
    "name": "อุทยานพระบรมราชานุสรณ์ สมเด็จพระพุทธเลิศหล้านภาลัย",
    "rating": 4.4,
    "address": "ตำบล อัมพวา อำเภออัมพวา",
    "lat": 13.4251715,
    "lng": 99.9524778
  },
  {
    "mu_place": "ท้าวเวสสุวรรณ วัดจุฬามณี",
    "name": "Bang Noi local community",
    "rating": 5,
    "address": "FW8W+3XW ซอย เทศบาลตำบลกระดังงา 12 ตำบล กระดังงา อำเภอ บางคนที",
    "lat": 13.4652428,
    "lng": 99.947459
  },
  {
    "mu_place": "ท้าวเวสสุวรรณ วัดจุฬามณี",
    "name": "ธุรกิจตัวอย่าง",
    "rating": 0,
    "address": "433 ถ ศรีสุริยวงศ์ ตำบล หน้าเมือง เมือง",
    "lat": 13.532745,
    "lng": 99.80804909999999
  },
  {
    "mu_place": "ท้าวเวสสุวรรณ วัดจุฬามณี",
    "name": "ซุ้มโคนมะขาม บ้านสวนฉายแก้ว",
    "rating": 0,
    "address": "43 หมู่ 10 ตำบล เหมืองใหม่ อำเภออัมพวา",
    "lat": 13.4466442,
    "lng": 99.89437620000001
  },
  {
    "mu_place": "ท้าวเวสสุวรรณ วัดจุฬามณี",
    "name": "ตลาดร่มหุบ สมุทรสงคราม",
    "rating": 4.5,
    "address": "545/3 ซอยข้างห้างทวีกิจแม่กลอง แม่กลอง อำเภอเมืองสมุทรสงคราม",
    "lat": 13.4073898,
    "lng": 99.9989205
  },
  {
    "mu_place": "ท้าวเวสสุวรรณ วัดจุฬามณี",
    "name": "วัดบางกุ้ง",
    "rating": 4.5,
    "address": "บ้านค่าย หมู่ที่ 4 ตำบล บางกุ้ง อำเภอ บางคนที",
    "lat": 13.4461111,
    "lng": 99.9411111
  },
  {
    "mu_place": "ท้าวเวสสุวรรณ วัดจุฬามณี",
    "name": "Chiang Mai",
    "rating": 0,
    "address": "เลขที่ 1 ถนนโชติธำรงค์ ตำบล อัมพวา อำเภออัมพวา",
    "lat": 13.425055,
    "lng": 99.9551717
  },
  {
    "mu_place": "ท้าวเวสสุวรรณ วัดจุฬามณี",
    "name": "พิพิธภัณฑ์วัดเขายี่สาร",
    "rating": 4.3,
    "address": "8W23+H4R ตำบล ยี่สาร อำเภออัมพวา",
    "lat": 13.3014879,
    "lng": 99.9027583
  },
  {
    "mu_place": "ท้าวเวสสุวรรณ วัดจุฬามณี",
    "name": "บ้านสวนมะนาวโห่ลุงศิริ",
    "rating": 4.4,
    "address": "29 ตำบล บางนกแขวก อำเภอ บางคนที",
    "lat": 13.5039003,
    "lng": 99.9184307
  },
  {
    "mu_place": "ท้าวเวสสุวรรณ วัดจุฬามณี",
    "name": "บ้านแฟง ดอนมะโนรา สมุทรสงคราม By sak",
    "rating": 5,
    "address": "ตำบล ดอนมะโนรา อำเภอ บางคนที",
    "lat": 13.490005,
    "lng": 99.9917249
  },
  {
    "mu_place": "ท้าวเวสสุวรรณ วัดจุฬามณี",
    "name": "TRYNY LAND",
    "rating": 5,
    "address": "CXVP+CP4 ตำบล คลองเขิน อำเภอเมืองสมุทรสงคราม",
    "lat": 13.4435106,
    "lng": 99.98682269999999
  },
  {
    "mu_place": "หลวงพ่อปลดหนี้ วัดห้วยน้ำทรัพย์ หรือ วัดพระธาตุวาโย",
    "name": "UWall House Model",
    "rating": 0,
    "address": "526, ตำบล คู้ยายหมี อำเภอสนามชัยเขต",
    "lat": 13.6124807,
    "lng": 101.5356041
  },
  {
    "mu_place": "หลวงพ่อปลดหนี้ วัดห้วยน้ำทรัพย์ หรือ วัดพระธาตุวาโย",
    "name": "ทุ่งนา BKK บ้านโกรกแก้ว",
    "rating": 5,
    "address": "37 1 ตำบล วังเย็น อำเภอแปลงยาว",
    "lat": 13.4992018,
    "lng": 101.3216666
  },
  {
    "mu_place": "หลวงพ่อปลดหนี้ วัดห้วยน้ำทรัพย์ หรือ วัดพระธาตุวาโย",
    "name": "หอดูดาวเฉลิมพระเกียรติ 7 รอบ​ พระชนมพรรษา ฉะเชิงเทรา",
    "rating": 4.7,
    "address": "หมู่ที่ 3 เลขที่ 999 ตำบล วังเย็น อำเภอแปลงยาว",
    "lat": 13.593513,
    "lng": 101.256158
  },
  {
    "mu_place": "หลวงพ่อปลดหนี้ วัดห้วยน้ำทรัพย์ หรือ วัดพระธาตุวาโย",
    "name": "อุทยานหุ่นปั้นอาจารย์ซ่วน",
    "rating": 4.4,
    "address": "P8HX+QHM, Unnamed Rd, ตำบล ท่าถ่าน อำเภอพนมสารคาม",
    "lat": 13.7294721,
    "lng": 101.348935
  },
  {
    "mu_place": "หลวงพ่อปลดหนี้ วัดห้วยน้ำทรัพย์ หรือ วัดพระธาตุวาโย",
    "name": "โคกหนองนา โมเดล สวนป่าริมธาร พนัสนิคม",
    "rating": 4.9,
    "address": "ซอย บ้านดอนกอก ตำบล นาเริก อำเภอพนัสนิคม",
    "lat": 13.4254146,
    "lng": 101.2486112
  },
  {
    "mu_place": "หลวงพ่อปลดหนี้ วัดห้วยน้ำทรัพย์ หรือ วัดพระธาตุวาโย",
    "name": "ส่วนป่าคุณลุงวิทูรย์",
    "rating": 0,
    "address": "27 หมู่7 ตำบล ลาดกระทิง อำเภอสนามชัยเขต",
    "lat": 13.6137002,
    "lng": 101.4466563
  },
  {
    "mu_place": "หลวงพ่อปลดหนี้ วัดห้วยน้ำทรัพย์ หรือ วัดพระธาตุวาโย",
    "name": "นางชลชญา ชาญรวินทร์ (ศูนย์เรียนรู้วนเกษตร)",
    "rating": 0,
    "address": "92 2 ตำบล เกาะขนุน อำเภอพนมสารคาม",
    "lat": 13.6843208,
    "lng": 101.4118525
  },
  {
    "mu_place": "หลวงพ่อปลดหนี้ วัดห้วยน้ำทรัพย์ หรือ วัดพระธาตุวาโย",
    "name": "บ้านริมน้ำฟาร์มควายไทย",
    "rating": 5,
    "address": "Q826+8VH 3444 ตำบล บางคา อำเภอ ราชสาส์น",
    "lat": 13.7508132,
    "lng": 101.3122322
  },
  {
    "mu_place": "หลวงพ่อปลดหนี้ วัดห้วยน้ำทรัพย์ หรือ วัดพระธาตุวาโย",
    "name": "กระต๊อบมีนามีงู",
    "rating": 5,
    "address": "20/1Moo1, Tambon Huasamrong, Amphoe PaengYao, ตำบล หัวสำโรง อำเภอแปลงยาว",
    "lat": 13.6512411,
    "lng": 101.2926629
  },
  {
    "mu_place": "หลวงพ่อปลดหนี้ วัดห้วยน้ำทรัพย์ หรือ วัดพระธาตุวาโย",
    "name": "วัดหลวงพี่แซม",
    "rating": 4.5,
    "address": "51 หมู่10 ทางหลวงหมายเลข 331 ตำบล หนองปรือ อำเภอพนัสนิคม",
    "lat": 13.5011686,
    "lng": 101.2701928
  },
  {
    "mu_place": "หลวงพ่อปลดหนี้ วัดห้วยน้ำทรัพย์ หรือ วัดพระธาตุวาโย",
    "name": "สวนน้ำฤทัย",
    "rating": 4,
    "address": "GH3W+2W ตำบล คลองตะเกรา อำเภอท่าตะเกียบ",
    "lat": 13.5026223,
    "lng": 101.5973008
  },
  {
    "mu_place": "หลวงพ่อปลดหนี้ วัดห้วยน้ำทรัพย์ หรือ วัดพระธาตุวาโย",
    "name": "สวนบ้านเล็ก",
    "rating": 0,
    "address": "97X7+V9 ตำบล นาเริก อำเภอพนัสนิคม",
    "lat": 13.399688,
    "lng": 101.263395
  },
  {
    "mu_place": "หลวงพ่อปลดหนี้ วัดห้วยน้ำทรัพย์ หรือ วัดพระธาตุวาโย",
    "name": "สวนเภตรา",
    "rating": 4.6,
    "address": "JC6Q+XF ตำบล ลาดกระทิง อำเภอสนามชัยเขต",
    "lat": 13.6123994,
    "lng": 101.4386937
  },
  {
    "mu_place": "วัดสายไหม",
    "name": "Spy War",
    "rating": 4.5,
    "address": "World, Safari แขวงสามวาตะวันตก เขตคลองสามวา",
    "lat": 13.8640257,
    "lng": 100.7014903
  },
  {
    "mu_place": "วัดสายไหม",
    "name": "พระที่นั่งพิมานจักรี",
    "rating": 3.4,
    "address": "315 ถ. ราชวิถี แขวงทุ่งพญาไท เขตราชเทวี",
    "lat": 13.7685069,
    "lng": 100.5328757
  },
  {
    "mu_place": "วัดสายไหม",
    "name": "สวนเกร็ดพุทธ",
    "rating": 4.1,
    "address": "WF4Q+254 ตำบล เกาะเกร็ด อำเภอปากเกร็ด",
    "lat": 13.9050229,
    "lng": 100.4879706
  },
  {
    "mu_place": "วัดสายไหม",
    "name": "ซาฟารีเวิลด์",
    "rating": 4.5,
    "address": "99 ถ. ปัญญาอินทรา แขวงสามวาตะวันตก เขตคลองสามวา",
    "lat": 13.8654914,
    "lng": 100.7030427
  },
  {
    "mu_place": "วัดสายไหม",
    "name": "พระตำหนักแดง",
    "rating": 4.6,
    "address": "4 ถ. หน้าพระธาตุ แขวงพระบรมมหาราชวัง เขตพระนคร",
    "lat": 13.7577024,
    "lng": 100.491825
  },
  {
    "mu_place": "วัดสายไหม",
    "name": "เสาชิงช้า",
    "rating": 4.6,
    "address": "239 ถนน ดินสอ แขวงบางขุนพรหม เขตพระนคร",
    "lat": 13.7517707,
    "lng": 100.5012761
  },
  {
    "mu_place": "วัดสายไหม",
    "name": "อุทยานผีเสื้อและแมลง กรุงเทพฯ",
    "rating": 4.1,
    "address": "สวนวิชรเบญจทิศ(สวนรถไฟ ถนน กำแพงเพชร 3 แขวงลาดยาว เขตจตุจักร",
    "lat": 13.8095512,
    "lng": 100.5549011
  },
  {
    "mu_place": "วัดสายไหม",
    "name": "ริมน้ำโขง หอ14",
    "rating": 0,
    "address": "50, Kasetsart University, Ngam Wong Wan Road, Lat Yao, Khet Chatuchak, Bangkok, 10900 แขวงลาดยาว เขตจตุจักร",
    "lat": 13.8487664,
    "lng": 100.5688721
  },
  {
    "mu_place": "วัดสายไหม",
    "name": "พิพิธภัณฑ์ของเล่น ตูนนี่ ประเทศไทย",
    "rating": 4.2,
    "address": "ซอย ศรีสมาน 8 ตำบลบ้านใหม่ อำเภอปากเกร็ด",
    "lat": 13.9347737,
    "lng": 100.5617274
  },
  {
    "mu_place": "วัดสายไหม",
    "name": "พิพิธภัณฑ์บัว มหาวิทยาลัยเทคโนโลยีราชมงคลธัญบุรี",
    "rating": 4.2,
    "address": "มหาวิทยาลัยเทคโนโลยีราชมงคล ธัญบุรี 39 ถนน รังสิต - นครนายก ตำบล คลองหก อำเภอคลองหลวง",
    "lat": 14.032087,
    "lng": 100.7302152
  },
  {
    "mu_place": "วัดสายไหม",
    "name": "ลาน 60 ปี ธรรมศาสตร์",
    "rating": 4.5,
    "address": "2 ถ. หน้าพระธาตุ แขวงพระบรมมหาราชวัง เขตพระนคร",
    "lat": 13.7575138,
    "lng": 100.4895887
  },
  {
    "mu_place": "วัดสายไหม",
    "name": "ท่องเที่ยวลำพัง",
    "rating": 0,
    "address": "QF7H+2R4 คลอง แขวงอรุณอมรินทร์ เขตบางกอกน้อย",
    "lat": 13.7625155,
    "lng": 100.4795931
  },
  {
    "mu_place": "วัดสายไหม",
    "name": "พุทธสถานเชิงท่า-หน้าโบสถ์",
    "rating": 4.6,
    "address": "VFVR+HQW ท่าทราย อำเภอเมืองนนทบุรี",
    "lat": 13.893999,
    "lng": 100.4918495
  },
  {
    "mu_place": "วัดสายไหม",
    "name": "ป้อมพระสุเมรุ",
    "rating": 4.4,
    "address": "QF7W+H7W ถนน พระอาทิตย์ แขวงชนะสงคราม เขตพระนคร",
    "lat": 13.7639776,
    "lng": 100.4956975
  },
  {
    "mu_place": "วัดสายไหม",
    "name": "พิพิธภัณฑ์ศิลปะไทยร่วมสมัย",
    "rating": 4.7,
    "address": "VH27+Q2X 499 ถ. กำแพงเพชร 6 แขวงลาดยาว เขตจตุจักร",
    "lat": 13.8522993,
    "lng": 100.5630055
  },
  {
    "mu_place": "วัดสายไหม",
    "name": "วัดสุทัศนเทพวรารามราชวรมหาวิหาร",
    "rating": 4.7,
    "address": "146 ถ. บำรุงเมือง แขวงวัดราชบพิตร เขตพระนคร",
    "lat": 13.751068,
    "lng": 100.5010391
  },
  {
    "mu_place": "วัดสายไหม",
    "name": "ทุ่งทอง@บางเขน",
    "rating": 4.2,
    "address": "ซอย กาญจนาภิเษก 6 แขวงท่าแร้ง เขตบางเขน",
    "lat": 13.8788382,
    "lng": 100.6810585
  },
  {
    "mu_place": "วัดสายไหม",
    "name": "สวนเฉลิมหล้า",
    "rating": 4.3,
    "address": "ซอย เพชรบุรี 18 - ซอย ซอย เพชรบุรี 18 แขวงถนนเพชรบุรี เขตราชเทวี",
    "lat": 13.7500569,
    "lng": 100.5316902
  },
  {
    "mu_place": "วัดสายไหม",
    "name": "บจก. สวนสัตว์พาต้า",
    "rating": 3.2,
    "address": "QFCM+MPP ถนน สมเด็จพระปิ่นเกล้า แขวงบางยี่ขัน เขตบางพลัด",
    "lat": 13.7717036,
    "lng": 100.4843353
  },
  {
    "mu_place": "วัดสายไหม",
    "name": "สวนสันติชัยปราการ",
    "rating": 4.4,
    "address": "QF7W+J29 ถนน พระอาทิตย์ แขวงชนะสงคราม เขตพระนคร",
    "lat": 13.7640367,
    "lng": 100.4951096
  },
  {
    "mu_place": "ศาลปู่อือลือนาคราช",
    "name": "น้ำตกตาดกินรี",
    "rating": 4.4,
    "address": "หมู่ที่ 5 105 ตำบล โพธิ์หมากแข้ง อำเภอ บึงโขงหลง",
    "lat": 17.9456942,
    "lng": 104.1301892
  },
  {
    "mu_place": "ศาลปู่อือลือนาคราช",
    "name": "ถ้ำนาคี นครพนม(Nakee Cave)",
    "rating": 4.8,
    "address": "X4MG+XW5 ตำบล ไผ่ล้อม อำเภอ บ้านแพง",
    "lat": 17.984897,
    "lng": 104.127357
  },
  {
    "mu_place": "ศาลปู่อือลือนาคราช",
    "name": "ถึงแล้วภูลังกา ชุมชนท่องเที่ยว OTOP นวัตวิถี บ้านดงสว่าง",
    "rating": 4.7,
    "address": "X32R+GHP บก.4017 ตำบล โพธิ์หมากแข้ง อำเภอ บึงโขงหลง",
    "lat": 17.951337,
    "lng": 104.0914581
  },
  {
    "mu_place": "ศาลปู่อือลือนาคราช",
    "name": "วังนาคิน น้ำตกกินรี",
    "rating": 5,
    "address": "W4VH+VXV ตำบล โพธิ์หมากแข้ง อำเภอ บึงโขงหลง",
    "lat": 17.9447228,
    "lng": 104.1299351
  },
  {
    "mu_place": "ศาลปู่อือลือนาคราช",
    "name": "จุดขึ้นชมถ้ำนาคา จุดที่ 2 บึงกาฬ",
    "rating": 4.7,
    "address": "W4V4+WFF ตำบล โพธิ์หมากแข้ง อำเภอ บึงโขงหลง",
    "lat": 17.944823,
    "lng": 104.106171
  },
  {
    "mu_place": "ศาลปู่อือลือนาคราช",
    "name": "เจดีย์พระธาตุน้อยฐานหินลายเกล็ด",
    "rating": 5,
    "address": "X4F7+F6C ตำบล โพธิ์หมากแข้ง อำเภอ บึงโขงหลง",
    "lat": 17.9736938,
    "lng": 104.1130017
  },
  {
    "mu_place": "ศาลปู่อือลือนาคราช",
    "name": "ทางขึ้นสักการะหลวงพ่อพระขาว",
    "rating": 0,
    "address": "W3WV+9V5 ตำบล โพธิ์หมากแข้ง อำเภอ บึงโขงหลง",
    "lat": 17.9458898,
    "lng": 104.0947274
  },
  {
    "mu_place": "ศาลปู่อือลือนาคราช",
    "name": "ถ้ำกินรีนาคา",
    "rating": 4.9,
    "address": "W4VH+VXV ตำบล โพธิ์หมากแข้ง อำเภอ บึงโขงหลง",
    "lat": 17.9447499,
    "lng": 104.1299169
  },
  {
    "mu_place": "ศาลปู่อือลือนาคราช",
    "name": "หินรถบัส ภูลังกา",
    "rating": 5,
    "address": "X4J6+7WF ตำบล โพธิ์หมากแข้ง อำเภอ บึงโขงหลง",
    "lat": 17.9806912,
    "lng": 104.1122845
  },
  {
    "mu_place": "ศาลปู่อือลือนาคราช",
    "name": "Tham Phra Waterfall น้ำตกถ้ำพระ",
    "rating": 4.6,
    "address": "4XRR+2Q ตำบล โสกก่าม อำเภอ เซกา",
    "lat": 18.1400615,
    "lng": 103.991967
  },
  {
    "mu_place": "ศาลปู่อือลือนาคราช",
    "name": "จุดขึ้นชมถ้ำนาคาและน้ำตกตาดวิมานทิพย์ บึงกาฬ",
    "rating": 4.5,
    "address": "W3RW+P5R Unnamed Road ตำบล โพธิ์หมากแข้ง อำเภอ บึงโขงหลง",
    "lat": 17.9418611,
    "lng": 104.0953889
  },
  {
    "mu_place": "ศาลปู่อือลือนาคราช",
    "name": "Maher Mekong Sanctuary",
    "rating": 0,
    "address": "255V+V56 ตำบล บ้านแพง อำเภอ บ้านแพง",
    "lat": 18.0096875,
    "lng": 104.1929375
  },
  {
    "mu_place": "ศาลปู่อือลือนาคราช",
    "name": "Maher Mekong Sanctuary",
    "rating": 0,
    "address": "254v+jjx ต, ตำบล บ้านแพง อำเภอ บ้านแพง",
    "lat": 18.0065625,
    "lng": 104.1940625
  },
  {
    "mu_place": "ศาลปู่อือลือนาคราช",
    "name": "เนินสนามบิน",
    "rating": 5,
    "address": "X427+PXC ตำบล โพธิ์หมากแข้ง อำเภอ บึงโขงหลง",
    "lat": 17.9518129,
    "lng": 104.114895
  },
  {
    "mu_place": "ศาลปู่อือลือนาคราช",
    "name": "หินนาคา(กินรี)จุดที่4",
    "rating": 4.1,
    "address": "W4VG+M3H ที่ตัังหินนาคา(กินรี) Unnamed Road ตำบล โพธิ์หมากแข้ง อำเภอ บึงโขงหลง",
    "lat": 17.944188,
    "lng": 104.125221
  },
  {
    "mu_place": "ศาลปู่อือลือนาคราช",
    "name": "สวนสยามอินทผลัม",
    "rating": 5,
    "address": "XXQ7+42F Unnamed Road ตำบล เซกา อำเภอ เซกา",
    "lat": 17.9878175,
    "lng": 103.9625388
  },
  {
    "mu_place": "ศาลปู่อือลือนาคราช",
    "name": "กระถินทุ่ง@บึงโขงหลง",
    "rating": 1,
    "address": "W2HP+FHV ตำบล โพธิ์หมากแข้ง อำเภอ บึงโขงหลง",
    "lat": 17.9287322,
    "lng": 104.036434
  },
  {
    "mu_place": "ศาลปู่อือลือนาคราช",
    "name": "38ภูลังกาฟาร์ม",
    "rating": 3.3,
    "address": "X3XQ+PR6 2026 ตำบล บึงโขงหลง อำเภอ บึงโขงหลง",
    "lat": 17.9992895,
    "lng": 104.0895162
  },
  {
    "mu_place": "ศาลปู่อือลือนาคราช",
    "name": "ถนนต้นยาง",
    "rating": 0,
    "address": "2482+693 บก.4015 ตำบล ดงบัง อำเภอ บึงโขงหลง",
    "lat": 18.0155012,
    "lng": 104.1009191
  },
  {
    "mu_place": "ลานพญาศรีสัตตนาคราช",
    "name": "Mekong Sunset Photo Viewpoint (จุดถ่ายรูปพระอาทิตย์ตกริมโขง)",
    "rating": 4.9,
    "address": "วัดพระอินทร์แปลง, ตำบล ในเมือง อำเภอเมืองนครพนม",
    "lat": 17.389,
    "lng": 104.7933889
  },
  {
    "mu_place": "ลานพญาศรีสัตตนาคราช",
    "name": "ลานพญาศรีสัตตนาคราช นครพนม",
    "rating": 4.7,
    "address": "9QXR+Q63 ตำบล ในเมือง อำเภอเมืองนครพนม",
    "lat": 17.3993855,
    "lng": 104.7905434
  },
  {
    "mu_place": "ลานพญาศรีสัตตนาคราช",
    "name": "พิพิธภัณฑ์สัตว์น้ำจืด หนองญาติ",
    "rating": 4.3,
    "address": "9PFP+HMP ตำบล หนองญาติ อำเภอเมืองนครพนม",
    "lat": 17.3739557,
    "lng": 104.7367502
  },
  {
    "mu_place": "ลานพญาศรีสัตตนาคราช",
    "name": "อนุสรณ์สถานประธานโฮจิมินห์",
    "rating": 4.2,
    "address": "9QG5+P45 ตำบล หนองญาติ อำเภอเมืองนครพนม",
    "lat": 17.3767046,
    "lng": 104.7578183
  },
  {
    "mu_place": "ลานพญาศรีสัตตนาคราช",
    "name": "พิพิธภัณฑ์จวนผู้ว่าราชการจังหวัดนครพนม (หลังเก่า)",
    "rating": 4.4,
    "address": "พิพิธภัณฑ์จวนผู้ว่าราชการจังหวัดนครพนม, ถนนสุนทรวิจิตร, ตำบลในเมือง อำเภอเมือง จังหวัดนครพนม, 48000",
    "lat": 17.4159187,
    "lng": 104.7798118
  },
  {
    "mu_place": "ลานพญาศรีสัตตนาคราช",
    "name": "หาดทรายริมโขง",
    "rating": 5,
    "address": "9QMV+3W8 ตำบล ในเมือง อำเภอเมืองนครพนม",
    "lat": 17.382166,
    "lng": 104.7953261
  },
  {
    "mu_place": "ลานพญาศรีสัตตนาคราช",
    "name": "สะพานมิตรภาพไทย-ลาว แห่งที่ 3",
    "rating": 4.4,
    "address": "FPMH+WWG ทางหลวงจังหวัด นครพนม-มุกดาหาร ตำบล โนนตาล อำเภอ ท่าอุเทน",
    "lat": 17.4848229,
    "lng": 104.7298346
  },
  {
    "mu_place": "ลานพญาศรีสัตตนาคราช",
    "name": "บ้านลุงโฮจิมินห์",
    "rating": 4.3,
    "address": "หมู่ที่ 5 48 ตำบล หนองญาติ อำเภอเมืองนครพนม",
    "lat": 17.3745096,
    "lng": 104.7613377
  },
  {
    "mu_place": "ลานพญาศรีสัตตนาคราช",
    "name": "สวนเกษตรอินทรีย์ อินชอนฟาร์ม",
    "rating": 0,
    "address": "7PMV+6XF Unnamed Road ตำบล ขามเฒ่า อำเภอเมืองนครพนม",
    "lat": 17.2830583,
    "lng": 104.744935
  },
  {
    "mu_place": "ลานพญาศรีสัตตนาคราช",
    "name": "แลนด์มาร์คจักรยานเมืองนครพนม",
    "rating": 4.5,
    "address": "CQ3Q+P76 ทางหลวงจังหวัด นครพนม-มุกดาหาร ตำบล ในเมือง อำเภอเมืองนครพนม",
    "lat": 17.4042845,
    "lng": 104.7881415
  },
  {
    "mu_place": "ลานพญาศรีสัตตนาคราช",
    "name": "Tham Pa Sueam (ถ้ำปลาเชือม)",
    "rating": 4.3,
    "address": "FVC4+JHW, Thakhek",
    "lat": 17.471603,
    "lng": 104.856439
  },
  {
    "mu_place": "ลานพญาศรีสัตตนาคราช",
    "name": "Nakhon Phanom Walking Street",
    "rating": 4.6,
    "address": "CQ3Q+M3R ถ. ชยางกูร ตำบล ในเมือง อำเภอเมืองนครพนม",
    "lat": 17.4042272,
    "lng": 104.7876319
  },
  {
    "mu_place": "ลานพญาศรีสัตตนาคราช",
    "name": "หนองคำไผ่",
    "rating": 0,
    "address": "8MP3+3C ตำบล บ้านผึ้ง อำเภอเมืองนครพนม",
    "lat": 17.3351542,
    "lng": 104.6535898
  },
  {
    "mu_place": "ลานพญาศรีสัตตนาคราช",
    "name": "สวนเทิดพระเกียรติ",
    "rating": 4.3,
    "address": "สำนักงานขายหมู่บ้านพิมพ์ศิริ ตำบล ในเมือง อำเภอเมืองนครพนม",
    "lat": 17.3853261,
    "lng": 104.7940251
  },
  {
    "mu_place": "ลานพญาศรีสัตตนาคราช",
    "name": "Sunset Viewpoint",
    "rating": 5,
    "address": "9RV3+2FH, Unnamed Road, Thakhek",
    "lat": 17.3925674,
    "lng": 104.8037251
  },
  {
    "mu_place": "ลานพญาศรีสัตตนาคราช",
    "name": "Tham Nong Pa Fa (ถ้ำหนองปลาฝา)",
    "rating": 3.6,
    "address": "FVG2+JMR, Thakhek",
    "lat": 17.4766036,
    "lng": 104.8516357
  },
  {
    "mu_place": "ลานพญาศรีสัตตนาคราช",
    "name": "Sunset River Cruise",
    "rating": 5,
    "address": "9QXR+W3G ตำบล ในเมือง อำเภอเมืองนครพนม",
    "lat": 17.400688,
    "lng": 104.790059
  },
  {
    "mu_place": "ลานพญาศรีสัตตนาคราช",
    "name": "อาคารศาลจังหวัดนครพนม (ดังเดิม)",
    "rating": 4.8,
    "address": "CQ4P+M96 ตำบล ในเมือง อำเภอเมืองนครพนม",
    "lat": 17.4067437,
    "lng": 104.7858373
  },
  {
    "mu_place": "ลานพญาศรีสัตตนาคราช",
    "name": "Tourism Office",
    "rating": 5,
    "address": "CR27+W2V, Thakhek",
    "lat": 17.4023736,
    "lng": 104.8125397
  },
  {
    "mu_place": "ลานพญาศรีสัตตนาคราช",
    "name": "วัดศรีเทพประดิษฐาราม นครพนม",
    "rating": 4.6,
    "address": "9QWQ+C88 ตำบล ในเมือง อำเภอเมืองนครพนม",
    "lat": 17.3960462,
    "lng": 104.7883214
  },
  {
    "mu_place": "หลวงพ่อฤาษีลิงดำ( พระราชพรหมยาน)",
    "name": "เขาสะแกกรัง อุทัยธานี",
    "rating": 4.4,
    "address": "92J8+5F5 ตำบล อุทัยใหม่ อำเภอเมืองอุทัยธานี",
    "lat": 15.3803981,
    "lng": 100.0162499
  },
  {
    "mu_place": "หลวงพ่อฤาษีลิงดำ( พระราชพรหมยาน)",
    "name": "นวัตวิถี",
    "rating": 4,
    "address": "555W+JHQ ตำบล บางหลวง อำเภอสรรพยา",
    "lat": 15.1590912,
    "lng": 100.1964871
  },
  {
    "mu_place": "หลวงพ่อฤาษีลิงดำ( พระราชพรหมยาน)",
    "name": "ทุ่งนา ป่าตาล",
    "rating": 3.6,
    "address": "72R7+W5G ตำบล หนองบัว อำเภอ วัดสิงห์",
    "lat": 15.2923053,
    "lng": 100.0129384
  },
  {
    "mu_place": "หลวงพ่อฤาษีลิงดำ( พระราชพรหมยาน)",
    "name": "Starting Point River Boat Tours",
    "rating": 4.5,
    "address": "83GF+M4Q ตำบล น้ำซึม อำเภอเมืองอุทัยธานี",
    "lat": 15.3267053,
    "lng": 100.0728646
  },
  {
    "mu_place": "หลวงพ่อฤาษีลิงดำ( พระราชพรหมยาน)",
    "name": "ฝายบ้านพันตุ่น",
    "rating": 5,
    "address": "92G2+955 ตำบล น้ำซึม อำเภอเมืองอุทัยธานี",
    "lat": 15.3758758,
    "lng": 100.0004798
  },
  {
    "mu_place": "หลวงพ่อฤาษีลิงดำ( พระราชพรหมยาน)",
    "name": "นาบัวท่าซุง",
    "rating": 4.5,
    "address": "8359+QGX ตำบล ท่าซุง อำเภอเมืองอุทัยธานี",
    "lat": 15.3094807,
    "lng": 100.0688618
  },
  {
    "mu_place": "หลวงพ่อฤาษีลิงดำ( พระราชพรหมยาน)",
    "name": "ชุมชนท่องเที่ยว OTOP นวัตวิถี หนองไผ่แบน",
    "rating": 4.7,
    "address": "2 5 ตำบล หนองไผ่แบน อำเภอเมืองอุทัยธานี",
    "lat": 15.4252583,
    "lng": 100.0249175
  },
  {
    "mu_place": "หลวงพ่อฤาษีลิงดำ( พระราชพรหมยาน)",
    "name": "บ้านจงรัก",
    "rating": 4.6,
    "address": "ศรีอุทัย ตำบล อุทัยใหม่ อำเภอเมืองอุทัยธานี",
    "lat": 15.3801654,
    "lng": 100.0313017
  },
  {
    "mu_place": "หลวงพ่อฤาษีลิงดำ( พระราชพรหมยาน)",
    "name": "มณฑปพระพุทธบาทจำลอง",
    "rating": 4.6,
    "address": "92H8+9QW ตำบล อุทัยใหม่ อำเภอเมืองอุทัยธานี",
    "lat": 15.3784904,
    "lng": 100.0169407
  },
  {
    "mu_place": "หลวงพ่อฤาษีลิงดำ( พระราชพรหมยาน)",
    "name": "SUAN TA KI @สวนตากี้",
    "rating": 0,
    "address": "F2Q2+M2V Unnamed Road ตำบล หาดสูง อำเภอโกรกพระ",
    "lat": 15.4892384,
    "lng": 100.0000319
  },
  {
    "mu_place": "หลวงพ่อฤาษีลิงดำ( พระราชพรหมยาน)",
    "name": "หมุดโลก (หมุดที่ 2 ของเอเชีย)",
    "rating": 4.5,
    "address": "เขาสะแกกรัง อุทัยธานี ตำบล อุทัยใหม่ อำเภอเมืองอุทัยธานี",
    "lat": 15.3837869,
    "lng": 100.0132147
  },
  {
    "mu_place": "หลวงพ่อฤาษีลิงดำ( พระราชพรหมยาน)",
    "name": "เขื่อนเรียงหิน",
    "rating": 4.4,
    "address": "297 ถนน ชัยณรงค์ ตำบล ในเมือง อำเภอเมืองชัยนาท",
    "lat": 15.1839063,
    "lng": 100.1231321
  },
  {
    "mu_place": "หลวงพ่อฤาษีลิงดำ( พระราชพรหมยาน)",
    "name": "สวนนกชัยนาท",
    "rating": 4.1,
    "address": "6542+QQ6 ตำบล เขาท่าพระ อำเภอเมืองชัยนาท",
    "lat": 15.2069213,
    "lng": 100.1519043
  },
  {
    "mu_place": "หลวงพ่อฤาษีลิงดำ( พระราชพรหมยาน)",
    "name": "ลำน้ำสะแกกรัง at อำเภอเมืองอุทัยธานี",
    "rating": 4.3,
    "address": "228 ซอย ตั้งใจงาม ตำบล น้ำซึม อำเภอเมืองอุทัยธานี",
    "lat": 15.3267712,
    "lng": 100.0731838
  },
  {
    "mu_place": "หลวงพ่อฤาษีลิงดำ( พระราชพรหมยาน)",
    "name": "ช้างปิง Chang Ping",
    "rating": 0,
    "address": "132 15 มณีรัตน์ ตำบล อุทัยใหม่ อำเภอเมืองอุทัยธานี",
    "lat": 15.3864962,
    "lng": 100.0217887
  },
  {
    "mu_place": "หลวงพ่อฤาษีลิงดำ( พระราชพรหมยาน)",
    "name": "สำเภาทอง",
    "rating": 3.8,
    "address": "835J+7R9 ตำบล คุ้งสำเภา อำเภอมโนรมย์",
    "lat": 15.3081677,
    "lng": 100.0821318
  },
  {
    "mu_place": "หลวงพ่อฤาษีลิงดำ( พระราชพรหมยาน)",
    "name": "ศูนย์อนุรักษ์ไก่แสมดำ",
    "rating": 5,
    "address": "85 หมู่ 7 ตำบล ดอนขวาง อำเภอเมืองอุทัยธานี",
    "lat": 15.3906203,
    "lng": 99.99969089999999
  },
  {
    "mu_place": "หลวงพ่อฤาษีลิงดำ( พระราชพรหมยาน)",
    "name": "วัดสังกัสรัตนคีรี",
    "rating": 4.6,
    "address": "92G9+23W ตำบล น้ำซึม อำเภอเมืองอุทัยธานี",
    "lat": 15.3751087,
    "lng": 100.0177104
  },
  {
    "mu_place": "หลวงพ่อฤาษีลิงดำ( พระราชพรหมยาน)",
    "name": "ศูนย์เรียนรู้ตามศาสตร์พระราชาเกษตรทฤษฎีใหม่เทศบาลตำบลทัพทัน",
    "rating": 3.8,
    "address": "GW38+F9G 3070 ตำบล โคกหม้อ อำเภอ ทัพทัน",
    "lat": 15.5036858,
    "lng": 99.9159423
  },
  {
    "mu_place": "หลวงพ่อฤาษีลิงดำ( พระราชพรหมยาน)",
    "name": "สวนน้ำเฉลิมพระเกียรติพระบาทสมเด็จพระเจ้าอยู่หัว",
    "rating": 4.4,
    "address": "5002 Rural Rd, ตำบล เกาะเทโพ อำเภอเมืองอุทัยธานี",
    "lat": 15.377548,
    "lng": 100.062759
  },
  {
    "mu_place": "พุทธสถาน จีเต็กลิ้ม",
    "name": "วังมัจฉา",
    "rating": 4,
    "address": "366 ปราจีนอนุสรณ์ ตำบล หน้าเมือง อำเภอเมืองปราจีนบุรี",
    "lat": 14.0518468,
    "lng": 101.3638754
  },
  {
    "mu_place": "พุทธสถาน จีเต็กลิ้ม",
    "name": "เอเดนฟาร์ม นครนายก",
    "rating": 4.1,
    "address": "655J+5RH ถนน รังสิต - นครนายก ตำบล คลองใหญ่ อำเภอองครักษ์",
    "lat": 14.2079474,
    "lng": 101.1821211
  },
  {
    "mu_place": "พุทธสถาน จีเต็กลิ้ม",
    "name": "เมืองโบราณดงละคร",
    "rating": 4.2,
    "address": "2010 ซอย พาณิชย์เจริญ 3 ตำบล ดงละคร อำเภอเมืองนครนายก",
    "lat": 14.1591984,
    "lng": 101.1670868
  },
  {
    "mu_place": "พุทธสถาน จีเต็กลิ้ม",
    "name": "Posai Farm | โพธ์ไทร ฟาร์ม",
    "rating": 0,
    "address": "81 หมู่ 3 ตำบล ดอนเกาะกา อำเภอบางน้ำเปรี้ยว",
    "lat": 13.9226229,
    "lng": 101.0226677
  },
  {
    "mu_place": "พุทธสถาน จีเต็กลิ้ม",
    "name": "วังกุ้งหนาวหําหด ยินดีต้อนรับ",
    "rating": 5,
    "address": "15 ตำบล บางยาง อำเภอ บ้านสร้าง",
    "lat": 13.8947381,
    "lng": 101.2272959
  },
  {
    "mu_place": "พุทธสถาน จีเต็กลิ้ม",
    "name": "ดินแดนหิ่งห้อยนับแสน",
    "rating": 4.4,
    "address": "กรมทหารปืนใหญ่ที่ 2 รักษาพระองค์ 1 หมู่ที่ 5 ค่ายพรหมโยธี ตำบล ไม้เค็ด อำเภอเมืองปราจีนบุรี",
    "lat": 14.1373758,
    "lng": 101.3605486
  },
  {
    "mu_place": "พุทธสถาน จีเต็กลิ้ม",
    "name": "สวนจ่าโสเขาใหญ่ปราจีนบุรี",
    "rating": 0,
    "address": "บ้านบ่อแร่ ตำบล เนินหอม อำเภอเมืองปราจีนบุรี",
    "lat": 14.1878641,
    "lng": 101.3575027
  },
  {
    "mu_place": "พุทธสถาน จีเต็กลิ้ม",
    "name": "สะพานบางยางประชาชนร่วมใจ",
    "rating": 4,
    "address": "W5GC+Q5X ตำบล บางยาง อำเภอ บ้านสร้าง",
    "lat": 13.9269757,
    "lng": 101.1704779
  },
  {
    "mu_place": "พุทธสถาน จีเต็กลิ้ม",
    "name": "พุทธสถาน จีเต็กลิ้ม",
    "rating": 4.6,
    "address": "25GG+VFQ ตำบล ศรีจุฬา อำเภอเมืองนครนายก",
    "lat": 14.0272189,
    "lng": 101.1763145
  },
  {
    "mu_place": "พุทธสถาน จีเต็กลิ้ม",
    "name": "วัดบางกระเบา พระอารามหลวง",
    "rating": 4.6,
    "address": "36 หมู่ 6 ตำบล บางกระเบา อำเภอ บ้านสร้าง",
    "lat": 13.9685139,
    "lng": 101.2054342
  },
  {
    "mu_place": "ศาลาหลวงปู่ดู่",
    "name": "วัดมหาธาตุ",
    "rating": 4.6,
    "address": "Wat Mahathat ถ. นเรศวร ตำบลท่าวาสุกรี อำเภอ พระนครศรีอยุธยา",
    "lat": 14.3569443,
    "lng": 100.5675112
  },
  {
    "mu_place": "ศาลาหลวงปู่ดู่",
    "name": "ทุ่งมะขามหย่อง",
    "rating": 4.6,
    "address": "9GMH+G5P ตำบลบ้านใหม่ อำเภอ พระนครศรีอยุธยา",
    "lat": 14.3838265,
    "lng": 100.5279444
  },
  {
    "mu_place": "ศาลาหลวงปู่ดู่",
    "name": "โบราณสถานวัดพระยาแมน",
    "rating": 4.4,
    "address": "9HH3+5GM ตำบล ลุมพลี อำเภอ พระนครศรีอยุธยา",
    "lat": 14.3779528,
    "lng": 100.5537944
  },
  {
    "mu_place": "ศาลาหลวงปู่ดู่",
    "name": "พระที่นั่งเพนียด",
    "rating": 3.8,
    "address": "9HG9+MF9 ตำบล สวนพริก อำเภอ พระนครศรีอยุธยา",
    "lat": 14.3766521,
    "lng": 100.5687352
  },
  {
    "mu_place": "ศาลาหลวงปู่ดู่",
    "name": "พระราชวังบางปะอิน",
    "rating": 4.4,
    "address": "พระราชวังบางปะอิน ตำบล บ้านเลน อำเภอบางปะอิน",
    "lat": 14.2327734,
    "lng": 100.5790669
  },
  {
    "mu_place": "ศาลาหลวงปู่ดู่",
    "name": "สวนสาธารณะเฉลิมพระเกียรติทุ่งหันตรา (อนุสรณ์สถานแห่งความจงรักภักดี ทุ่งหันตรา)",
    "rating": 4.3,
    "address": "9HHX+55X ตำบลหันตรา อำเภอ พระนครศรีอยุธยา",
    "lat": 14.377995,
    "lng": 100.5979935
  },
  {
    "mu_place": "ศาลาหลวงปู่ดู่",
    "name": "สะพานไม้ชายทุ่ง",
    "rating": 4.7,
    "address": "ทุ่งบัวแดง หมู่ 5 ถนน AH2 ตำบล คลองจิก อำเภอบางปะอิน",
    "lat": 14.2130749,
    "lng": 100.6197751
  },
  {
    "mu_place": "ศาลาหลวงปู่ดู่",
    "name": "วังช้างอยุธยา แล เพนียด",
    "rating": 4,
    "address": "ถนน ป่าโทน ตำบล ประตูชัย อำเภอ พระนครศรีอยุธยา",
    "lat": 14.3522678,
    "lng": 100.5586724
  },
  {
    "mu_place": "ศาลาหลวงปู่ดู่",
    "name": "ทุ่งนา เสน่หาท่าหลวง",
    "rating": 3.8,
    "address": "GQQ5+QP2 ตำบล ท่าหลวง อำเภอ ท่าเรือ",
    "lat": 14.5394059,
    "lng": 100.7593471
  },
  {
    "mu_place": "ศาลาหลวงปู่ดู่",
    "name": "วัดพระศรีสรรเพชญ์",
    "rating": 4.7,
    "address": "9H45+963 ตำบล ประตูชัย อำเภอ พระนครศรีอยุธยา",
    "lat": 14.3558151,
    "lng": 100.5580536
  },
  {
    "mu_place": "ศาลาหลวงปู่ดู่",
    "name": "วิหารพระนอน วัดใหญ่ชัยมงคล",
    "rating": 4.6,
    "address": "8HWV+C65 ตำบล ไผ่ลิง อำเภอ พระนครศรีอยุธยา",
    "lat": 14.3460148,
    "lng": 100.5931187
  },
  {
    "mu_place": "ศาลาหลวงปู่ดู่",
    "name": "ปราสาทนครหลวง",
    "rating": 4.5,
    "address": "FJ86+4H5 ตำบล นครหลวง อำเภอนครหลวง",
    "lat": 14.465252,
    "lng": 100.6114679
  },
  {
    "mu_place": "ศาลาหลวงปู่ดู่",
    "name": "หมู่บ้านท่องเที่ยวเชิงเกษตร OTOP นวัตวิถี หมู่ 4 ต.ทับน้ำ อ.บางปะหัน จ.พระนครศรีอยุธยา",
    "rating": 4,
    "address": "บ้านทับน้ำ ตำบล ทับน้ำ อำเภอบางปะหัน",
    "lat": 14.4824838,
    "lng": 100.5048041
  },
  {
    "mu_place": "ศาลาหลวงปู่ดู่",
    "name": "พลับพลา สถานีรถไฟบางปะอิน",
    "rating": 4.5,
    "address": "6HQM+XQP บาง ปะ ดิน ตำบล บ้านเลน อำเภอบางปะอิน",
    "lat": 14.2399563,
    "lng": 100.5844747
  },
  {
    "mu_place": "ศาลาหลวงปู่ดู่",
    "name": "หอเหมมณเฑียรเทวราช",
    "rating": 4.5,
    "address": "พระราชวังบางปะอิน ตำบล บ้านเลน อำเภอบางปะอิน",
    "lat": 14.2311709,
    "lng": 100.5781113
  },
  {
    "mu_place": "ศาลาหลวงปู่ดู่",
    "name": "Entrance Wat Phra Ram",
    "rating": 4.6,
    "address": "9H36+H6X ตำบล ประตูชัย อำเภอ พระนครศรีอยุธยา",
    "lat": 14.3539828,
    "lng": 100.5606213
  },
  {
    "mu_place": "ศาลาหลวงปู่ดู่",
    "name": "The Ruins of Wat Chai Watthanaram",
    "rating": 4.6,
    "address": "8GVR+CFH ตำบล บ้านป้อม อำเภอ พระนครศรีอยุธยา",
    "lat": 14.3435561,
    "lng": 100.5412414
  },
  {
    "mu_place": "ศาลาหลวงปู่ดู่",
    "name": "ตลาดน้ำอโยธยา",
    "rating": 3.9,
    "address": "65/19 ตำบล ไผ่ลิง อำเภอ พระนครศรีอยุธยา",
    "lat": 14.3589799,
    "lng": 100.5933314
  },
  {
    "mu_place": "ศาลาหลวงปู่ดู่",
    "name": "วัดราชบูรณะ",
    "rating": 4.7,
    "address": "9H58+FWF ซอย ชีกุน ตำบลท่าวาสุกรี อำเภอ พระนครศรีอยุธยา",
    "lat": 14.3587096,
    "lng": 100.5674662
  },
  {
    "mu_place": "ศาลาหลวงปู่ดู่",
    "name": "พระตำหนักสิริยาลัย",
    "rating": 4.6,
    "address": "8GVV+9PH ตำบล ประตูชัย อำเภอ พระนครศรีอยุธยา",
    "lat": 14.3434319,
    "lng": 100.5443503
  },
  {
    "mu_place": "วัดดาวดึงษาราม",
    "name": "หอดูนก สวนศรีนครเขื่อนขันธ์",
    "rating": 4.3,
    "address": "MHW9+F9V ตำบล บางกะเจ้า อำเภอพระประแดง",
    "lat": 13.6962495,
    "lng": 100.5684135
  },
  {
    "mu_place": "วัดดาวดึงษาราม",
    "name": "มิวเซียมสยาม",
    "rating": 4.5,
    "address": "4 ถนน สนามไชย แขวงพระบรมมหาราชวัง เขตพระนคร",
    "lat": 13.744147,
    "lng": 100.494137
  },
  {
    "mu_place": "วัดดาวดึงษาราม",
    "name": "พระที่นั่งพิมานจักรี",
    "rating": 3.4,
    "address": "315 ถ. ราชวิถี แขวงทุ่งพญาไท เขตราชเทวี",
    "lat": 13.7685069,
    "lng": 100.5328757
  },
  {
    "mu_place": "วัดดาวดึงษาราม",
    "name": "ไร่เหมือนจันทร์",
    "rating": 4.3,
    "address": "166/1 ถนน เลียบคลองทวีวัฒนา แขวงบางไผ่ เขตบางแค",
    "lat": 13.7385124,
    "lng": 100.3592722
  },
  {
    "mu_place": "วัดดาวดึงษาราม",
    "name": "สวนเกร็ดพุทธ",
    "rating": 4.1,
    "address": "WF4Q+254 ตำบล เกาะเกร็ด อำเภอปากเกร็ด",
    "lat": 13.9050229,
    "lng": 100.4879706
  },
  {
    "mu_place": "วัดดาวดึงษาราม",
    "name": "พิพิธภัณฑ์ช้างเอราวัณ",
    "rating": 4.4,
    "address": "99 ถ. กาญจนาภิเษก ตำบล บางเมืองใหม่ อำเภอเมืองสมุทรปราการ",
    "lat": 13.6285771,
    "lng": 100.5889193
  },
  {
    "mu_place": "วัดดาวดึงษาราม",
    "name": "ตลาดน้ำคลองบางหลวง",
    "rating": 4.2,
    "address": "13°43'48. 100°27'50. 99/5 ซอย เพชรเกษม 20 แขวงปากคลองภาษีเจริญ เขตภาษีเจริญ",
    "lat": 13.7316243,
    "lng": 100.46312
  },
  {
    "mu_place": "วัดดาวดึงษาราม",
    "name": "คลองบางหลวง (คลองบางกอกใหญ่)",
    "rating": 4.4,
    "address": "ซอย เพชรเกษม 20 แขวงปากคลองภาษีเจริญ เขตภาษีเจริญ",
    "lat": 13.7316031,
    "lng": 100.4632156
  },
  {
    "mu_place": "วัดดาวดึงษาราม",
    "name": "ตลาดน้ำตลิ่งชัน",
    "rating": 4.2,
    "address": "333 ถนน ชักพระ แขวงคลองชักพระ เขตตลิ่งชัน",
    "lat": 13.7762674,
    "lng": 100.4565979
  },
  {
    "mu_place": "วัดดาวดึงษาราม",
    "name": "ซีไลฟ์ แบงคอก",
    "rating": 4.5,
    "address": "ชั้น บี1-บี2 สยามพารากอน 991 ถ. พระรามที่ ๑ แขวงปทุมวัน เขตปทุมวัน",
    "lat": 13.7459351,
    "lng": 100.5352057
  },
  {
    "mu_place": "วัดดาวดึงษาราม",
    "name": "บ้านศิลปินคลองบางหลวง : Artist House Bangkok",
    "rating": 4.5,
    "address": "309 ซอย เพชรเกษม 28 แขวงคูหาสวรรค์ เขตภาษีเจริญ",
    "lat": 13.7312977,
    "lng": 100.4632778
  },
  {
    "mu_place": "วัดดาวดึงษาราม",
    "name": "หาดเติมรัก บางบัวทอง",
    "rating": 4.1,
    "address": "ตำบล บางคูรัด อำเภอบางบัวทอง",
    "lat": 13.8949929,
    "lng": 100.3518422
  },
  {
    "mu_place": "วัดดาวดึงษาราม",
    "name": "Guide Thailandia & Tours",
    "rating": 0,
    "address": "888TT Building, ซ. สุขุมวิท 81 แขวงบางจาก เขตพระโขนง",
    "lat": 13.7061533,
    "lng": 100.6050823
  },
  {
    "mu_place": "วัดดาวดึงษาราม",
    "name": "เสาชิงช้า",
    "rating": 4.6,
    "address": "239 ถนน ดินสอ แขวงบางขุนพรหม เขตพระนคร",
    "lat": 13.7517707,
    "lng": 100.5012761
  },
  {
    "mu_place": "วัดดาวดึงษาราม",
    "name": "พระตำหนักแดง",
    "rating": 4.6,
    "address": "4 ถ. หน้าพระธาตุ แขวงพระบรมมหาราชวัง เขตพระนคร",
    "lat": 13.7577024,
    "lng": 100.491825
  },
  {
    "mu_place": "วัดดาวดึงษาราม",
    "name": "สูงวัยพาเที่ยว",
    "rating": 0,
    "address": "JGFQ+F6J ถ. สุขสวัสดิ์ เขตจอมทอง",
    "lat": 13.6237038,
    "lng": 100.5380215
  },
  {
    "mu_place": "วัดดาวดึงษาราม",
    "name": "อุทยานผีเสื้อและแมลง กรุงเทพฯ",
    "rating": 4.1,
    "address": "สวนวิชรเบญจทิศ(สวนรถไฟ ถนน กำแพงเพชร 3 แขวงลาดยาว เขตจตุจักร",
    "lat": 13.8095512,
    "lng": 100.5549011
  },
  {
    "mu_place": "วัดดาวดึงษาราม",
    "name": "สถานที่ถ่ายรูป พระธรรมกายเทพมงคล",
    "rating": 4.8,
    "address": "766 ถนน เพชรเกษมสายเก่า แขวงวัดท่าพระ เขตบางกอกใหญ่",
    "lat": 13.7232028,
    "lng": 100.480732
  },
  {
    "mu_place": "วัดดาวดึงษาราม",
    "name": "ริมน้ำโขง หอ14",
    "rating": 0,
    "address": "50, Kasetsart University, Ngam Wong Wan Road, Lat Yao, Khet Chatuchak, Bangkok, 10900 แขวงลาดยาว เขตจตุจักร",
    "lat": 13.8487664,
    "lng": 100.5688721
  },
  {
    "mu_place": "วัดดาวดึงษาราม",
    "name": "ลาน 60 ปี ธรรมศาสตร์",
    "rating": 4.5,
    "address": "2 ถ. หน้าพระธาตุ แขวงพระบรมมหาราชวัง เขตพระนคร",
    "lat": 13.7575138,
    "lng": 100.4895887
  },
  {
    "mu_place": "วิหารหลวงพ่อสำเร็จศักดิ์สิทธิ์",
    "name": "อุทยานแห่งชาติน้ำตกสามหลั่น",
    "rating": 4.3,
    "address": "53 หมู่ที่ 1 ตำบล หนองปลาไหล อำเภอเมืองสระบุรี",
    "lat": 14.4407444,
    "lng": 100.9596264
  },
  {
    "mu_place": "วิหารหลวงพ่อสำเร็จศักดิ์สิทธิ์",
    "name": "อนุสรณ์สงครามโลกครั้งที่ 2 ของกองทัพญี่ปุ่น (เขาแดง)",
    "rating": 4.8,
    "address": "CXQ5+XRX ตำบล หนองปลาไหล อำเภอเมืองสระบุรี",
    "lat": 14.4399813,
    "lng": 100.9596166
  },
  {
    "mu_place": "วิหารหลวงพ่อสำเร็จศักดิ์สิทธิ์",
    "name": "อ่างเก็บน้ำตะกุด",
    "rating": 4.3,
    "address": "GWRJ+5RJ ตำบล ตะกุด อำเภอเมืองสระบุรี",
    "lat": 14.5404635,
    "lng": 100.9320224
  },
  {
    "mu_place": "วิหารหลวงพ่อสำเร็จศักดิ์สิทธิ์",
    "name": "ศาลแม่นางตะเคียน เสาร้องไห้",
    "rating": 4.2,
    "address": "GRXX+763 ตำบล เสาไห้ อำเภอ เสาไห้",
    "lat": 14.5480803,
    "lng": 100.848048
  },
  {
    "mu_place": "วิหารหลวงพ่อสำเร็จศักดิ์สิทธิ์",
    "name": "Thammajinda Pagodas",
    "rating": 4.5,
    "address": "HR53+X5X ตำบล ม่วงงาม อำเภอ เสาไห้",
    "lat": 14.5599809,
    "lng": 100.8029941
  },
  {
    "mu_place": "วิหารหลวงพ่อสำเร็จศักดิ์สิทธิ์",
    "name": "ทุ่งนา เสน่หาท่าหลวง",
    "rating": 3.8,
    "address": "GQQ5+QP2 ตำบล ท่าหลวง อำเภอ ท่าเรือ",
    "lat": 14.5394059,
    "lng": 100.7593471
  },
  {
    "mu_place": "วิหารหลวงพ่อสำเร็จศักดิ์สิทธิ์",
    "name": "ผาไทร็อค",
    "rating": 4.3,
    "address": "ตำบล หนองยาว อำเภอเมืองสระบุรี",
    "lat": 14.4773991,
    "lng": 100.9000964
  },
  {
    "mu_place": "วิหารหลวงพ่อสำเร็จศักดิ์สิทธิ์",
    "name": "อ่างเก็บน้ำบ้านเกล็ดเพ็ชร",
    "rating": 4.2,
    "address": "GW6P+53Q ตำบล ปากข้าวสาร อำเภอเมืองสระบุรี",
    "lat": 14.5104529,
    "lng": 100.9352317
  },
  {
    "mu_place": "วิหารหลวงพ่อสำเร็จศักดิ์สิทธิ์",
    "name": "หอวัฒนธรรมพื้นบ้านไทยวน",
    "rating": 4.3,
    "address": "หมู่ที่ 6 48 ตำบล ดาวเรือง อ.เมือง",
    "lat": 14.5554711,
    "lng": 100.8848449
  },
  {
    "mu_place": "วิหารหลวงพ่อสำเร็จศักดิ์สิทธิ์",
    "name": "ตลาดน้ำโบราณบ้านต้นตาล",
    "rating": 4.3,
    "address": "HV2J+H3V ทางหลวงชนบทสาย สบ.3050 ตำบล ต้นตาล อำเภอ เสาไห้",
    "lat": 14.5514971,
    "lng": 100.8801603
  },
  {
    "mu_place": "วิหารหลวงพ่อสำเร็จศักดิ์สิทธิ์",
    "name": "บึงวัดเพชร",
    "rating": 4,
    "address": "ตำบล บ้านยาง อำเภอ เสาไห้",
    "lat": 14.5671565,
    "lng": 100.805997
  },
  {
    "mu_place": "วิหารหลวงพ่อสำเร็จศักดิ์สิทธิ์",
    "name": "สวนแม่แหวนอินฟลาวเวอร์",
    "rating": 0,
    "address": "GQ5X+FQJ Unnamed Road ตำบล ไก่เส่า อำเภอ หนองแซง",
    "lat": 14.5087223,
    "lng": 100.7994038
  },
  {
    "mu_place": "วิหารหลวงพ่อสำเร็จศักดิ์สิทธิ์",
    "name": "น้ำตกโพธิ์หินดาด สระบุรี",
    "rating": 4.1,
    "address": "CXQ7+JVP ตำบล หนองปลาไหล อำเภอเมืองสระบุรี",
    "lat": 14.4390999,
    "lng": 100.9646992
  },
  {
    "mu_place": "วิหารหลวงพ่อสำเร็จศักดิ์สิทธิ์",
    "name": "วิสาหกิจชุมชนท่าหลวงท่องเที่ยวเชิงเกษตร (กาแฟ)",
    "rating": 0,
    "address": "99, ตำบล ท่าหลวง อำเภอ ท่าเรือ",
    "lat": 14.5575821,
    "lng": 100.7725757
  },
  {
    "mu_place": "วิหารหลวงพ่อสำเร็จศักดิ์สิทธิ์",
    "name": "พิพิธภัณฑ์บ้านใร่กาแฟ",
    "rating": 4.1,
    "address": "FQJF+67J ทางหลวงชนบทสาย สบ.5043 ตำบล หนองแซง อำเภอ หนองแซง",
    "lat": 14.4805942,
    "lng": 100.7731377
  },
  {
    "mu_place": "วิหารหลวงพ่อสำเร็จศักดิ์สิทธิ์",
    "name": "Saraburi Clock Tower",
    "rating": 4,
    "address": "GWF7+4QC สุดบรรทัด อำเภอเมืองสระบุรี",
    "lat": 14.5228113,
    "lng": 100.9143795
  },
  {
    "mu_place": "วิหารหลวงพ่อสำเร็จศักดิ์สิทธิ์",
    "name": "หมู่บ้านท่องเที่ยว OTOP นวัตวิถี บ้านคันลำ",
    "rating": 5,
    "address": "ฺBan Kan Lam Village No.3 Nong Moo, อำเภอวิหารแดง",
    "lat": 14.3319766,
    "lng": 100.941504
  },
  {
    "mu_place": "วิหารหลวงพ่อสำเร็จศักดิ์สิทธิ์",
    "name": "วิหารพระศรีพุทธมงคลมุนี(หลวงพ่อดำ)",
    "rating": 5,
    "address": "GRXX+54H ตำบล เสาไห้ อำเภอ เสาไห้",
    "lat": 14.547947,
    "lng": 100.8478213
  },
  {
    "mu_place": "วิหารหลวงพ่อสำเร็จศักดิ์สิทธิ์",
    "name": "ประเพณีตักบาตรข้าวหลามจี่ เดือนยี่ ที่หนองโน",
    "rating": 4.8,
    "address": "FVR6+3GC ตำบล หนองโน อำเภอเมืองสระบุรี",
    "lat": 14.490197,
    "lng": 100.861251
  },
  {
    "mu_place": "วิหารหลวงพ่อสำเร็จศักดิ์สิทธิ์",
    "name": "ทุ่งปอเทือง จุดเช็คอินบัวลอยบ้านเฮา",
    "rating": 5,
    "address": "บัวลอยบ้านเฮา บัวลอย ตำบล บัวลอย อำเภอหนองแค",
    "lat": 14.4230254,
    "lng": 100.8406403
  },
  {
    "mu_place": "หลวงพ่อรวย วัดตะโก",
    "name": "โบราณสถานวัดพระยาแมน",
    "rating": 4.4,
    "address": "9HH3+5GM ตำบล ลุมพลี อำเภอ พระนครศรีอยุธยา",
    "lat": 14.3779528,
    "lng": 100.5537944
  },
  {
    "mu_place": "หลวงพ่อรวย วัดตะโก",
    "name": "พระที่นั่งเพนียด",
    "rating": 3.8,
    "address": "9HG9+MF9 ตำบล สวนพริก อำเภอ พระนครศรีอยุธยา",
    "lat": 14.3766521,
    "lng": 100.5687352
  },
  {
    "mu_place": "หลวงพ่อรวย วัดตะโก",
    "name": "สวนสาธารณะเฉลิมพระเกียรติทุ่งหันตรา (อนุสรณ์สถานแห่งความจงรักภักดี ทุ่งหันตรา)",
    "rating": 4.3,
    "address": "9HHX+55X ตำบลหันตรา อำเภอ พระนครศรีอยุธยา",
    "lat": 14.377995,
    "lng": 100.5979935
  },
  {
    "mu_place": "หลวงพ่อรวย วัดตะโก",
    "name": "วังช้างอยุธยา แล เพนียด",
    "rating": 4,
    "address": "ถนน ป่าโทน ตำบล ประตูชัย อำเภอ พระนครศรีอยุธยา",
    "lat": 14.3522678,
    "lng": 100.5586724
  },
  {
    "mu_place": "หลวงพ่อรวย วัดตะโก",
    "name": "ทุ่งนา เสน่หาท่าหลวง",
    "rating": 3.8,
    "address": "GQQ5+QP2 ตำบล ท่าหลวง อำเภอ ท่าเรือ",
    "lat": 14.5394059,
    "lng": 100.7593471
  },
  {
    "mu_place": "หลวงพ่อรวย วัดตะโก",
    "name": "วัดพระศรีสรรเพชญ์",
    "rating": 4.7,
    "address": "9H45+963 ตำบล ประตูชัย อำเภอ พระนครศรีอยุธยา",
    "lat": 14.3558151,
    "lng": 100.5580536
  },
  {
    "mu_place": "หลวงพ่อรวย วัดตะโก",
    "name": "วิหารพระนอน วัดใหญ่ชัยมงคล",
    "rating": 4.6,
    "address": "8HWV+C65 ตำบล ไผ่ลิง อำเภอ พระนครศรีอยุธยา",
    "lat": 14.3460148,
    "lng": 100.5931187
  },
  {
    "mu_place": "หลวงพ่อรวย วัดตะโก",
    "name": "ปราสาทนครหลวง",
    "rating": 4.5,
    "address": "FJ86+4H5 ตำบล นครหลวง อำเภอนครหลวง",
    "lat": 14.465252,
    "lng": 100.6114679
  },
  {
    "mu_place": "หลวงพ่อรวย วัดตะโก",
    "name": "หอวัฒนธรรมพื้นบ้านไทยวน",
    "rating": 4.3,
    "address": "หมู่ที่ 6 48 ตำบล ดาวเรือง อ.เมือง",
    "lat": 14.5554711,
    "lng": 100.8848449
  },
  {
    "mu_place": "หลวงพ่อรวย วัดตะโก",
    "name": "บึงวัดเพชร",
    "rating": 4,
    "address": "ตำบล บ้านยาง อำเภอ เสาไห้",
    "lat": 14.5671565,
    "lng": 100.805997
  },
  {
    "mu_place": "หลวงพ่อรวย วัดตะโก",
    "name": "Entrance Wat Phra Ram",
    "rating": 4.6,
    "address": "9H36+H6X ตำบล ประตูชัย อำเภอ พระนครศรีอยุธยา",
    "lat": 14.3539828,
    "lng": 100.5606213
  },
  {
    "mu_place": "หลวงพ่อรวย วัดตะโก",
    "name": "The Ruins of Wat Chai Watthanaram",
    "rating": 4.6,
    "address": "8GVR+CFH ตำบล บ้านป้อม อำเภอ พระนครศรีอยุธยา",
    "lat": 14.3435561,
    "lng": 100.5412414
  },
  {
    "mu_place": "หลวงพ่อรวย วัดตะโก",
    "name": "ตลาดน้ำอโยธยา",
    "rating": 3.9,
    "address": "65/19 ตำบล ไผ่ลิง อำเภอ พระนครศรีอยุธยา",
    "lat": 14.3589799,
    "lng": 100.5933314
  },
  {
    "mu_place": "หลวงพ่อรวย วัดตะโก",
    "name": "วัดราชบูรณะ",
    "rating": 4.7,
    "address": "9H58+FWF ซอย ชีกุน ตำบลท่าวาสุกรี อำเภอ พระนครศรีอยุธยา",
    "lat": 14.3587096,
    "lng": 100.5674662
  },
  {
    "mu_place": "หลวงพ่อรวย วัดตะโก",
    "name": "พระตำหนักสิริยาลัย",
    "rating": 4.6,
    "address": "8GVV+9PH ตำบล ประตูชัย อำเภอ พระนครศรีอยุธยา",
    "lat": 14.3434319,
    "lng": 100.5443503
  },
  {
    "mu_place": "หลวงพ่อรวย วัดตะโก",
    "name": "ประตูแห่งกาลเวลา วัดพระงาม พระนครศรีอยุธยา",
    "rating": 4.5,
    "address": "24 หมู่ที่ 4 ถนน ซอย สลักหิน ตำบล คลองสระบัว อำเภอ พระนครศรีอยุธยา",
    "lat": 14.3711465,
    "lng": 100.5559623
  },
  {
    "mu_place": "หลวงพ่อรวย วัดตะโก",
    "name": "อนุสรณ์สถานแห่งความจงรักภักดี",
    "rating": 4.3,
    "address": "9HGW+QQV ตำบลหันตรา อำเภอ พระนครศรีอยุธยา",
    "lat": 14.376996,
    "lng": 100.5969357
  },
  {
    "mu_place": "หลวงพ่อรวย วัดตะโก",
    "name": "ทุ่งทานตะวันปากจั่น",
    "rating": 4.2,
    "address": "CJW6+PQ3 ตำบล ปากจั่น อำเภอนครหลวง",
    "lat": 14.4467574,
    "lng": 100.6119187
  },
  {
    "mu_place": "หลวงพ่อรวย วัดตะโก",
    "name": "Boat Tour",
    "rating": 5,
    "address": "9H8G+759 ตำบลหัวรอ อำเภอ พระนครศรีอยุธยา",
    "lat": 14.3655955,
    "lng": 100.5755958
  },
  {
    "mu_place": "หลวงพ่อรวย วัดตะโก",
    "name": "สะพานบ้านยายเเก้ว.",
    "rating": 5,
    "address": "9Q82+323 ตำบล หนองไม้ซุง อำเภออุทัย",
    "lat": 14.365129,
    "lng": 100.7500466
  },
  {
    "mu_place": "ศาลเจ้าหน่าจาซาไท้จื้อ อ่างศิลา",
    "name": "อมตะ คาสเซิล อ.เมือง จ.ชลบุรี Amata Castle",
    "rating": 4.2,
    "address": "C296+G96 ตำบล คลองตำหรุ อำเภอเมืองชลบุรี",
    "lat": 13.4187882,
    "lng": 101.0109049
  },
  {
    "mu_place": "ศาลเจ้าหน่าจาซาไท้จื้อ อ่างศิลา",
    "name": "น้ำตกชันตาเถร",
    "rating": 3.9,
    "address": "62RW+V5H ตำบล บางพระ อำเภอศรีราชา",
    "lat": 13.2421847,
    "lng": 101.0454846
  },
  {
    "mu_place": "ศาลเจ้าหน่าจาซาไท้จื้อ อ่างศิลา",
    "name": "แกรนด์แคนยอน ชลบุรี",
    "rating": 4.1,
    "address": "20000 ถนนเลี่ยงเมืองชลบุรี ตำบล ห้วยกะปิ อำเภอเมืองชลบุรี",
    "lat": 13.3230553,
    "lng": 100.9807451
  },
  {
    "mu_place": "ศาลเจ้าหน่าจาซาไท้จื้อ อ่างศิลา",
    "name": "สวนพุทธแดนนรก",
    "rating": 4.1,
    "address": "12 ซอย สำรวล ตำบลแสนสุข อำเภอเมืองชลบุรี",
    "lat": 13.297434,
    "lng": 100.9125583
  },
  {
    "mu_place": "ศาลเจ้าหน่าจาซาไท้จื้อ อ่างศิลา",
    "name": "แหลมถ้ำพัง",
    "rating": 4.5,
    "address": "4RW2+WF5 ถนน เฉลิมพระเกียรติ ตำบล ท่าเทววงษ์ อำเภอ เกาะสีชัง",
    "lat": 13.1472705,
    "lng": 100.8012413
  },
  {
    "mu_place": "ศาลเจ้าหน่าจาซาไท้จื้อ อ่างศิลา",
    "name": "ช่องเขาขาด",
    "rating": 4.5,
    "address": "5R72+85G ศรีราชา อำเภอ เกาะสีชัง",
    "lat": 13.1633042,
    "lng": 100.8004481
  },
  {
    "mu_place": "ศาลเจ้าหน่าจาซาไท้จื้อ อ่างศิลา",
    "name": "จุดชมวิว ยอดเขาสามมุข",
    "rating": 4.4,
    "address": "8W73+2J2 ตำบลแสนสุข อำเภอเมืองชลบุรี",
    "lat": 13.312504,
    "lng": 100.9039819
  },
  {
    "mu_place": "ศาลเจ้าหน่าจาซาไท้จื้อ อ่างศิลา",
    "name": "หาดวอนนภา",
    "rating": 4.3,
    "address": "186 ถนน บางแสนล่าง ตำบลแสนสุข อำเภอเมืองชลบุรี",
    "lat": 13.269572,
    "lng": 100.9233621
  },
  {
    "mu_place": "ศาลเจ้าหน่าจาซาไท้จื้อ อ่างศิลา",
    "name": "บ้านไร่ลุงดาป้านิด",
    "rating": 4.5,
    "address": "ตำบล หนองตำลึง อำเภอพานทอง",
    "lat": 13.3937882,
    "lng": 101.0759471
  },
  {
    "mu_place": "ศาลเจ้าหน่าจาซาไท้จื้อ อ่างศิลา",
    "name": "หาดบางแสน",
    "rating": 4.3,
    "address": "ซอย บางแสน สาย 1 ตำบลแสนสุข อำเภอเมืองชลบุรี",
    "lat": 13.2884469,
    "lng": 100.9112799
  },
  {
    "mu_place": "ศาลเจ้าหน่าจาซาไท้จื้อ อ่างศิลา",
    "name": "วัดแสนสุข เมืองสวรรค์ แดนนรก",
    "rating": 4.2,
    "address": "150 ถนน บางแสนสาย 2 ตำบลแสนสุข อำเภอเมืองชลบุรี",
    "lat": 13.29734,
    "lng": 100.9130351
  },
  {
    "mu_place": "ศาลเจ้าหน่าจาซาไท้จื้อ อ่างศิลา",
    "name": "สถาบันวิทยาศาสตร์ทางทะเล มหาวิทยาลัยบูรพา",
    "rating": 4.4,
    "address": "169 ถนน ลงหาดบางแสน ตำบลแสนสุข อำเภอเมืองชลบุรี",
    "lat": 13.2848718,
    "lng": 100.9248992
  },
  {
    "mu_place": "ศาลเจ้าหน่าจาซาไท้จื้อ อ่างศิลา",
    "name": "ตึกมหาราช",
    "rating": 4.7,
    "address": "8WRG+362 3134 อำเภอเมืองชลบุรี",
    "lat": 13.3401229,
    "lng": 100.9255117
  },
  {
    "mu_place": "ศาลเจ้าหน่าจาซาไท้จื้อ อ่างศิลา",
    "name": "ตึกแดง อ่างศิลา",
    "rating": 4.3,
    "address": "ปาก ทางเข้าตลาดเก่า ตำบล อ่างศิลา อำเภอเมืองชลบุรี",
    "lat": 13.3403784,
    "lng": 100.9258326
  },
  {
    "mu_place": "ศาลเจ้าหน่าจาซาไท้จื้อ อ่างศิลา",
    "name": "LOF LAND @แกรนด์แคนยอนชลบุรี",
    "rating": 3.9,
    "address": "17 17 หมู่ที่ 7 ถนน คีรีนคร 8 ตำบล ห้วยกะปิ อำเภอเมืองชลบุรี",
    "lat": 13.3197735,
    "lng": 100.9787832
  },
  {
    "mu_place": "ศาลเจ้าหน่าจาซาไท้จื้อ อ่างศิลา",
    "name": "หอชมเมืองศรีราชา",
    "rating": 2.6,
    "address": "5W6C+V9V ตำบล ศรีราชา อำเภอศรีราชา",
    "lat": 13.1622364,
    "lng": 100.9209166
  },
  {
    "mu_place": "ศาลเจ้าหน่าจาซาไท้จื้อ อ่างศิลา",
    "name": "ท้าวเวสสุวรรณ",
    "rating": 4.9,
    "address": "7WX8+P6 ตำบลแสนสุข อำเภอเมืองชลบุรี",
    "lat": 13.2992537,
    "lng": 100.9155644
  },
  {
    "mu_place": "ศาลเจ้าหน่าจาซาไท้จื้อ อ่างศิลา",
    "name": "ชลบุรีสุนัขพันธุ์ใหญ่ (นำเข้า)",
    "rating": 5,
    "address": "92FV+X66 ตำบล นาป่า อำเภอเมืองชลบุรี",
    "lat": 13.375347,
    "lng": 101.043931
  },
  {
    "mu_place": "ศาลเจ้าหน่าจาซาไท้จื้อ อ่างศิลา",
    "name": "ศาลธรรมนาวา",
    "rating": 4,
    "address": "8W66+MGG ตำบลแสนสุข อำเภอเมืองชลบุรี",
    "lat": 13.3116754,
    "lng": 100.9113376
  },
  {
    "mu_place": "ศาลเจ้าหน่าจาซาไท้จื้อ อ่างศิลา",
    "name": "วงเวียนฉลามคู่",
    "rating": 5,
    "address": "9X8G+8V5 ตำบล บางปลาสร้อย อำเภอเมืองชลบุรี",
    "lat": 13.365907,
    "lng": 100.9758061
  },
  {
    "mu_place": "อนุสาวรีย์ พระนางเลือดขาว แม่เจ้าอยู่หัว",
    "name": "ชุมชนเครือข่าย​ท่องเที่ยว​เชิง​วัฒนธรรม​บ้านศาลาฝาชีพัฒนา​",
    "rating": 0,
    "address": "52JQ+6WF 413 ตำบล สวนหลวง อำเภอ เฉลิมพระเกียรติ",
    "lat": 8.1805893,
    "lng": 100.0398512
  },
  {
    "mu_place": "อนุสาวรีย์ พระนางเลือดขาว แม่เจ้าอยู่หัว",
    "name": "นบกั้นน้ำคลองวังเคียน",
    "rating": 0,
    "address": "หมู่บ้านวังเคียน หมู่ 2 ตำบล เขาพระทอง อำเภอ ชะอวด",
    "lat": 7.9815295,
    "lng": 99.9213221
  },
  {
    "mu_place": "อนุสาวรีย์ พระนางเลือดขาว แม่เจ้าอยู่หัว",
    "name": "ลานท่าพยา บีช",
    "rating": 0,
    "address": "77G9+VV3 ตำบล ท่าพญา อำเภอ ปากพนัง",
    "lat": 8.277067299999999,
    "lng": 100.2697067
  },
  {
    "mu_place": "อนุสาวรีย์ พระนางเลือดขาว แม่เจ้าอยู่หัว",
    "name": "น้ำตร้อพังแพร่",
    "rating": 3.9,
    "address": "36C2+QHQ Unnamed Road ตำบล เขาพระบาท อำเภอ เชียรใหญ่",
    "lat": 8.071952,
    "lng": 100.2014709
  },
  {
    "mu_place": "อนุสาวรีย์ พระนางเลือดขาว แม่เจ้าอยู่หัว",
    "name": "บ้านสวน อัญมณีทอง",
    "rating": 0,
    "address": "131 ตำบล แม่เจ้าอยู่หัว อำเภอ เชียรใหญ่",
    "lat": 8.0937796,
    "lng": 100.1040907
  },
  {
    "mu_place": "อนุสาวรีย์ พระนางเลือดขาว แม่เจ้าอยู่หัว",
    "name": "บ้านสวนกะออม",
    "rating": 0,
    "address": "29 2 ตำบล บางนบ อำเภอ หัวไทร",
    "lat": 8.0972881,
    "lng": 100.2657061
  },
  {
    "mu_place": "อนุสาวรีย์ พระนางเลือดขาว แม่เจ้าอยู่หัว",
    "name": "พระพุทธกรรมแต่ง เทวสยามศรีวิชัย",
    "rating": 3,
    "address": "35HX+76F Unnamed Road ตำบล เขาพระบาท อำเภอ เชียรใหญ่",
    "lat": 8.0781838,
    "lng": 100.1980509
  },
  {
    "mu_place": "วัดทุ่งเศรษฐี ราม2",
    "name": "Spy War",
    "rating": 4.5,
    "address": "World, Safari แขวงสามวาตะวันตก เขตคลองสามวา",
    "lat": 13.8640257,
    "lng": 100.7014903
  },
  {
    "mu_place": "วัดทุ่งเศรษฐี ราม2",
    "name": "หอดูนก สวนศรีนครเขื่อนขันธ์",
    "rating": 4.3,
    "address": "MHW9+F9V ตำบล บางกะเจ้า อำเภอพระประแดง",
    "lat": 13.6962495,
    "lng": 100.5684135
  },
  {
    "mu_place": "วัดทุ่งเศรษฐี ราม2",
    "name": "พระที่นั่งพิมานจักรี",
    "rating": 3.4,
    "address": "315 ถ. ราชวิถี แขวงทุ่งพญาไท เขตราชเทวี",
    "lat": 13.7685069,
    "lng": 100.5328757
  },
  {
    "mu_place": "วัดทุ่งเศรษฐี ราม2",
    "name": "พิพิธภัณฑ์ช้างเอราวัณ",
    "rating": 4.4,
    "address": "99 ถ. กาญจนาภิเษก ตำบล บางเมืองใหม่ อำเภอเมืองสมุทรปราการ",
    "lat": 13.6285771,
    "lng": 100.5889193
  },
  {
    "mu_place": "วัดทุ่งเศรษฐี ราม2",
    "name": "ซาฟารีเวิลด์",
    "rating": 4.5,
    "address": "99 ถ. ปัญญาอินทรา แขวงสามวาตะวันตก เขตคลองสามวา",
    "lat": 13.8654914,
    "lng": 100.7030427
  },
  {
    "mu_place": "วัดทุ่งเศรษฐี ราม2",
    "name": "ซีไลฟ์ แบงคอก",
    "rating": 4.5,
    "address": "ชั้น บี1-บี2 สยามพารากอน 991 ถ. พระรามที่ ๑ แขวงปทุมวัน เขตปทุมวัน",
    "lat": 13.7459351,
    "lng": 100.5352057
  },
  {
    "mu_place": "วัดทุ่งเศรษฐี ราม2",
    "name": "Guide Thailandia & Tours",
    "rating": 0,
    "address": "888TT Building, ซ. สุขุมวิท 81 แขวงบางจาก เขตพระโขนง",
    "lat": 13.7061533,
    "lng": 100.6050823
  },
  {
    "mu_place": "วัดทุ่งเศรษฐี ราม2",
    "name": "เสาชิงช้า",
    "rating": 4.6,
    "address": "239 ถนน ดินสอ แขวงบางขุนพรหม เขตพระนคร",
    "lat": 13.7517707,
    "lng": 100.5012761
  },
  {
    "mu_place": "วัดทุ่งเศรษฐี ราม2",
    "name": "สูงวัยพาเที่ยว",
    "rating": 0,
    "address": "JGFQ+F6J ถ. สุขสวัสดิ์ เขตจอมทอง",
    "lat": 13.6237038,
    "lng": 100.5380215
  },
  {
    "mu_place": "วัดทุ่งเศรษฐี ราม2",
    "name": "อุทยานผีเสื้อและแมลง กรุงเทพฯ",
    "rating": 4.1,
    "address": "สวนวิชรเบญจทิศ(สวนรถไฟ ถนน กำแพงเพชร 3 แขวงลาดยาว เขตจตุจักร",
    "lat": 13.8095512,
    "lng": 100.5549011
  },
  {
    "mu_place": "วัดทุ่งเศรษฐี ราม2",
    "name": "ริมน้ำโขง หอ14",
    "rating": 0,
    "address": "50, Kasetsart University, Ngam Wong Wan Road, Lat Yao, Khet Chatuchak, Bangkok, 10900 แขวงลาดยาว เขตจตุจักร",
    "lat": 13.8487664,
    "lng": 100.5688721
  },
  {
    "mu_place": "วัดทุ่งเศรษฐี ราม2",
    "name": "สวนงู สถานเสาวภา สภากาชาดไทย",
    "rating": 4.5,
    "address": "1871 ถนนพระรามที่ ๔ แขวงปทุมวัน เขตปทุมวัน",
    "lat": 13.7328912,
    "lng": 100.5327978
  },
  {
    "mu_place": "วัดทุ่งเศรษฐี ราม2",
    "name": "สยามอะเมซิ่งพาร์ค",
    "rating": 4.2,
    "address": "203 ถ. สวนสยาม แขวงคันนายาว เขตคันนายาว",
    "lat": 13.8066994,
    "lng": 100.6923303
  },
  {
    "mu_place": "วัดทุ่งเศรษฐี ราม2",
    "name": "คลองโอ่งอ่าง (คลองรอบกรุง)",
    "rating": 4.3,
    "address": "PGW3+8C6 คลองโอ่งอ่าง แขวงสัมพันธวงศ์ เขตสัมพันธวงศ์",
    "lat": 13.7457964,
    "lng": 100.5035255
  },
  {
    "mu_place": "วัดทุ่งเศรษฐี ราม2",
    "name": "พิพิธภัณฑ์เรือนคำเที่ยง",
    "rating": 4,
    "address": "131 ถนน อโศกมนตรี แขวงคลองเตยเหนือ เขตวัฒนา",
    "lat": 13.7393283,
    "lng": 100.5612914
  },
  {
    "mu_place": "วัดทุ่งเศรษฐี ราม2",
    "name": "วัดสุทัศนเทพวรารามราชวรมหาวิหาร",
    "rating": 4.7,
    "address": "146 ถ. บำรุงเมือง แขวงวัดราชบพิตร เขตพระนคร",
    "lat": 13.751068,
    "lng": 100.5010391
  },
  {
    "mu_place": "วัดทุ่งเศรษฐี ราม2",
    "name": "สวนสาธารณะและสวนพฤกษชาติ ศรีนครเขื่อนขันธ์",
    "rating": 4.5,
    "address": "73 ซอย วัดราษฎร์รังสรรค์ ตำบล บางกะเจ้า อำเภอพระประแดง",
    "lat": 13.6968366,
    "lng": 100.5649237
  },
  {
    "mu_place": "วัดทุ่งเศรษฐี ราม2",
    "name": "ล้ง 1919",
    "rating": 4.2,
    "address": "248 ถนน เชียงใหม่ แขวงคลองสาน เขตคลองสาน",
    "lat": 13.7343611,
    "lng": 100.5076162
  },
  {
    "mu_place": "วัดทุ่งเศรษฐี ราม2",
    "name": "สวนลาดกระบัง (สวนพระนคร)",
    "rating": 4.3,
    "address": "PQCJ+9F8 ถนน ลาดกระบัง เเขวง ลาดกระบัง เขตลาดกระบัง",
    "lat": 13.7209142,
    "lng": 100.7812019
  },
  {
    "mu_place": "วัดทุ่งเศรษฐี ราม2",
    "name": "อุทยานเบญจสิริ",
    "rating": 4.5,
    "address": "ถ. สุขุมวิท แขวงคลองตัน เขตคลองเตย",
    "lat": 13.7313966,
    "lng": 100.56793
  },
  {
    "mu_place": "วัดเขาบันไดอิฐ",
    "name": "ถ้ำเขาหลวง",
    "rating": 4.5,
    "address": "ตำบล ธงชัย อำเภอเมืองเพชรบุรี",
    "lat": 13.135207,
    "lng": 99.932894
  },
  {
    "mu_place": "วัดเขาบันไดอิฐ",
    "name": "อุทยานประวัติศาสตร์พระนครคีรี",
    "rating": 4.5,
    "address": "97 ถนน คีรีรัถยา ตำบล คลองกระแซง อำเภอเมืองเพชรบุรี",
    "lat": 13.1091837,
    "lng": 99.9366336
  },
  {
    "mu_place": "วัดเขาบันไดอิฐ",
    "name": "หาดแหลมหลวง",
    "rating": 4.2,
    "address": "23VV+HQH ตำบล แหลมผักเบี้ย อำเภอ บ้านแหลม",
    "lat": 13.0439428,
    "lng": 100.094488
  },
  {
    "mu_place": "วัดเขาบันไดอิฐ",
    "name": "สวนตาลลุงถนอม",
    "rating": 4.4,
    "address": "2WC7+Q84 ตำบล ถ้ำรงค์ อำเภอบ้านลาด",
    "lat": 13.0218831,
    "lng": 99.9133178
  },
  {
    "mu_place": "วัดเขาบันไดอิฐ",
    "name": "เสาชิงช้า วัดพลิบพลี",
    "rating": 5,
    "address": "4X23+5VP ตำบล ท่าราบ อำเภอเมืองเพชรบุรี",
    "lat": 13.1004643,
    "lng": 99.9546914
  },
  {
    "mu_place": "วัดเขาบันไดอิฐ",
    "name": "หอน้ำโบราณ พระรามราชนิเวศน์",
    "rating": 5,
    "address": "3WQX+J6Q ตำบล คลองกระแซง อำเภอเมืองเพชรบุรี",
    "lat": 13.0890893,
    "lng": 99.94809719999999
  },
  {
    "mu_place": "วัดเขาบันไดอิฐ",
    "name": "ทุ่งทานตะวันนาพันสาม",
    "rating": 4.1,
    "address": "323P+2VW, Unnamed Road, ตำบล นาพันสาม อำเภอเมืองเพชรบุรี",
    "lat": 13.052605,
    "lng": 100.037189
  },
  {
    "mu_place": "วัดเขาบันไดอิฐ",
    "name": "Art Of Salt",
    "rating": 3.6,
    "address": "33V7+PF4 ตำบล บางแก้ว อำเภอ บ้านแหลม",
    "lat": 13.0942692,
    "lng": 100.0636942
  },
  {
    "mu_place": "วัดเขาบันไดอิฐ",
    "name": "ฟาร์มทะเลตัวอย่างในสมเด็จพระนางเจ้าสิริกิติ์ พระบรมราชินีนาถ จังหวัดเพชรบุรี",
    "rating": 4.3,
    "address": "บางแก้ว ตำบล บางแก้ว อำเภอ บ้านแหลม",
    "lat": 13.117948,
    "lng": 100.0599352
  },
  {
    "mu_place": "วัดเขาบันไดอิฐ",
    "name": "ผาซ่อนรัก MK",
    "rating": 5,
    "address": "XR9V+GHG Unnamed Road ตำบล ท่าแลง อำเภอท่ายาง",
    "lat": 12.9688239,
    "lng": 99.8439401
  },
  {
    "mu_place": "วัดเขาบันไดอิฐ",
    "name": "ทุ่งบัวแดงหัวตะเข้",
    "rating": 4.1,
    "address": "5XGH+PQJ ตำบล บ้านแหลม อำเภอ บ้านแหลม",
    "lat": 13.1768354,
    "lng": 99.9794057
  },
  {
    "mu_place": "วัดเขาบันไดอิฐ",
    "name": "ฟาร์มทะเลตัวอย่างฯ",
    "rating": 0,
    "address": "บางแก้ว, ตำบล บางแก้ว อำเภอ บ้านแหลม",
    "lat": 13.1173688,
    "lng": 100.0597714
  },
  {
    "mu_place": "วัดเขาบันไดอิฐ",
    "name": "อุทยานปลาวัดท่าคอย",
    "rating": 3.5,
    "address": "XVFJ+GXH ซอย ท่าคอย 4 ตำบล ท่าคอย อำเภอท่ายาง",
    "lat": 12.9738002,
    "lng": 99.88249619999999
  },
  {
    "mu_place": "วัดเขาบันไดอิฐ",
    "name": "Street Art Wat Kaen Lek Community (ชุมชนวัดแก่นเหล็ก)",
    "rating": 5,
    "address": "4W4W+PV3 ตำบล คลองกระแซง อำเภอเมืองเพชรบุรี",
    "lat": 13.106757,
    "lng": 99.9471638
  },
  {
    "mu_place": "วัดเขาบันไดอิฐ",
    "name": "ทางขึ้น อุทยานประวัติศาสตร์เขาพระนครคีรี",
    "rating": 4.3,
    "address": "4W5M+HWP Unnamed Road ตำบล คลองกระแซง อำเภอเมืองเพชรบุรี",
    "lat": 13.1089548,
    "lng": 99.93481799999999
  },
  {
    "mu_place": "วัดเขาบันไดอิฐ",
    "name": "จุดเล่นน้ำคอละออม",
    "rating": 4.1,
    "address": "WVG5+GQH ตำบล ท่าคอย อำเภอท่ายาง",
    "lat": 12.9263099,
    "lng": 99.8594936
  },
  {
    "mu_place": "วัดเขาบันไดอิฐ",
    "name": "หลงเล@แหลมผักเบี้ย",
    "rating": 0,
    "address": "บ้านปากคลองบางทะลุ ตำบล แหลมผักเบี้ย อำเภอ บ้านแหลม",
    "lat": 13.0280764,
    "lng": 100.051063
  },
  {
    "mu_place": "วัดเขาบันไดอิฐ",
    "name": "จุดชมวิว โรงตากเกลือ บางขุนไทร",
    "rating": 0,
    "address": "52J3+7X ตำบล บางขุนไทร อำเภอ บ้านแหลม",
    "lat": 13.1807,
    "lng": 100.005
  },
  {
    "mu_place": "วัดเขาบันไดอิฐ",
    "name": "Khao Luang Cave Phetchaburi",
    "rating": 4.7,
    "address": "4WPM+48F ตำบล ธงชัย อำเภอเมืองเพชรบุรี",
    "lat": 13.135691,
    "lng": 99.9333386
  },
  {
    "mu_place": "วัดเขาบันไดอิฐ",
    "name": "สวนเต่ายายยาย",
    "rating": 5,
    "address": "2W9C+QMC ตำบล ไร่มะขาม อำเภอบ้านลาด",
    "lat": 13.0192837,
    "lng": 99.92192349999999
  },
  {
    "mu_place": "วัดป่าสว่างธรรม",
    "name": "บ้านควาย อุดรธานี",
    "rating": 5,
    "address": "C58M+3P4 2096 ตำบล หนองเม็ก อำเภอหนองหาน",
    "lat": 17.4151422,
    "lng": 103.1843376
  },
  {
    "mu_place": "วัดป่าสว่างธรรม",
    "name": "วัดสระมณี",
    "rating": 4.6,
    "address": "829G+F22 บ้าน ผัก ต บ, ตำบล ผักตบ อำเภอหนองหาน",
    "lat": 17.3187132,
    "lng": 103.0250065
  },
  {
    "mu_place": "วัดป่าสว่างธรรม",
    "name": "วัดป่านาคำมูล",
    "rating": 4.2,
    "address": "2255 ตำบล นาข่า อำเภอเมืองอุดรธานี",
    "lat": 17.5556298,
    "lng": 102.8957408
  },
  {
    "mu_place": "วัดศรีดอนมูล",
    "name": "วังบัวบาน",
    "rating": 4.4,
    "address": "99 ถ. ห้วยแก้ว ตำบลช้างเผือก อำเภอเมืองเชียงใหม่",
    "lat": 18.8122544,
    "lng": 98.94164119999999
  },
  {
    "mu_place": "วัดศรีดอนมูล",
    "name": "สถานที่ท่องเที่ยว",
    "rating": 5,
    "address": "104/1 ถ. ช้างคลาน ตำบล ช้างม่อย อำเภอเมืองเชียงใหม่",
    "lat": 18.785275,
    "lng": 99.00027039999999
  },
  {
    "mu_place": "วัดศรีดอนมูล",
    "name": "สวนองุ่นเวียงด้ง",
    "rating": 3.8,
    "address": "PW83+RG2 ตำบล น้ำแพร่ อำเภอหางดง",
    "lat": 18.7170112,
    "lng": 98.9037702
  },
  {
    "mu_place": "วัดศรีดอนมูล",
    "name": "ลานทรายฝายหินบ้านทุ่งขี้เสือ",
    "rating": 3.7,
    "address": "P32G+PPR Unnamed Road ตำบล ชมภู อำเภอ สารภี",
    "lat": 18.7018719,
    "lng": 99.0767529
  },
  {
    "mu_place": "วัดศรีดอนมูล",
    "name": "หมู่บ้านหัตถกรรมเพื่อการท่องเที่ยว(หมู่บ้านโอท๊อป)ต้นแบบ",
    "rating": 3.7,
    "address": "2/4 บ้านแม่โฮม ซอย 3 ตำบลต้นเปา อำเภอสันกำแพง",
    "lat": 18.7709632,
    "lng": 99.0749744
  },
  {
    "mu_place": "วัดศรีดอนมูล",
    "name": "เวียงกุมกาม",
    "rating": 4.3,
    "address": "149 หมู่ที่ 2 ถนน สมโภชเชียงใหม่ 700 ปี ตำบลท่าวังตาล อำเภอ สารภี",
    "lat": 18.7446684,
    "lng": 98.9943528
  },
  {
    "mu_place": "วัดศรีดอนมูล",
    "name": "หมู่บ้านชาวเขาเผ่าม้งดอยปุย",
    "rating": 4.2,
    "address": "หมู่ที่ 11 อุทยานแห่งชาติดอยสุเทพ-ปุย อำเภอเมืองเชียงใหม่",
    "lat": 18.8164312,
    "lng": 98.8833363
  },
  {
    "mu_place": "วัดศรีดอนมูล",
    "name": "หอคำหลวง",
    "rating": 4.6,
    "address": "QW3C+5X6 อำเภอเมืองเชียงใหม่",
    "lat": 18.7529143,
    "lng": 98.922388
  },
  {
    "mu_place": "วัดศรีดอนมูล",
    "name": "วัดเจดีย์หลวงวรวิหาร เชียงใหม่",
    "rating": 4.7,
    "address": "103 ถ. พระปกเกล้า ตำบลศรีภูมิ อำเภอเมืองเชียงใหม่",
    "lat": 18.7869693,
    "lng": 98.9865804
  },
  {
    "mu_place": "วัดศรีดอนมูล",
    "name": "Chinese Welcome Gate",
    "rating": 3.6,
    "address": "QXRX+6HQ ถนน ช้างม่อย ตำบล ช้างม่อย อำเภอเมืองเชียงใหม่",
    "lat": 18.7905897,
    "lng": 98.9989712
  },
  {
    "mu_place": "วัดศรีดอนมูล",
    "name": "จุดชมวิว",
    "rating": 0,
    "address": "QWVM+32F ถนน ศรีวิชัย ตำบลสุเทพ อำเภอเมืองเชียงใหม่",
    "lat": 18.7926941,
    "lng": 98.9325422
  },
  {
    "mu_place": "วัดศรีดอนมูล",
    "name": "กลุ่มท่องเที่ยวเชิงอนุรักษ์บ้านปง-ห้วยลาน",
    "rating": 4.8,
    "address": "บ้านเลขที่ 1 ตำบล ออนใต้ อำเภอสันกำแพง",
    "lat": 18.7191368,
    "lng": 99.20142330000002
  },
  {
    "mu_place": "วัดศรีดอนมูล",
    "name": "จุดชมวิวม่อนผาดำ",
    "rating": 4.4,
    "address": "RV3W+6GQ ตำบลสุเทพ อำเภอเมืองเชียงใหม่",
    "lat": 18.8030837,
    "lng": 98.8963488
  },
  {
    "mu_place": "วัดศรีดอนมูล",
    "name": "บ้านชาวนา เชียงใหม่",
    "rating": 4.2,
    "address": "111/2 M.7 Sanpheesua rd., Sanpheesua Muang",
    "lat": 18.830788,
    "lng": 98.99618799999999
  },
  {
    "mu_place": "วัดศรีดอนมูล",
    "name": "ศูนย์บริการนักท่องเที่ยว",
    "rating": 0,
    "address": "QW9R+58P ตำบลสุเทพ อำเภอเมืองเชียงใหม่",
    "lat": 18.767956,
    "lng": 98.94081489999999
  },
  {
    "mu_place": "วัดศรีดอนมูล",
    "name": "แหล่งท่องเที่ยวเชิงเกษตรบ้านห้วยม่วง",
    "rating": 0,
    "address": "106/1 ซอย หมู่บ้านเอ็ม.เอส. วิลเลจ 4 ตำบล ห้วยม่วง อำเภอกำแพงแสน",
    "lat": 18.727681,
    "lng": 99.0286967
  },
  {
    "mu_place": "วัดศรีดอนมูล",
    "name": "วัดอุโมงค์ สวนพุทธธรรม",
    "rating": 4.6,
    "address": "135 หมู่ที่ 10 อำเภอเมืองเชียงใหม่",
    "lat": 18.7833134,
    "lng": 98.9511902
  },
  {
    "mu_place": "วัดศรีดอนมูล",
    "name": "ชุมชนออนใต้ หมู่บ้าน CIV จ.เชียงใหม่",
    "rating": 5,
    "address": "ชุมชนออนใต้ ตำบล ออนใต้ อำเภอสันกำแพง",
    "lat": 18.7370903,
    "lng": 99.2145336
  },
  {
    "mu_place": "วัดศรีดอนมูล",
    "name": "วัดสวนดอก พระอารามหลวง",
    "rating": 4.6,
    "address": "139 ถนน สุเทพ ตำบลสุเทพ อำเภอเมืองเชียงใหม่",
    "lat": 18.7882603,
    "lng": 98.96776489999999
  },
  {
    "mu_place": "วัดศรีดอนมูล",
    "name": "Ratchawang-inn/ราชวังอินทร์",
    "rating": 5,
    "address": "21/3 หมู่ 2 บ้าน สัน ต้น ม่วง เหนือ ตำบล สำราญ รา ษ ฏ ร์, อำเภอดอยสะเก็ด",
    "lat": 18.8163382,
    "lng": 99.0973484
  },
  {
    "mu_place": "วัดพระธาตุดอยสะเก็ด",
    "name": "สถานที่ท่องเที่ยว",
    "rating": 5,
    "address": "104/1 ถ. ช้างคลาน ตำบล ช้างม่อย อำเภอเมืองเชียงใหม่",
    "lat": 18.785275,
    "lng": 99.00027039999999
  },
  {
    "mu_place": "วัดพระธาตุดอยสะเก็ด",
    "name": "สวนลุงวิท",
    "rating": 3.9,
    "address": "W2C2+PH3 ตำบลหนองหาร อำเภอสันทราย",
    "lat": 18.9217696,
    "lng": 99.0014066
  },
  {
    "mu_place": "วัดพระธาตุดอยสะเก็ด",
    "name": "ลานทรายฝายหินบ้านทุ่งขี้เสือ",
    "rating": 3.7,
    "address": "P32G+PPR Unnamed Road ตำบล ชมภู อำเภอ สารภี",
    "lat": 18.7018719,
    "lng": 99.0767529
  },
  {
    "mu_place": "วัดพระธาตุดอยสะเก็ด",
    "name": "หมู่บ้านหัตถกรรมเพื่อการท่องเที่ยว(หมู่บ้านโอท๊อป)ต้นแบบ",
    "rating": 3.7,
    "address": "2/4 บ้านแม่โฮม ซอย 3 ตำบลต้นเปา อำเภอสันกำแพง",
    "lat": 18.7709632,
    "lng": 99.0749744
  },
  {
    "mu_place": "วัดพระธาตุดอยสะเก็ด",
    "name": "ท่าจะฮักสบแฝก ท่องเที่ยวและผลิตภัณฑ์ชุมชนเชียงใหม่",
    "rating": 5,
    "address": "หมู่ที่ 2 191 ตำบล แม่แฝกใหม่ อำเภอสันทราย",
    "lat": 18.9949027,
    "lng": 98.9664406
  },
  {
    "mu_place": "วัดพระธาตุดอยสะเก็ด",
    "name": "เวียงกุมกาม",
    "rating": 4.3,
    "address": "149 หมู่ที่ 2 ถนน สมโภชเชียงใหม่ 700 ปี ตำบลท่าวังตาล อำเภอ สารภี",
    "lat": 18.7446684,
    "lng": 98.9943528
  },
  {
    "mu_place": "วัดพระธาตุดอยสะเก็ด",
    "name": "Elephant Parade Holiday Inn",
    "rating": 0,
    "address": "318/1 ถ. เชียงใหม่-ลำพูน T. Wat Kate, A. Muang",
    "lat": 18.766163,
    "lng": 99.00466580000001
  },
  {
    "mu_place": "วัดพระธาตุดอยสะเก็ด",
    "name": "Northern Star Tours",
    "rating": 5,
    "address": "QXPM+7CJ ตำบล พระสิงห์ อำเภอเมืองเชียงใหม่",
    "lat": 18.7857053,
    "lng": 98.98352949999999
  },
  {
    "mu_place": "วัดพระธาตุดอยสะเก็ด",
    "name": "น้ำพุร้อนดอยสะเก็ด",
    "rating": 4.1,
    "address": "W65W+W7J ชม.3005 ตำบล ป่าเมี่ยง อำเภอดอยสะเก็ด",
    "lat": 18.9098428,
    "lng": 99.2456445
  },
  {
    "mu_place": "วัดพระธาตุดอยสะเก็ด",
    "name": "วัดเจดีย์หลวงวรวิหาร เชียงใหม่",
    "rating": 4.7,
    "address": "103 ถ. พระปกเกล้า ตำบลศรีภูมิ อำเภอเมืองเชียงใหม่",
    "lat": 18.7869693,
    "lng": 98.9865804
  },
  {
    "mu_place": "วัดพระธาตุดอยสะเก็ด",
    "name": "Chinese Welcome Gate",
    "rating": 3.6,
    "address": "QXRX+6HQ ถนน ช้างม่อย ตำบล ช้างม่อย อำเภอเมืองเชียงใหม่",
    "lat": 18.7905897,
    "lng": 98.9989712
  },
  {
    "mu_place": "วัดพระธาตุดอยสะเก็ด",
    "name": "บ้านชาวนา เชียงใหม่",
    "rating": 4.2,
    "address": "111/2 M.7 Sanpheesua rd., Sanpheesua Muang",
    "lat": 18.830788,
    "lng": 98.99618799999999
  },
  {
    "mu_place": "วัดพระธาตุดอยสะเก็ด",
    "name": "แหล่งท่องเที่ยวเชิงเกษตรบ้านห้วยม่วง",
    "rating": 0,
    "address": "106/1 ซอย หมู่บ้านเอ็ม.เอส. วิลเลจ 4 ตำบล ห้วยม่วง อำเภอกำแพงแสน",
    "lat": 18.727681,
    "lng": 99.0286967
  },
  {
    "mu_place": "วัดพระธาตุดอยสะเก็ด",
    "name": "สามแยกเจ็ดยอด",
    "rating": 0,
    "address": "RX5C+2V6 ตำบลช้างเผือก อำเภอเมืองเชียงใหม่",
    "lat": 18.8075361,
    "lng": 98.9721462
  },
  {
    "mu_place": "วัดพระธาตุดอยสะเก็ด",
    "name": "Lanna​ Mini​ Zoo",
    "rating": 4.8,
    "address": "320 ตำบล แม่แฝก อำเภอสันทราย",
    "lat": 19.0501535,
    "lng": 98.97567649999999
  },
  {
    "mu_place": "วัดพระธาตุดอยสะเก็ด",
    "name": "วัดสวนดอก พระอารามหลวง",
    "rating": 4.6,
    "address": "139 ถนน สุเทพ ตำบลสุเทพ อำเภอเมืองเชียงใหม่",
    "lat": 18.7882603,
    "lng": 98.96776489999999
  },
  {
    "mu_place": "วัดพระธาตุดอยสะเก็ด",
    "name": "Night Bazaar Shopping Street",
    "rating": 4,
    "address": "Q2P2+C7M ถ. ช้างคลาน ตำบล ช้างม่อย อำเภอเมืองเชียงใหม่",
    "lat": 18.786084,
    "lng": 99.0006808
  },
  {
    "mu_place": "วัดพระธาตุดอยสะเก็ด",
    "name": "Chic",
    "rating": 0,
    "address": "QX9G+P73 ตำบลป่าแดด อำเภอเมืองเชียงใหม่",
    "lat": 18.7692638,
    "lng": 98.9756637
  },
  {
    "mu_place": "วัดพระธาตุดอยสะเก็ด",
    "name": "หมู่บ้านลึกลับ เมืองไดโนเสาร์ เชียงใหม่",
    "rating": 4.2,
    "address": "77/19 ตำบล สันผีเสื้อ อำเภอเมืองเชียงใหม่",
    "lat": 18.8330873,
    "lng": 98.9975895
  },
  {
    "mu_place": "วัดพระธาตุดอยสะเก็ด",
    "name": "De'Kashor Elephant Home & Hilltribe village",
    "rating": 5,
    "address": "330 12 ซอย หมู่บ้านเชียงใหม่แลนด์ ตำบลช้างคลาน เมือง",
    "lat": 18.7673497,
    "lng": 98.9969864
  },
  {
    "mu_place": "วัดธาตุมหาชัย หลวงปู่คำพันธ์",
    "name": "สวนอาหาร & คาเฟ่ บ่อตกปลาวังตามัวฟิชชิ่ง",
    "rating": 5,
    "address": "196 ตำบล วังตามัว อำเภอเมือง",
    "lat": 17.3137404,
    "lng": 104.4839765
  },
  {
    "mu_place": "วัดธาตุมหาชัย หลวงปู่คำพันธ์",
    "name": "แหล่งท่องเที่ยวมณฑลทหารบกที่ 210",
    "rating": 5,
    "address": "ค่ายพระยอดเมืองขวาง ตำบล กุรุคุ เมือง",
    "lat": 17.3332868,
    "lng": 104.5798061
  },
  {
    "mu_place": "วัดธาตุมหาชัย หลวงปู่คำพันธ์",
    "name": "ถนนแลนด์มาร์คบ้านโพนจาน",
    "rating": 0,
    "address": "CCGF+JG8 นพ.2041 ตำบล โพนจาน อำเภอ โพนสวรรค์",
    "lat": 17.4265347,
    "lng": 104.4238351
  },
  {
    "mu_place": "วัดเขาตาเงาะอุดมพร(หลวงปู่จื่อ)",
    "name": "สะพานไม้ ทุ่งบัวแดง บึงละหาน (บ้านมะเกลือ) อ.จัตุรัส",
    "rating": 4.2,
    "address": "ตำบล บ้านกอก อำเภอจัตุรัส",
    "lat": 15.6359862,
    "lng": 101.8736736
  },
  {
    "mu_place": "วัดเขาตาเงาะอุดมพร(หลวงปู่จื่อ)",
    "name": "ทุ่งบัวแดง ดอนละนาม ชัยภูมิ",
    "rating": 4.3,
    "address": "JWP9+5MX ตำบล ละหาน อำเภอจัตุรัส",
    "lat": 15.635497,
    "lng": 101.919237
  },
  {
    "mu_place": "วัดเขาตาเงาะอุดมพร(หลวงปู่จื่อ)",
    "name": "น้ำตกตาดร้อยรู",
    "rating": 4.2,
    "address": "บ้านตาดพัฒนา ต.ตลาดแร้ง อำเภอ บ้านเขว้า",
    "lat": 15.8646439,
    "lng": 101.8271437
  },
  {
    "mu_place": "วัดเขาตาเงาะอุดมพร(หลวงปู่จื่อ)",
    "name": "เกาะโนนงิ้ว",
    "rating": 4.2,
    "address": "หมู่ที่8 บ้านน้อยเกตุจำปา ตำบล หนองบัวใหญ่ อำเภอจัตุรัส",
    "lat": 15.6053621,
    "lng": 101.8887242
  },
  {
    "mu_place": "วัดเขาตาเงาะอุดมพร(หลวงปู่จื่อ)",
    "name": "Pink Lotus Lahan Paddle Boarding",
    "rating": 0,
    "address": "ทุ่งบัวแดง บ้านดอนละนาม, ตำบล ละหาน อำเภอจัตุรัส",
    "lat": 15.6353611,
    "lng": 101.9192142
  },
  {
    "mu_place": "วัดเขาตาเงาะอุดมพร(หลวงปู่จื่อ)",
    "name": "บ้านละหาน บึงละหาน",
    "rating": 4.5,
    "address": "JV8Q+89H ตำบล หนองบัวใหญ่ อำเภอจัตุรัส",
    "lat": 15.6158219,
    "lng": 101.888477
  },
  {
    "mu_place": "วัดเขาตาเงาะอุดมพร(หลวงปู่จื่อ)",
    "name": "ฝายน้ำล้น",
    "rating": 0,
    "address": "MVCV+2GC ตำบล หนองบัวบาน อำเภอจัตุรัส",
    "lat": 15.6700602,
    "lng": 101.8937553
  },
  {
    "mu_place": "วัดปากคลองมะขามเฒ่า - หลวงปู่ศุข",
    "name": "เขาสะแกกรัง อุทัยธานี",
    "rating": 4.4,
    "address": "92J8+5F5 ตำบล อุทัยใหม่ อำเภอเมืองอุทัยธานี",
    "lat": 15.3803981,
    "lng": 100.0162499
  },
  {
    "mu_place": "วัดปากคลองมะขามเฒ่า - หลวงปู่ศุข",
    "name": "นวัตวิถี",
    "rating": 4,
    "address": "555W+JHQ ตำบล บางหลวง อำเภอสรรพยา",
    "lat": 15.1590912,
    "lng": 100.1964871
  },
  {
    "mu_place": "วัดปากคลองมะขามเฒ่า - หลวงปู่ศุข",
    "name": "ทุ่งนา ป่าตาล",
    "rating": 3.6,
    "address": "72R7+W5G ตำบล หนองบัว อำเภอ วัดสิงห์",
    "lat": 15.2923053,
    "lng": 100.0129384
  },
  {
    "mu_place": "วัดปากคลองมะขามเฒ่า - หลวงปู่ศุข",
    "name": "ชุมชนท่องเที่ยว OTOP นวัตวิถี หนองไผ่แบน",
    "rating": 4.7,
    "address": "2 5 ตำบล หนองไผ่แบน อำเภอเมืองอุทัยธานี",
    "lat": 15.4252583,
    "lng": 100.0249175
  },
  {
    "mu_place": "วัดปากคลองมะขามเฒ่า - หลวงปู่ศุข",
    "name": "บ้านจงรัก",
    "rating": 4.6,
    "address": "ศรีอุทัย ตำบล อุทัยใหม่ อำเภอเมืองอุทัยธานี",
    "lat": 15.3801654,
    "lng": 100.0313017
  },
  {
    "mu_place": "วัดปากคลองมะขามเฒ่า - หลวงปู่ศุข",
    "name": "หมุดโลก (หมุดที่ 2 ของเอเชีย)",
    "rating": 4.5,
    "address": "เขาสะแกกรัง อุทัยธานี ตำบล อุทัยใหม่ อำเภอเมืองอุทัยธานี",
    "lat": 15.3837869,
    "lng": 100.0132147
  },
  {
    "mu_place": "วัดปากคลองมะขามเฒ่า - หลวงปู่ศุข",
    "name": "เขื่อนเรียงหิน",
    "rating": 4.4,
    "address": "297 ถนน ชัยณรงค์ ตำบล ในเมือง อำเภอเมืองชัยนาท",
    "lat": 15.1839063,
    "lng": 100.1231321
  },
  {
    "mu_place": "วัดปากคลองมะขามเฒ่า - หลวงปู่ศุข",
    "name": "บ้านหาดมะตูม",
    "rating": 3,
    "address": "937M+C5H Unnamed Road ตำบล ศิลาดาน อำเภอมโนรมย์",
    "lat": 15.3635678,
    "lng": 100.0829859
  },
  {
    "mu_place": "วัดปากคลองมะขามเฒ่า - หลวงปู่ศุข",
    "name": "สวนนกชัยนาท",
    "rating": 4.1,
    "address": "6542+QQ6 ตำบล เขาท่าพระ อำเภอเมืองชัยนาท",
    "lat": 15.2069213,
    "lng": 100.1519043
  },
  {
    "mu_place": "วัดปากคลองมะขามเฒ่า - หลวงปู่ศุข",
    "name": "พิพิธภัณฑสถานแห่งชาติ ชัยนาทมุนี",
    "rating": 4.3,
    "address": "5562+3V3 ตำบล ชัยนาท อำเภอเมืองชัยนาท",
    "lat": 15.1601357,
    "lng": 100.1521674
  },
  {
    "mu_place": "วัดปากคลองมะขามเฒ่า - หลวงปู่ศุข",
    "name": "พิพิธภัณฑ์ไข่นก",
    "rating": 3.9,
    "address": "6542+QC6 ตำบล เขาท่าพระ อำเภอเมืองชัยนาท",
    "lat": 15.2069068,
    "lng": 100.1510165
  },
  {
    "mu_place": "วัดปากคลองมะขามเฒ่า - หลวงปู่ศุข",
    "name": "ชุมชนท่องเที่ยว OTOP นวัตวิถี บ้านท่าหาด",
    "rating": 4,
    "address": "738J+9J3 3244 ตำบล ธรรมามูล อำเภอเมืองชัยนาท",
    "lat": 15.265881,
    "lng": 100.081558
  },
  {
    "mu_place": "วัดปากคลองมะขามเฒ่า - หลวงปู่ศุข",
    "name": "ลำน้ำสะแกกรัง at อำเภอเมืองอุทัยธานี",
    "rating": 4.3,
    "address": "228 ซอย ตั้งใจงาม ตำบล น้ำซึม อำเภอเมืองอุทัยธานี",
    "lat": 15.3267712,
    "lng": 100.0731838
  },
  {
    "mu_place": "วัดปากคลองมะขามเฒ่า - หลวงปู่ศุข",
    "name": "สำเภาทอง",
    "rating": 3.8,
    "address": "835J+7R9 ตำบล คุ้งสำเภา อำเภอมโนรมย์",
    "lat": 15.3081677,
    "lng": 100.0821318
  },
  {
    "mu_place": "วัดปากคลองมะขามเฒ่า - หลวงปู่ศุข",
    "name": "วัดสังกัสรัตนคีรี",
    "rating": 4.6,
    "address": "92G9+23W ตำบล น้ำซึม อำเภอเมืองอุทัยธานี",
    "lat": 15.3751087,
    "lng": 100.0177104
  },
  {
    "mu_place": "วัดปากคลองมะขามเฒ่า - หลวงปู่ศุข",
    "name": "พิพิธภัณฑ์ประวัติศาสตร์และวัฒนธรรมพื้นเมือง",
    "rating": 1,
    "address": "92FP+VJX ตำบล อุทัยใหม่ อำเภอเมืองอุทัยธานี",
    "lat": 15.3747366,
    "lng": 100.0366199
  },
  {
    "mu_place": "วัดปากคลองมะขามเฒ่า - หลวงปู่ศุข",
    "name": "เมืองโบราณอู่ตะเภา",
    "rating": 4.1,
    "address": "75MR+9VX ตำบล อู่ตะเภา อำเภอมโนรมย์",
    "lat": 15.2834843,
    "lng": 100.1922303
  },
  {
    "mu_place": "วัดปากคลองมะขามเฒ่า - หลวงปู่ศุข",
    "name": "วัดธรรมามูลวรวิหาร",
    "rating": 4.6,
    "address": "ตำบล ธรรมามูล อำเภอเมืองชัยนาท",
    "lat": 15.2485793,
    "lng": 100.0836056
  },
  {
    "mu_place": "หลวงปู่ทิม พระเกจิแห่งดินแดนบูรพา วัดละหารไร่",
    "name": "จุดชมวิว วัดเขาโบสถ์",
    "rating": 3.9,
    "address": "P6RJ+9FC, Unnamed Rd,, ตำบลทับมา อำเภอเมืองระยอง",
    "lat": 12.7409375,
    "lng": 101.2311326
  },
  {
    "mu_place": "หลวงปู่ทิม พระเกจิแห่งดินแดนบูรพา วัดละหารไร่",
    "name": "ทุ่งทานตะวัน อ่างเก็บน้ำดอกกราย",
    "rating": 4.4,
    "address": "V6XC+8FC ตำบล แม่น้ำคู้ อำเภอปลวกแดง",
    "lat": 12.8983113,
    "lng": 101.2211532
  },
  {
    "mu_place": "หลวงปู่ทิม พระเกจิแห่งดินแดนบูรพา วัดละหารไร่",
    "name": "น้ำเนินไทร",
    "rating": 4.4,
    "address": "บ้านหนองกรับ หนองบัว อำเภอบ้านค่าย",
    "lat": 12.8981558,
    "lng": 101.297383
  },
  {
    "mu_place": "หลวงปู่ทิม พระเกจิแห่งดินแดนบูรพา วัดละหารไร่",
    "name": "เขางวงช้าง",
    "rating": 3.7,
    "address": "เขางวงช้าง ตำบล บางบุตร อำเภอบ้านค่าย",
    "lat": 12.811949,
    "lng": 101.400714
  },
  {
    "mu_place": "หลวงปู่ทิม พระเกจิแห่งดินแดนบูรพา วัดละหารไร่",
    "name": "คลองหินลอย ปลวกแดง",
    "rating": 5,
    "address": "X5FR+CVH ตำบล มาบยางพร อำเภอปลวกแดง",
    "lat": 12.973562,
    "lng": 101.192232
  },
  {
    "mu_place": "หลวงปู่ทิม พระเกจิแห่งดินแดนบูรพา วัดละหารไร่",
    "name": "ทุ่งทานตะวัน บ้านค่าย ระยอง",
    "rating": 3.7,
    "address": "V9F6+9PJ ตำบล หนองบัว อำเภอบ้านค่าย",
    "lat": 12.8734562,
    "lng": 101.361772
  },
  {
    "mu_place": "หลวงปู่ทิม พระเกจิแห่งดินแดนบูรพา วัดละหารไร่",
    "name": "ทุ่งคอสมอสบ้านน้านี",
    "rating": 4.1,
    "address": "29 หมู่7 ตำบล ชากบก อำเภอบ้านค่าย",
    "lat": 12.7830573,
    "lng": 101.3511051
  },
  {
    "mu_place": "หลวงปู่ทิม พระเกจิแห่งดินแดนบูรพา วัดละหารไร่",
    "name": "สวนช่อฟ้า",
    "rating": 4.1,
    "address": "MCVV+JWW ตำบล สำนักทอง อำเภอเมืองระยอง",
    "lat": 12.6941181,
    "lng": 101.4448199
  },
  {
    "mu_place": "หลวงปู่ทิม พระเกจิแห่งดินแดนบูรพา วัดละหารไร่",
    "name": "วงเวียนปี่",
    "rating": 3.7,
    "address": "M7P8+QVH ตำบลเชิงเนิน อำเภอเมืองระยอง",
    "lat": 12.6869292,
    "lng": 101.2672491
  },
  {
    "mu_place": "หลวงปู่ทิม พระเกจิแห่งดินแดนบูรพา วัดละหารไร่",
    "name": "ไร่น้ำเนินไทรแคมป์ปิ้ง",
    "rating": 4,
    "address": "0 ตำบล หนองบัว อำเภอบ้านค่าย",
    "lat": 12.8984793,
    "lng": 101.2975121
  },
  {
    "mu_place": "หลวงปู่ทิม พระเกจิแห่งดินแดนบูรพา วัดละหารไร่",
    "name": "พระมหาเจดีย์ศรีธรรมสถิตย์",
    "rating": 4.6,
    "address": "60 ถนน สุขุมวิท ตำบล สำนักทอง อำเภอเมืองระยอง",
    "lat": 12.7045661,
    "lng": 101.4403602
  },
  {
    "mu_place": "หลวงปู่ทิม พระเกจิแห่งดินแดนบูรพา วัดละหารไร่",
    "name": "สนามสเกลริมคลองบ้านดอนระยอง",
    "rating": 5,
    "address": "83/2 อำเภอเมืองระยอง",
    "lat": 12.6987151,
    "lng": 101.3030159
  },
  {
    "mu_place": "หลวงปู่ทิม พระเกจิแห่งดินแดนบูรพา วัดละหารไร่",
    "name": "ตลาดน้ำเกาะกลอย",
    "rating": 3.8,
    "address": "65/3 เมือง",
    "lat": 12.6967082,
    "lng": 101.266448
  },
  {
    "mu_place": "หลวงปู่ทิม พระเกจิแห่งดินแดนบูรพา วัดละหารไร่",
    "name": "สวนละไม",
    "rating": 3.9,
    "address": "XCVM+HXR ตำบล ป่ายุบใน อำเภอวังจันทร์",
    "lat": 12.995535,
    "lng": 101.436284
  },
  {
    "mu_place": "หลวงปู่ทิม พระเกจิแห่งดินแดนบูรพา วัดละหารไร่",
    "name": "ร่มไผ่&ไทรย้อย",
    "rating": 4.2,
    "address": "บ้านคลองนอก ตำบล แม่น้ำคู้ อำเภอปลวกแดง",
    "lat": 12.8988755,
    "lng": 101.2963801
  },
  {
    "mu_place": "หลวงปู่ทิม พระเกจิแห่งดินแดนบูรพา วัดละหารไร่",
    "name": "วัดน้ำตกธรรมรส",
    "rating": 4.4,
    "address": "2C3J+P39 ตำบล ป่ายุบใน อำเภอวังจันทร์",
    "lat": 13.0042773,
    "lng": 101.4302306
  },
  {
    "mu_place": "หลวงปู่ทิม พระเกจิแห่งดินแดนบูรพา วัดละหารไร่",
    "name": "Areeya Flower Park",
    "rating": 3.5,
    "address": "V6C6+3XP ตำบล แม่น้ำคู้ อำเภอปลวกแดง",
    "lat": 12.8702053,
    "lng": 101.2124497
  },
  {
    "mu_place": "หลวงปู่ทิม พระเกจิแห่งดินแดนบูรพา วัดละหารไร่",
    "name": "สวนสุภัทราแลนด์ โดย ททท.",
    "rating": 4,
    "address": "3143 ตำบล หนองละลอก อำเภอบ้านค่าย",
    "lat": 12.79977,
    "lng": 101.2307391
  },
  {
    "mu_place": "หลวงปู่ทิม พระเกจิแห่งดินแดนบูรพา วัดละหารไร่",
    "name": "สวนเพื่อน-Suan PUEN",
    "rating": 4.8,
    "address": "555 ตำบล แม่น้ำคู้ อำเภอปลวกแดง",
    "lat": 12.8959368,
    "lng": 101.2983015
  },
  {
    "mu_place": "วัดสุทัศนเทพวรารามราชวรมหาวิหาร",
    "name": "หอดูนก สวนศรีนครเขื่อนขันธ์",
    "rating": 4.3,
    "address": "MHW9+F9V ตำบล บางกะเจ้า อำเภอพระประแดง",
    "lat": 13.6962495,
    "lng": 100.5684135
  },
  {
    "mu_place": "วัดสุทัศนเทพวรารามราชวรมหาวิหาร",
    "name": "มิวเซียมสยาม",
    "rating": 4.5,
    "address": "4 ถนน สนามไชย แขวงพระบรมมหาราชวัง เขตพระนคร",
    "lat": 13.744147,
    "lng": 100.494137
  },
  {
    "mu_place": "วัดสุทัศนเทพวรารามราชวรมหาวิหาร",
    "name": "พระที่นั่งพิมานจักรี",
    "rating": 3.4,
    "address": "315 ถ. ราชวิถี แขวงทุ่งพญาไท เขตราชเทวี",
    "lat": 13.7685069,
    "lng": 100.5328757
  },
  {
    "mu_place": "วัดสุทัศนเทพวรารามราชวรมหาวิหาร",
    "name": "ไร่เหมือนจันทร์",
    "rating": 4.3,
    "address": "166/1 ถนน เลียบคลองทวีวัฒนา แขวงบางไผ่ เขตบางแค",
    "lat": 13.7385124,
    "lng": 100.3592722
  },
  {
    "mu_place": "วัดสุทัศนเทพวรารามราชวรมหาวิหาร",
    "name": "สวนเกร็ดพุทธ",
    "rating": 4.1,
    "address": "WF4Q+254 ตำบล เกาะเกร็ด อำเภอปากเกร็ด",
    "lat": 13.9050229,
    "lng": 100.4879706
  },
  {
    "mu_place": "วัดสุทัศนเทพวรารามราชวรมหาวิหาร",
    "name": "พิพิธภัณฑ์ช้างเอราวัณ",
    "rating": 4.4,
    "address": "99 ถ. กาญจนาภิเษก ตำบล บางเมืองใหม่ อำเภอเมืองสมุทรปราการ",
    "lat": 13.6285771,
    "lng": 100.5889193
  },
  {
    "mu_place": "วัดสุทัศนเทพวรารามราชวรมหาวิหาร",
    "name": "ตลาดน้ำคลองบางหลวง",
    "rating": 4.2,
    "address": "13°43'48. 100°27'50. 99/5 ซอย เพชรเกษม 20 แขวงปากคลองภาษีเจริญ เขตภาษีเจริญ",
    "lat": 13.7316243,
    "lng": 100.46312
  },
  {
    "mu_place": "วัดสุทัศนเทพวรารามราชวรมหาวิหาร",
    "name": "คลองบางหลวง (คลองบางกอกใหญ่)",
    "rating": 4.4,
    "address": "ซอย เพชรเกษม 20 แขวงปากคลองภาษีเจริญ เขตภาษีเจริญ",
    "lat": 13.7316031,
    "lng": 100.4632156
  },
  {
    "mu_place": "วัดสุทัศนเทพวรารามราชวรมหาวิหาร",
    "name": "ตลาดน้ำตลิ่งชัน",
    "rating": 4.2,
    "address": "333 ถนน ชักพระ แขวงคลองชักพระ เขตตลิ่งชัน",
    "lat": 13.7762674,
    "lng": 100.4565979
  },
  {
    "mu_place": "วัดสุทัศนเทพวรารามราชวรมหาวิหาร",
    "name": "ซีไลฟ์ แบงคอก",
    "rating": 4.5,
    "address": "ชั้น บี1-บี2 สยามพารากอน 991 ถ. พระรามที่ ๑ แขวงปทุมวัน เขตปทุมวัน",
    "lat": 13.7459351,
    "lng": 100.5352057
  },
  {
    "mu_place": "วัดสุทัศนเทพวรารามราชวรมหาวิหาร",
    "name": "บ้านศิลปินคลองบางหลวง : Artist House Bangkok",
    "rating": 4.5,
    "address": "309 ซอย เพชรเกษม 28 แขวงคูหาสวรรค์ เขตภาษีเจริญ",
    "lat": 13.7312977,
    "lng": 100.4632778
  },
  {
    "mu_place": "วัดสุทัศนเทพวรารามราชวรมหาวิหาร",
    "name": "หาดเติมรัก บางบัวทอง",
    "rating": 4.1,
    "address": "ตำบล บางคูรัด อำเภอบางบัวทอง",
    "lat": 13.8949929,
    "lng": 100.3518422
  },
  {
    "mu_place": "วัดสุทัศนเทพวรารามราชวรมหาวิหาร",
    "name": "Guide Thailandia & Tours",
    "rating": 0,
    "address": "888TT Building, ซ. สุขุมวิท 81 แขวงบางจาก เขตพระโขนง",
    "lat": 13.7061533,
    "lng": 100.6050823
  },
  {
    "mu_place": "วัดสุทัศนเทพวรารามราชวรมหาวิหาร",
    "name": "เสาชิงช้า",
    "rating": 4.6,
    "address": "239 ถนน ดินสอ แขวงบางขุนพรหม เขตพระนคร",
    "lat": 13.7517707,
    "lng": 100.5012761
  },
  {
    "mu_place": "วัดสุทัศนเทพวรารามราชวรมหาวิหาร",
    "name": "พระตำหนักแดง",
    "rating": 4.6,
    "address": "4 ถ. หน้าพระธาตุ แขวงพระบรมมหาราชวัง เขตพระนคร",
    "lat": 13.7577024,
    "lng": 100.491825
  },
  {
    "mu_place": "วัดสุทัศนเทพวรารามราชวรมหาวิหาร",
    "name": "สูงวัยพาเที่ยว",
    "rating": 0,
    "address": "JGFQ+F6J ถ. สุขสวัสดิ์ เขตจอมทอง",
    "lat": 13.6237038,
    "lng": 100.5380215
  },
  {
    "mu_place": "วัดสุทัศนเทพวรารามราชวรมหาวิหาร",
    "name": "อุทยานผีเสื้อและแมลง กรุงเทพฯ",
    "rating": 4.1,
    "address": "สวนวิชรเบญจทิศ(สวนรถไฟ ถนน กำแพงเพชร 3 แขวงลาดยาว เขตจตุจักร",
    "lat": 13.8095512,
    "lng": 100.5549011
  },
  {
    "mu_place": "วัดสุทัศนเทพวรารามราชวรมหาวิหาร",
    "name": "สถานที่ถ่ายรูป พระธรรมกายเทพมงคล",
    "rating": 4.8,
    "address": "766 ถนน เพชรเกษมสายเก่า แขวงวัดท่าพระ เขตบางกอกใหญ่",
    "lat": 13.7232028,
    "lng": 100.480732
  },
  {
    "mu_place": "วัดสุทัศนเทพวรารามราชวรมหาวิหาร",
    "name": "ริมน้ำโขง หอ14",
    "rating": 0,
    "address": "50, Kasetsart University, Ngam Wong Wan Road, Lat Yao, Khet Chatuchak, Bangkok, 10900 แขวงลาดยาว เขตจตุจักร",
    "lat": 13.8487664,
    "lng": 100.5688721
  },
  {
    "mu_place": "วัดสุทัศนเทพวรารามราชวรมหาวิหาร",
    "name": "ลาน 60 ปี ธรรมศาสตร์",
    "rating": 4.5,
    "address": "2 ถ. หน้าพระธาตุ แขวงพระบรมมหาราชวัง เขตพระนคร",
    "lat": 13.7575138,
    "lng": 100.4895887
  },
  {
    "mu_place": "วัดพุน้อย",
    "name": "ทานตะวันบาน ที่บ้านพุนกยูง",
    "rating": 4.2,
    "address": "116 หมู่ 6 ตำบล พุนกยูง อำเภอ ตากฟ้า",
    "lat": 15.4502883,
    "lng": 100.4635459
  },
  {
    "mu_place": "วัดพุน้อย",
    "name": "ทุ่งดอกปอเทือง ไร่ธรรมชัย นครสวรรค์",
    "rating": 4.4,
    "address": "บ้านพุลำใย ตำบล ลำพยนต์ อำเภอ ตากฟ้า",
    "lat": 15.3544874,
    "lng": 100.5655705
  },
  {
    "mu_place": "วัดพุน้อย",
    "name": "จุดชมวิว ทุ่งทานตะวัน บ้านรักไทย",
    "rating": 5,
    "address": "5QF5+WFR Unnamed Road ตำบล ชอนสารเดช อำเภอ โคกสำโรง",
    "lat": 15.1748723,
    "lng": 100.7586348
  },
  {
    "mu_place": "วัดพุน้อย",
    "name": "ถ้ำทอง (ถ้ำจั๊กจั่น)",
    "rating": 3.3,
    "address": "วัดถ้ำสิทธาราม ตำบล ชอนสารเดช อำเภอ หนองม่วง",
    "lat": 15.1789596,
    "lng": 100.6813058
  },
  {
    "mu_place": "วัดพุน้อย",
    "name": "ไร่ดอกทานตะวัน #บ้านยาย",
    "rating": 0,
    "address": "5M4F+HVW Unnamed Road ตำบล หนองแขม อำเภอ โคกสำโรง",
    "lat": 15.156497,
    "lng": 100.674705
  },
  {
    "mu_place": "วัดพุน้อย",
    "name": "พิพิธภัณฑ์จันเสน",
    "rating": 4.5,
    "address": "4F94+MQF ตำบล จันเสน อำเภอตาคลี",
    "lat": 15.1191323,
    "lng": 100.45691
  },
  {
    "mu_place": "วัดพุน้อย",
    "name": "สามแยกวงษ์สว่าง",
    "rating": 5,
    "address": "7JVC+MRJ, Unnamed Road, ตำบล บ่อทอง อำเภอ หนองม่วง",
    "lat": 15.2942073,
    "lng": 100.6220002
  },
  {
    "mu_place": "วัดพุน้อย",
    "name": "ทุ่งดอกทานตะวันและต้นไม้ อ.หนองม่วง จ.ลพบุรี",
    "rating": 4.5,
    "address": "6P22+54C ตำบล ชอนสารเดช อำเภอ หนองม่วง",
    "lat": 15.2004345,
    "lng": 100.7002653
  },
  {
    "mu_place": "วัดพุน้อย",
    "name": "ทุ่งทานตะวันชอนสารเดช",
    "rating": 4.6,
    "address": "5PR8+5XV ตำบล ชอนสารเดช อำเภอ หนองม่วง",
    "lat": 15.190492,
    "lng": 100.7174197
  },
  {
    "mu_place": "วัดพุน้อย",
    "name": "ทุ่งทานตะวัน ชอนสารเดช",
    "rating": 4.8,
    "address": "6P22+532 ลบ.1010 ตำบล ชอนสารเดช อำเภอ หนองม่วง",
    "lat": 15.200389,
    "lng": 100.700139
  },
  {
    "mu_place": "วัดพุน้อย",
    "name": "ไร่ปอเทืองลุงกำนัน",
    "rating": 0,
    "address": "73 1 ตำบล จันเสน อำเภอตาคลี",
    "lat": 15.1151737,
    "lng": 100.4539334
  },
  {
    "mu_place": "วัดพุน้อย",
    "name": "ทุ่งทานตะวันชอนสารเดช",
    "rating": 4.5,
    "address": "5PRH+4JM ตำบล ชอนสารเดช อำเภอ หนองม่วง",
    "lat": 15.1903283,
    "lng": 100.7290433
  },
  {
    "mu_place": "วัดพุน้อย",
    "name": "น้ำตกวังน้ำวิ่ง",
    "rating": 3.2,
    "address": "8HP5+9XM, Subdistrict Administrative Organization Road, ตำบล สุขสำราญ อำเภอ ตากฟ้า",
    "lat": 15.335973,
    "lng": 100.559925
  },
  {
    "mu_place": "วัดโฆสิตาราม (หลวงพ่อกวย)",
    "name": "บึงฉวากเฉลิมพระเกียรติ",
    "rating": 4.4,
    "address": "99 ตำบล เดิมบาง อำเภอเดิมบางนางบวช",
    "lat": 14.9282134,
    "lng": 100.0473452
  },
  {
    "mu_place": "วัดโฆสิตาราม (หลวงพ่อกวย)",
    "name": "หาดทรายอินทร์บุรี",
    "rating": 4.6,
    "address": "288J+J49 Unnamed Road ตำบล อินทร์บุรี อำเภออินทร์บุรี",
    "lat": 15.01655,
    "lng": 100.330345
  },
  {
    "mu_place": "วัดโฆสิตาราม (หลวงพ่อกวย)",
    "name": "อนุสาวรีย์ขุนสรรค์",
    "rating": 4.5,
    "address": "371 ถนน เลียบแม่น้ำน้อย ตำบล แพรกศรีราชา อำเภอ สรรคบุรี",
    "lat": 15.0477398,
    "lng": 100.1614674
  },
  {
    "mu_place": "วัดโฆสิตาราม (หลวงพ่อกวย)",
    "name": "ศูนย์พัฒนาการจัดการสัตว์ป่าบึงฉวาก (สวนสัตว์บึงฉวาก)",
    "rating": 4.4,
    "address": "ตำบล เดิมบาง อำเภอเดิมบางนางบวช",
    "lat": 14.9111488,
    "lng": 100.0491539
  },
  {
    "mu_place": "วัดโฆสิตาราม (หลวงพ่อกวย)",
    "name": "วัดพระนอนจักรสีห์วรวิหาร",
    "rating": 4.7,
    "address": "เลขที่ 1 ตำบล จักรสีห์ อำเภอเมืองสิงห์บุรี",
    "lat": 14.8511126,
    "lng": 100.3883546
  },
  {
    "mu_place": "วัดโฆสิตาราม (หลวงพ่อกวย)",
    "name": "พิพิธภัณฑ์เตาเผาแม่น้ำน้อย",
    "rating": 4.6,
    "address": "W7FC+P92 ตำบล เชิงกลัด อำเภอ บางระจัน",
    "lat": 14.9242609,
    "lng": 100.270901
  },
  {
    "mu_place": "วัดโฆสิตาราม (หลวงพ่อกวย)",
    "name": "ชุมชนบ้านบางวัว",
    "rating": 5,
    "address": "V8W3+RHW Thetsaban 4 Rd ตำบล ไม้ดัด อำเภอ บางระจัน",
    "lat": 14.8971008,
    "lng": 100.3039641
  },
  {
    "mu_place": "วัดโฆสิตาราม (หลวงพ่อกวย)",
    "name": "อนุสาวรีย์วีรชนค่ายบางระจัน สิงห์บุรี",
    "rating": 4.6,
    "address": "R84C+578 ตำบล บางระจัน อำเภอ ค่ายบางระจัน",
    "lat": 14.8054022,
    "lng": 100.3207158
  },
  {
    "mu_place": "วัดโฆสิตาราม (หลวงพ่อกวย)",
    "name": "วัดโฆสิตาราม (หลวงพ่อกวย)",
    "rating": 4.8,
    "address": "X664+MH6 ตำบล บางขุด อำเภอ สรรคบุรี",
    "lat": 14.9616603,
    "lng": 100.2063791
  },
  {
    "mu_place": "วัดโฆสิตาราม (หลวงพ่อกวย)",
    "name": "วัดไทร",
    "rating": 4.5,
    "address": "378V+4WV ตำบล ชีน้ำร้าย อำเภออินทร์บุรี",
    "lat": 15.0653665,
    "lng": 100.2947969
  },
  {
    "mu_place": "วัดโฆสิตาราม (หลวงพ่อกวย)",
    "name": "แหล่งท่องเที่ยวบ้านหนองโขลง",
    "rating": 4.3,
    "address": "R8M2+4V3 ตำบล บ้านจ่า อำเภอ บางระจัน",
    "lat": 14.8327522,
    "lng": 100.3021804
  },
  {
    "mu_place": "วัดโฆสิตาราม (หลวงพ่อกวย)",
    "name": "วัดเดิมบาง",
    "rating": 4.6,
    "address": "V3JJ+CVF ตำบล เดิมบาง อำเภอเดิมบางนางบวช",
    "lat": 14.8810545,
    "lng": 100.0821575
  },
  {
    "mu_place": "วัดโฆสิตาราม (หลวงพ่อกวย)",
    "name": "สตรีทอาร์ต ถนนริมเขื่อนหลัง รพ.อินทร์บุรี",
    "rating": 0,
    "address": "X8PM+VQ3 ตำบล ทับยา อำเภออินทร์บุรี",
    "lat": 14.9874449,
    "lng": 100.3354365
  },
  {
    "mu_place": "วัดไร่แตงทอง",
    "name": "จุดถ่ายรูปถนนชมพูพันทิพย์",
    "rating": 4.5,
    "address": "2X9C+843 Unnamed Rd ตำบล กำแพงแสน อำเภอกำแพงแสน",
    "lat": 14.0182621,
    "lng": 99.9702916
  },
  {
    "mu_place": "วัดไร่แตงทอง",
    "name": "จุดถ่ายรูปถนนยูคา",
    "rating": 4.6,
    "address": "ุ654 ตำบล กำแพงแสน อำเภอกำแพงแสน",
    "lat": 14.0096495,
    "lng": 99.9765827
  },
  {
    "mu_place": "วัดไร่แตงทอง",
    "name": "บ้านโป่งวันวาน",
    "rating": 4.2,
    "address": "23 ซอย 14 ตำบล ปากแรต อำเภอบ้านโป่ง",
    "lat": 13.8142988,
    "lng": 99.9001851
  },
  {
    "mu_place": "วัดไร่แตงทอง",
    "name": "แหล่งท่องเที่ยวเชิงเกษตรบ้านห้วยม่วง",
    "rating": 0,
    "address": "106/1 ม.4 ต, ตำบล ห้วยม่วง อำเภอกำแพงแสน",
    "lat": 14.134608,
    "lng": 100.030208
  },
  {
    "mu_place": "วัดไร่แตงทอง",
    "name": "วัดไร่แตงทอง",
    "rating": 4.7,
    "address": "99 1 ตำบล ทุ่งลูกนก อำเภอกำแพงแสน",
    "lat": 13.9851984,
    "lng": 99.8485115
  },
  {
    "mu_place": "วัดหนองเรือ",
    "name": "น้ำตกบ่อทราย",
    "rating": 4.2,
    "address": "FJ3W+CHV Unnamed Road ตำบล คลองตะเกรา อำเภอท่าตะเกียบ",
    "lat": 13.4536173,
    "lng": 101.6464075
  },
  {
    "mu_place": "วัดหนองเรือ",
    "name": "น้ำตกทุ่งยายชี ตลาด100ร้าน",
    "rating": 3.9,
    "address": "GHGC+469 ตำบล ท่าตะเกียบ อำเภอท่าตะเกียบ",
    "lat": 13.5252857,
    "lng": 101.5706041
  },
  {
    "mu_place": "วัดหนองเรือ",
    "name": "สวนวิมานดิน",
    "rating": 5,
    "address": "บ้านทุ่งวัว ตำบล ทุ่งพระยา อำเภอสนามชัยเขต",
    "lat": 13.630437,
    "lng": 101.7425897
  },
  {
    "mu_place": "วัดหนองเรือ",
    "name": "สวนน้ำฤทัย",
    "rating": 4,
    "address": "GH3W+2W ตำบล คลองตะเกรา อำเภอท่าตะเกียบ",
    "lat": 13.5026223,
    "lng": 101.5973008
  },
  {
    "mu_place": "วัดหนองเรือ",
    "name": "สวนป่าคลองตะเกรา",
    "rating": 3.9,
    "address": "CJCQ+X75 ตำบล คลองตะเกรา อำเภอท่าตะเกียบ",
    "lat": 13.4223957,
    "lng": 101.6382414
  },
  {
    "mu_place": "วัดหนองเรือ",
    "name": "ยกเลิกเส้นทาง",
    "rating": 3,
    "address": "CP9V+P33 Unnamed Road ตำบล ท่าตะเกียบ อำเภอท่าตะเกียบ",
    "lat": 13.4192575,
    "lng": 101.7426832
  },
  {
    "mu_place": "วัดโสธรวรารามวรวิหาร",
    "name": "มินิ มูร่าห์ ฟาร์ม",
    "rating": 4.2,
    "address": "79/4 2 ถนน หนองแบน-ท่าข้าม, ตำบล สิบเอ็ดศอก อำเภอบ้านโพธิ์",
    "lat": 13.6045663,
    "lng": 101.131384
  },
  {
    "mu_place": "วัดโสธรวรารามวรวิหาร",
    "name": "ชุมชนท่องเที่ยวotopนวัติวิถี บ.หนองสองห้อง",
    "rating": 5,
    "address": "G3WF+8JC Unnamed Road ตำบล บางหัก อำเภอพานทอง",
    "lat": 13.5458445,
    "lng": 101.0739999
  },
  {
    "mu_place": "วัดโสธรวรารามวรวิหาร",
    "name": "สวนมรุพงษ์",
    "rating": 4.4,
    "address": "189 ถนน มรุพงษ์ ตำบล หน้าเมือง อำเภอเมืองฉะเชิงเทรา",
    "lat": 13.6828906,
    "lng": 101.0726862
  },
  {
    "mu_place": "วัดโสธรวรารามวรวิหาร",
    "name": "คุ้มวิมานดิน ฉะเชิงเทรา Koomwimarndin",
    "rating": 4.1,
    "address": "121/1 บ้านหัวลำพูเก่า ตำบล คลองเขื่อน อำเภอ คลองเขื่อน",
    "lat": 13.75584,
    "lng": 101.187059
  },
  {
    "mu_place": "วัดโสธรวรารามวรวิหาร",
    "name": "ป้าไปไหน ลุงไปด้วย",
    "rating": 0,
    "address": "22 19 หน้าเมือง ตำบล หน้าเมือง เมือง",
    "lat": 13.6824522,
    "lng": 101.0713164
  },
  {
    "mu_place": "วัดโสธรวรารามวรวิหาร",
    "name": "PUPAFARM",
    "rating": 5,
    "address": "25/1 ถนนชวดลำภู3 บางซ่อน อำเภอบ้านโพธิ์",
    "lat": 13.5533203,
    "lng": 101.0855506
  },
  {
    "mu_place": "วัดโสธรวรารามวรวิหาร",
    "name": "Golden Rock",
    "rating": 4,
    "address": "P42Q+VGJ, Unnamed Road, ตำบล บางแก้ว อำเภอเมืองฉะเชิงเทรา",
    "lat": 13.7022068,
    "lng": 101.1387678
  },
  {
    "mu_place": "วัดโสธรวรารามวรวิหาร",
    "name": "พุทธสมาคมฉะเชิงเทรา",
    "rating": 4,
    "address": "293 ถนนพานิช ตำบล หน้าเมือง อำเภอเมืองฉะเชิงเทรา",
    "lat": 13.6902719,
    "lng": 101.0787027
  },
  {
    "mu_place": "วัดโสธรวรารามวรวิหาร",
    "name": "วัดสมานรัตนาราม",
    "rating": 4.5,
    "address": "1 ตำบล บางแก้ว อำเภอเมืองฉะเชิงเทรา",
    "lat": 13.7014064,
    "lng": 101.1414795
  },
  {
    "mu_place": "วัดโสธรวรารามวรวิหาร",
    "name": "วงเวียนพระยาศรีสุนทรโวหาร",
    "rating": 0,
    "address": "422 ถนน มรุพงษ์ ตำบล หน้าเมือง อำเภอเมืองฉะเชิงเทรา",
    "lat": 13.6757804,
    "lng": 101.0693267
  },
  {
    "mu_place": "วัดโสธรวรารามวรวิหาร",
    "name": "สวนปาล์มฟาร์มนก",
    "rating": 3.9,
    "address": "25 หมู่ที่ 6 ตำบล บางตลาด อำเภอ คลองเขื่อน",
    "lat": 13.7455167,
    "lng": 101.1554239
  },
  {
    "mu_place": "วัดโสธรวรารามวรวิหาร",
    "name": "แปดริ้วสตรีทอาร์ต",
    "rating": 4.7,
    "address": "128, Marupong Road ตำบล หน้าเมือง อำเภอเมืองฉะเชิงเทรา",
    "lat": 13.6887135,
    "lng": 101.0765325
  },
  {
    "mu_place": "วัดโสธรวรารามวรวิหาร",
    "name": "ตลาดน้ำบางคล้า",
    "rating": 4.1,
    "address": "ถนน ซอย เทศบาลพัฒนา 1 ตำบล บางคล้า อำเภอบางคล้า",
    "lat": 13.7283439,
    "lng": 101.2073829
  },
  {
    "mu_place": "วัดโสธรวรารามวรวิหาร",
    "name": "วัดเขาดิน",
    "rating": 4.5,
    "address": "33 หมู่ 7 ตำบล เขาดิน อำเภอบางปะกง",
    "lat": 13.531928,
    "lng": 101.0187393
  },
  {
    "mu_place": "วัดโสธรวรารามวรวิหาร",
    "name": "สะพานรถไฟข้ามแม่น้ำบางปะกง",
    "rating": 0,
    "address": "516 ถนนศุภกิจ ตำบล หน้าเมือง อำเภอเมืองฉะเชิงเทรา",
    "lat": 13.6958936,
    "lng": 101.0907743
  },
  {
    "mu_place": "วัดโสธรวรารามวรวิหาร",
    "name": "สวนฉลองสิริราชสมบัติ",
    "rating": 4.4,
    "address": "M3PG+X2W ถนน มรุพงษ์ ตำบล หน้าเมือง อำเภอเมืองฉะเชิงเทรา",
    "lat": 13.6874922,
    "lng": 101.0750795
  },
  {
    "mu_place": "วัดโสธรวรารามวรวิหาร",
    "name": "เอิ่ม",
    "rating": 0,
    "address": "ตำบตลาดขวาง JSP อำเภอบ้านโพธิ์",
    "lat": 13.5830263,
    "lng": 101.0114522
  },
  {
    "mu_place": "หลวงพ่อพระใส",
    "name": "ลานวัฒนธรรม หน้าวัดลำดวน จ. หนองคาย",
    "rating": 4.6,
    "address": "VQQ3+347 ตำบลในเมือง อำเภอเมืองหนองคาย",
    "lat": 17.8876578,
    "lng": 102.7528018
  },
  {
    "mu_place": "หลวงพ่อพระใส",
    "name": "ป้ายยินดีต้อนรับ จังหวัดหนองคาย",
    "rating": 4,
    "address": "PQCG+JWG ถ. มิตรภาพ ตำบล ค่ายบกหวาน อำเภอ สระใคร",
    "lat": 17.7215659,
    "lng": 102.7773379
  },
  {
    "mu_place": "หลวงพ่อพระใส",
    "name": "หาดทรายทอง",
    "rating": 4.3,
    "address": "WJJ6+RFQ บ้าน หัวทราย อำเภอ ศรีเชียงใหม่",
    "lat": 17.9320954,
    "lng": 102.6112459
  },
  {
    "mu_place": "หลวงพ่อพระใส",
    "name": "ศาลาแก้วกู่@หนองคาย",
    "rating": 4.4,
    "address": "VQPJ+RH7 ตำบล วัดธาตุ อำเภอเมืองหนองคาย",
    "lat": 17.8870414,
    "lng": 102.7814193
  },
  {
    "mu_place": "หลวงพ่อพระใส",
    "name": "สะพานเอื้อมดาว",
    "rating": 4.7,
    "address": "WQGV+5WQ ตำบล หาดคำ อำเภอเมืองหนองคาย",
    "lat": 17.9254702,
    "lng": 102.7948669
  },
  {
    "mu_place": "หลวงพ่อพระใส",
    "name": "มิตรภาพสุดคลาสสิค ตลาดบ้านไม้หนองคาย",
    "rating": 0,
    "address": "RPRP+PX4 2 ตำบล หนองกอมเกาะ อำเภอเมืองหนองคาย",
    "lat": 17.8417638,
    "lng": 102.7374598
  },
  {
    "mu_place": "หลวงพ่อพระใส",
    "name": "วงเวียนน้ำพุพญานาค",
    "rating": 4.4,
    "address": "VPHR+J8J ตำบลในเมือง อำเภอเมืองหนองคาย",
    "lat": 17.8790826,
    "lng": 102.740781
  },
  {
    "mu_place": "หลวงพ่อพระใส",
    "name": "ทุ่งดอกทานตะวัน หาดคำ",
    "rating": 4.3,
    "address": "202 หมู่ 4, ถนนหนองคาย - บึงกาฬ ตำบล หาดคำ อำเภอเมืองหนองคาย",
    "lat": 17.9289658,
    "lng": 102.7913415
  },
  {
    "mu_place": "หลวงพ่อพระใส",
    "name": "วังบัวแดงหนองคาย บ้านหนองบ่อ Wangbuadangnongkhai",
    "rating": 4.3,
    "address": "บ้านหนองบ่อ ตำบล ปะโค อำเภอเมืองหนองคาย",
    "lat": 17.7897044,
    "lng": 102.6886077
  },
  {
    "mu_place": "หลวงพ่อพระใส",
    "name": "บ้านสวนเจ้หน่อย",
    "rating": 0,
    "address": "XVF9+2Q3 ตำบล สีกาย อำเภอเมืองหนองคาย",
    "lat": 17.9725105,
    "lng": 102.8694172
  },
  {
    "mu_place": "หลวงพ่อพระใส",
    "name": "ณ ตลาดรถไฟ The Rail Market Nongkhai",
    "rating": 4.6,
    "address": "99 Kaew Woravut, ตำบล มีชัย Muang",
    "lat": 17.8788428,
    "lng": 102.7254434
  },
  {
    "mu_place": "หลวงพ่อพระใส",
    "name": "พิพิธภัณฑ์สัตว์น้ำจังหวัดหนองคาย",
    "rating": 4.2,
    "address": "RP5W+PC9 ตำบล หนองกอมเกาะ อำเภอเมืองหนองคาย",
    "lat": 17.8093347,
    "lng": 102.7462548
  },
  {
    "mu_place": "หลวงพ่อพระใส",
    "name": "ต้นจำปา 100 ปี",
    "rating": 0,
    "address": "QQCW+89P ตำบล ค่ายบกหวาน อำเภอเมืองหนองคาย",
    "lat": 17.7708317,
    "lng": 102.7959658
  },
  {
    "mu_place": "หลวงพ่อพระใส",
    "name": "สวนวัฒนธรรม เซียงควร",
    "rating": 4.2,
    "address": "Deua, Thanon Tha, Vientiane",
    "lat": 17.912517,
    "lng": 102.7647775
  },
  {
    "mu_place": "หลวงพ่อพระใส",
    "name": "วัดพระธาตุบังพวน",
    "rating": 4.7,
    "address": "PMVJ+QQ7 ตำบล พระธาตุบังพวน อำเภอเมืองหนองคาย",
    "lat": 17.7444177,
    "lng": 102.6819192
  },
  {
    "mu_place": "หลวงพ่อพระใส",
    "name": "พิพิธภัณฑ์จังหวัดหนองคาย",
    "rating": 3.6,
    "address": "1203 ซอย มีชัย ตำบลในเมือง อำเภอเมืองหนองคาย",
    "lat": 17.8791423,
    "lng": 102.7389345
  },
  {
    "mu_place": "หลวงพ่อพระใส",
    "name": "อนุสาวรีย์ปราบฮ่อ",
    "rating": 4.4,
    "address": "VPHR+V67 ตำบลในเมือง อำเภอเมืองหนองคาย",
    "lat": 17.8796592,
    "lng": 102.7405364
  },
  {
    "mu_place": "หลวงพ่อพระใส",
    "name": "วัดจอมมณี",
    "rating": 4.3,
    "address": "VPG8+GR6 ตำบล มีชัย อำเภอเมืองหนองคาย",
    "lat": 17.8762667,
    "lng": 102.7169566
  },
  {
    "mu_place": "หลวงพ่อพระใส",
    "name": "ตลาดท่าเสด็จ",
    "rating": 4.2,
    "address": "VPPW+6W9 ตำบลในเมือง อำเภอเมืองหนองคาย",
    "lat": 17.8855331,
    "lng": 102.7473491
  },
  {
    "mu_place": "หลวงพ่อพระใส",
    "name": "สะพานมิตรภาพไทย-ลาว แห่งที่ 1",
    "rating": 4.2,
    "address": "01120, Thanaleng, Ban Dongphosy, Hadxayfong District",
    "lat": 17.8799674,
    "lng": 102.7150977
  },
  {
    "mu_place": "วัดสวนขัน (พ่อท่านคล้ายวาจาสิทธิ์)",
    "name": "ถ้ำแก้วสุรกานต์ อ.ลานสกา จ.นครศรีธรรมราช",
    "rating": 4.2,
    "address": "9Q6P+G36 ตำบล ลานสกา อำเภอ ลานสกา",
    "lat": 8.361287,
    "lng": 99.785139
  },
  {
    "mu_place": "วัดสวนขัน (พ่อท่านคล้ายวาจาสิทธิ์)",
    "name": "หมู่บ้านคีรีวง",
    "rating": 4.6,
    "address": "CQJM+X27 ตำบล กำโลน อำเภอ ลานสกา",
    "lat": 8.4324113,
    "lng": 99.78254869999999
  },
  {
    "mu_place": "วัดสวนขัน (พ่อท่านคล้ายวาจาสิทธิ์)",
    "name": "น้ำตกอ้ายเขียว",
    "rating": 4.4,
    "address": "HQ5H+MQ8 ตำบล ทอนหงส์ อำเภอ พรหมคีรี",
    "lat": 8.5591709,
    "lng": 99.7794662
  },
  {
    "mu_place": "วัดสวนขัน (พ่อท่านคล้ายวาจาสิทธิ์)",
    "name": "ทะเลหมอกเขาศูนย์",
    "rating": 4.7,
    "address": "FFM9+XQ3, Unnamed Road, อำเภอ ถ้ำพรรณรา",
    "lat": 8.4848936,
    "lng": 99.46942759999999
  },
  {
    "mu_place": "วัดสวนขัน (พ่อท่านคล้ายวาจาสิทธิ์)",
    "name": "น้ำตกกะโรม",
    "rating": 4.6,
    "address": "9P9M+JV9 ตำบล เขาแก้ว อำเภอ ลานสกา",
    "lat": 8.3690453,
    "lng": 99.734742
  },
  {
    "mu_place": "วัดสวนขัน (พ่อท่านคล้ายวาจาสิทธิ์)",
    "name": "บ้านประวัติศาสตร์ คีรีวง",
    "rating": 4.5,
    "address": "184, 1 ตำบล กำโลน อำเภอ ลานสกา",
    "lat": 8.4385429,
    "lng": 99.7693606
  },
  {
    "mu_place": "วัดสวนขัน (พ่อท่านคล้ายวาจาสิทธิ์)",
    "name": "อุทยานแห่งชาติเขาหลวง",
    "rating": 4.5,
    "address": "9P9P+F45 ตำบล เขาแก้ว อำเภอ ลานสกา",
    "lat": 8.368634799999999,
    "lng": 99.7353445
  },
  {
    "mu_place": "วัดสวนขัน (พ่อท่านคล้ายวาจาสิทธิ์)",
    "name": "ชีวินทรีย์ ลานสกา",
    "rating": 0,
    "address": "9/1 หมู่ที่ 7 ถนนบ้านในไร่ ตำบล ลานสกา อำเภอ ลานสกา",
    "lat": 8.3174634,
    "lng": 99.7767597
  },
  {
    "mu_place": "วัดสวนขัน (พ่อท่านคล้ายวาจาสิทธิ์)",
    "name": "น้ำตกวังลุง Wanglung Waterfall",
    "rating": 4.7,
    "address": "HPPX+QRV ตำบล ทอนหงส์ อำเภอ พรหมคีรี",
    "lat": 8.586981999999999,
    "lng": 99.7495579
  },
  {
    "mu_place": "วัดสวนขัน (พ่อท่านคล้ายวาจาสิทธิ์)",
    "name": "Valley​ of​ Love​ หุบเขาล้อมรัก",
    "rating": 5,
    "address": "หุบเขาล้อมรัก​💕 ตำบล กะเปียด อำเภอ ฉวาง",
    "lat": 8.5292798,
    "lng": 99.4448745
  },
  {
    "mu_place": "วัดสวนขัน (พ่อท่านคล้ายวาจาสิทธิ์)",
    "name": "น้ำตกท่าแพ",
    "rating": 4.4,
    "address": "9M6R+8C3 ตำบล ช้างกลาง อำเภอ ช้างกลาง",
    "lat": 8.3607514,
    "lng": 99.6910599
  },
  {
    "mu_place": "วัดสวนขัน (พ่อท่านคล้ายวาจาสิทธิ์)",
    "name": "จุดลงเล่นน้ำ บ้านคีรีวง อ.ลานสกา จ.นครศรีธรรมราช",
    "rating": 4.6,
    "address": "CQR5+RWP หมู่บ้าน คีรี วง ตำบล กำโลน อำเภอ ลานสกา",
    "lat": 8.4420767,
    "lng": 99.75983269999999
  },
  {
    "mu_place": "วัดสวนขัน (พ่อท่านคล้ายวาจาสิทธิ์)",
    "name": "น้ำตกหนานจุล",
    "rating": 4.5,
    "address": "CJJP+V2F ตำบล ละอาย อำเภอ ฉวาง",
    "lat": 8.4321762,
    "lng": 99.63505470000001
  },
  {
    "mu_place": "วัดสวนขัน (พ่อท่านคล้ายวาจาสิทธิ์)",
    "name": "บ้านต้นไม้หลวงแนว",
    "rating": 3,
    "address": "116 ตำบล นาบอน อำเภอ นาบอน",
    "lat": 8.2607711,
    "lng": 99.5228528
  },
  {
    "mu_place": "วัดสวนขัน (พ่อท่านคล้ายวาจาสิทธิ์)",
    "name": "น้ำตกพรหมโลก",
    "rating": 4.3,
    "address": "ตำบล บ้านเกาะ อำเภอ พรหมคีรี",
    "lat": 8.527861,
    "lng": 99.7826671
  },
  {
    "mu_place": "วัดสวนขัน (พ่อท่านคล้ายวาจาสิทธิ์)",
    "name": "Chan Garden",
    "rating": 4,
    "address": "87, ตำบล แก้วแสน อำเภอ นาบอน",
    "lat": 8.2939651,
    "lng": 99.54333899999999
  },
  {
    "mu_place": "วัดสวนขัน (พ่อท่านคล้ายวาจาสิทธิ์)",
    "name": "น้ำตกหนานปลิว Nhanplew Waterfall",
    "rating": 4.6,
    "address": "7PH2+RJV ตำบล นาหลวงเสน อำเภอทุ่งสง",
    "lat": 8.2796068,
    "lng": 99.70155249999999
  },
  {
    "mu_place": "วัดสวนขัน (พ่อท่านคล้ายวาจาสิทธิ์)",
    "name": "พรุอาใจสถานที่ท่องเที่ยวเชิงนิเวศน์ Ecotourism",
    "rating": 4.1,
    "address": "CG5P+2R4 ตำบล ไสหร้า อำเภอ ฉวาง",
    "lat": 8.4075088,
    "lng": 99.53707159999999
  },
  {
    "mu_place": "วัดสวนขัน (พ่อท่านคล้ายวาจาสิทธิ์)",
    "name": "น้ำตกคลองจัง Klongjang Waterfall",
    "rating": 4.5,
    "address": "7JCV+CVQ ตำบล นาบอน อำเภอ นาบอน",
    "lat": 8.271076299999999,
    "lng": 99.6447229
  },
  {
    "mu_place": "วัดสวนขัน (พ่อท่านคล้ายวาจาสิทธิ์)",
    "name": "น้ำตกวังแรด",
    "rating": 5,
    "address": "HMJ2+C37 ตำบล เขาพระ อำเภอ พิปูน",
    "lat": 8.581030499999999,
    "lng": 99.6501686
  },
  {
    "mu_place": "วัดอรุณราชวรารามราชวรมหาวิหาร",
    "name": "หอดูนก สวนศรีนครเขื่อนขันธ์",
    "rating": 4.3,
    "address": "MHW9+F9V ตำบล บางกะเจ้า อำเภอพระประแดง",
    "lat": 13.6962495,
    "lng": 100.5684135
  },
  {
    "mu_place": "วัดอรุณราชวรารามราชวรมหาวิหาร",
    "name": "มิวเซียมสยาม",
    "rating": 4.5,
    "address": "4 ถนน สนามไชย แขวงพระบรมมหาราชวัง เขตพระนคร",
    "lat": 13.744147,
    "lng": 100.494137
  },
  {
    "mu_place": "วัดอรุณราชวรารามราชวรมหาวิหาร",
    "name": "พระที่นั่งพิมานจักรี",
    "rating": 3.4,
    "address": "315 ถ. ราชวิถี แขวงทุ่งพญาไท เขตราชเทวี",
    "lat": 13.7685069,
    "lng": 100.5328757
  },
  {
    "mu_place": "วัดอรุณราชวรารามราชวรมหาวิหาร",
    "name": "ไร่เหมือนจันทร์",
    "rating": 4.3,
    "address": "166/1 ถนน เลียบคลองทวีวัฒนา แขวงบางไผ่ เขตบางแค",
    "lat": 13.7385124,
    "lng": 100.3592722
  },
  {
    "mu_place": "วัดอรุณราชวรารามราชวรมหาวิหาร",
    "name": "สวนเกร็ดพุทธ",
    "rating": 4.1,
    "address": "WF4Q+254 ตำบล เกาะเกร็ด อำเภอปากเกร็ด",
    "lat": 13.9050229,
    "lng": 100.4879706
  },
  {
    "mu_place": "วัดอรุณราชวรารามราชวรมหาวิหาร",
    "name": "พิพิธภัณฑ์ช้างเอราวัณ",
    "rating": 4.4,
    "address": "99 ถ. กาญจนาภิเษก ตำบล บางเมืองใหม่ อำเภอเมืองสมุทรปราการ",
    "lat": 13.6285771,
    "lng": 100.5889193
  },
  {
    "mu_place": "วัดอรุณราชวรารามราชวรมหาวิหาร",
    "name": "ตลาดน้ำคลองบางหลวง",
    "rating": 4.2,
    "address": "13°43'48. 100°27'50. 99/5 ซอย เพชรเกษม 20 แขวงปากคลองภาษีเจริญ เขตภาษีเจริญ",
    "lat": 13.7316243,
    "lng": 100.46312
  },
  {
    "mu_place": "วัดอรุณราชวรารามราชวรมหาวิหาร",
    "name": "คลองบางหลวง (คลองบางกอกใหญ่)",
    "rating": 4.4,
    "address": "ซอย เพชรเกษม 20 แขวงปากคลองภาษีเจริญ เขตภาษีเจริญ",
    "lat": 13.7316031,
    "lng": 100.4632156
  },
  {
    "mu_place": "วัดอรุณราชวรารามราชวรมหาวิหาร",
    "name": "ตลาดน้ำตลิ่งชัน",
    "rating": 4.2,
    "address": "333 ถนน ชักพระ แขวงคลองชักพระ เขตตลิ่งชัน",
    "lat": 13.7762674,
    "lng": 100.4565979
  },
  {
    "mu_place": "วัดอรุณราชวรารามราชวรมหาวิหาร",
    "name": "ซีไลฟ์ แบงคอก",
    "rating": 4.5,
    "address": "ชั้น บี1-บี2 สยามพารากอน 991 ถ. พระรามที่ ๑ แขวงปทุมวัน เขตปทุมวัน",
    "lat": 13.7459351,
    "lng": 100.5352057
  },
  {
    "mu_place": "วัดอรุณราชวรารามราชวรมหาวิหาร",
    "name": "บ้านศิลปินคลองบางหลวง : Artist House Bangkok",
    "rating": 4.5,
    "address": "309 ซอย เพชรเกษม 28 แขวงคูหาสวรรค์ เขตภาษีเจริญ",
    "lat": 13.7312977,
    "lng": 100.4632778
  },
  {
    "mu_place": "วัดอรุณราชวรารามราชวรมหาวิหาร",
    "name": "หาดเติมรัก บางบัวทอง",
    "rating": 4.1,
    "address": "ตำบล บางคูรัด อำเภอบางบัวทอง",
    "lat": 13.8949929,
    "lng": 100.3518422
  },
  {
    "mu_place": "วัดอรุณราชวรารามราชวรมหาวิหาร",
    "name": "Guide Thailandia & Tours",
    "rating": 0,
    "address": "888TT Building, ซ. สุขุมวิท 81 แขวงบางจาก เขตพระโขนง",
    "lat": 13.7061533,
    "lng": 100.6050823
  },
  {
    "mu_place": "วัดอรุณราชวรารามราชวรมหาวิหาร",
    "name": "เสาชิงช้า",
    "rating": 4.6,
    "address": "239 ถนน ดินสอ แขวงบางขุนพรหม เขตพระนคร",
    "lat": 13.7517707,
    "lng": 100.5012761
  },
  {
    "mu_place": "วัดอรุณราชวรารามราชวรมหาวิหาร",
    "name": "พระตำหนักแดง",
    "rating": 4.6,
    "address": "4 ถ. หน้าพระธาตุ แขวงพระบรมมหาราชวัง เขตพระนคร",
    "lat": 13.7577024,
    "lng": 100.491825
  },
  {
    "mu_place": "วัดอรุณราชวรารามราชวรมหาวิหาร",
    "name": "สูงวัยพาเที่ยว",
    "rating": 0,
    "address": "JGFQ+F6J ถ. สุขสวัสดิ์ เขตจอมทอง",
    "lat": 13.6237038,
    "lng": 100.5380215
  },
  {
    "mu_place": "วัดอรุณราชวรารามราชวรมหาวิหาร",
    "name": "อุทยานผีเสื้อและแมลง กรุงเทพฯ",
    "rating": 4.1,
    "address": "สวนวิชรเบญจทิศ(สวนรถไฟ ถนน กำแพงเพชร 3 แขวงลาดยาว เขตจตุจักร",
    "lat": 13.8095512,
    "lng": 100.5549011
  },
  {
    "mu_place": "วัดอรุณราชวรารามราชวรมหาวิหาร",
    "name": "สถานที่ถ่ายรูป พระธรรมกายเทพมงคล",
    "rating": 4.8,
    "address": "766 ถนน เพชรเกษมสายเก่า แขวงวัดท่าพระ เขตบางกอกใหญ่",
    "lat": 13.7232028,
    "lng": 100.480732
  },
  {
    "mu_place": "วัดอรุณราชวรารามราชวรมหาวิหาร",
    "name": "ริมน้ำโขง หอ14",
    "rating": 0,
    "address": "50, Kasetsart University, Ngam Wong Wan Road, Lat Yao, Khet Chatuchak, Bangkok, 10900 แขวงลาดยาว เขตจตุจักร",
    "lat": 13.8487664,
    "lng": 100.5688721
  },
  {
    "mu_place": "วัดอรุณราชวรารามราชวรมหาวิหาร",
    "name": "ลาน 60 ปี ธรรมศาสตร์",
    "rating": 4.5,
    "address": "2 ถ. หน้าพระธาตุ แขวงพระบรมมหาราชวัง เขตพระนคร",
    "lat": 13.7575138,
    "lng": 100.4895887
  },
  {
    "mu_place": "พระพิฆเนศ เทพแห่งความสำเร็จ วัดดอกจั่น(สถานที่เลี้ยงเด็กกำพร้า)",
    "name": "วังบัวบาน",
    "rating": 4.4,
    "address": "99 ถ. ห้วยแก้ว ตำบลช้างเผือก อำเภอเมืองเชียงใหม่",
    "lat": 18.8122544,
    "lng": 98.94164119999999
  },
  {
    "mu_place": "พระพิฆเนศ เทพแห่งความสำเร็จ วัดดอกจั่น(สถานที่เลี้ยงเด็กกำพร้า)",
    "name": "สถานที่ท่องเที่ยว",
    "rating": 5,
    "address": "104/1 ถ. ช้างคลาน ตำบล ช้างม่อย อำเภอเมืองเชียงใหม่",
    "lat": 18.785275,
    "lng": 99.00027039999999
  },
  {
    "mu_place": "พระพิฆเนศ เทพแห่งความสำเร็จ วัดดอกจั่น(สถานที่เลี้ยงเด็กกำพร้า)",
    "name": "สวนลุงวิท",
    "rating": 3.9,
    "address": "W2C2+PH3 ตำบลหนองหาร อำเภอสันทราย",
    "lat": 18.9217696,
    "lng": 99.0014066
  },
  {
    "mu_place": "พระพิฆเนศ เทพแห่งความสำเร็จ วัดดอกจั่น(สถานที่เลี้ยงเด็กกำพร้า)",
    "name": "สวนองุ่นเวียงด้ง",
    "rating": 3.8,
    "address": "PW83+RG2 ตำบล น้ำแพร่ อำเภอหางดง",
    "lat": 18.7170112,
    "lng": 98.9037702
  },
  {
    "mu_place": "พระพิฆเนศ เทพแห่งความสำเร็จ วัดดอกจั่น(สถานที่เลี้ยงเด็กกำพร้า)",
    "name": "ลานทรายฝายหินบ้านทุ่งขี้เสือ",
    "rating": 3.7,
    "address": "P32G+PPR Unnamed Road ตำบล ชมภู อำเภอ สารภี",
    "lat": 18.7018719,
    "lng": 99.0767529
  },
  {
    "mu_place": "พระพิฆเนศ เทพแห่งความสำเร็จ วัดดอกจั่น(สถานที่เลี้ยงเด็กกำพร้า)",
    "name": "ขุนช่างเคี่ยน",
    "rating": 4.5,
    "address": "RWR3+J53 ถนนแม่บัวมุง ตำบล ดอนแก้ว อำเภอแม่ริม",
    "lat": 18.8414767,
    "lng": 98.9029439
  },
  {
    "mu_place": "พระพิฆเนศ เทพแห่งความสำเร็จ วัดดอกจั่น(สถานที่เลี้ยงเด็กกำพร้า)",
    "name": "หมู่บ้านหัตถกรรมเพื่อการท่องเที่ยว(หมู่บ้านโอท๊อป)ต้นแบบ",
    "rating": 3.7,
    "address": "2/4 บ้านแม่โฮม ซอย 3 ตำบลต้นเปา อำเภอสันกำแพง",
    "lat": 18.7709632,
    "lng": 99.0749744
  },
  {
    "mu_place": "พระพิฆเนศ เทพแห่งความสำเร็จ วัดดอกจั่น(สถานที่เลี้ยงเด็กกำพร้า)",
    "name": "อ่างเก็บน้ำห้วยตึงเฒ่า",
    "rating": 4.4,
    "address": "283 ม.3 ดอนแก้ว อำเภอแม่ริม",
    "lat": 18.8665082,
    "lng": 98.9410659
  },
  {
    "mu_place": "พระพิฆเนศ เทพแห่งความสำเร็จ วัดดอกจั่น(สถานที่เลี้ยงเด็กกำพร้า)",
    "name": "เวียงกุมกาม",
    "rating": 4.3,
    "address": "149 หมู่ที่ 2 ถนน สมโภชเชียงใหม่ 700 ปี ตำบลท่าวังตาล อำเภอ สารภี",
    "lat": 18.7446684,
    "lng": 98.9943528
  },
  {
    "mu_place": "พระพิฆเนศ เทพแห่งความสำเร็จ วัดดอกจั่น(สถานที่เลี้ยงเด็กกำพร้า)",
    "name": "หมู่บ้านชาวเขาเผ่าม้งดอยปุย",
    "rating": 4.2,
    "address": "หมู่ที่ 11 อุทยานแห่งชาติดอยสุเทพ-ปุย อำเภอเมืองเชียงใหม่",
    "lat": 18.8164312,
    "lng": 98.8833363
  },
  {
    "mu_place": "พระพิฆเนศ เทพแห่งความสำเร็จ วัดดอกจั่น(สถานที่เลี้ยงเด็กกำพร้า)",
    "name": "หอคำหลวง",
    "rating": 4.6,
    "address": "QW3C+5X6 อำเภอเมืองเชียงใหม่",
    "lat": 18.7529143,
    "lng": 98.922388
  },
  {
    "mu_place": "พระพิฆเนศ เทพแห่งความสำเร็จ วัดดอกจั่น(สถานที่เลี้ยงเด็กกำพร้า)",
    "name": "วัดเจดีย์หลวงวรวิหาร เชียงใหม่",
    "rating": 4.7,
    "address": "103 ถ. พระปกเกล้า ตำบลศรีภูมิ อำเภอเมืองเชียงใหม่",
    "lat": 18.7869693,
    "lng": 98.9865804
  },
  {
    "mu_place": "พระพิฆเนศ เทพแห่งความสำเร็จ วัดดอกจั่น(สถานที่เลี้ยงเด็กกำพร้า)",
    "name": "Chinese Welcome Gate",
    "rating": 3.6,
    "address": "QXRX+6HQ ถนน ช้างม่อย ตำบล ช้างม่อย อำเภอเมืองเชียงใหม่",
    "lat": 18.7905897,
    "lng": 98.9989712
  },
  {
    "mu_place": "พระพิฆเนศ เทพแห่งความสำเร็จ วัดดอกจั่น(สถานที่เลี้ยงเด็กกำพร้า)",
    "name": "จุดชมวิว",
    "rating": 0,
    "address": "QWVM+32F ถนน ศรีวิชัย ตำบลสุเทพ อำเภอเมืองเชียงใหม่",
    "lat": 18.7926941,
    "lng": 98.9325422
  },
  {
    "mu_place": "พระพิฆเนศ เทพแห่งความสำเร็จ วัดดอกจั่น(สถานที่เลี้ยงเด็กกำพร้า)",
    "name": "กลุ่มท่องเที่ยวเชิงอนุรักษ์บ้านปง-ห้วยลาน",
    "rating": 4.8,
    "address": "บ้านเลขที่ 1 ตำบล ออนใต้ อำเภอสันกำแพง",
    "lat": 18.7191368,
    "lng": 99.20142330000002
  },
  {
    "mu_place": "พระพิฆเนศ เทพแห่งความสำเร็จ วัดดอกจั่น(สถานที่เลี้ยงเด็กกำพร้า)",
    "name": "จุดชมวิวม่อนผาดำ",
    "rating": 4.4,
    "address": "RV3W+6GQ ตำบลสุเทพ อำเภอเมืองเชียงใหม่",
    "lat": 18.8030837,
    "lng": 98.8963488
  },
  {
    "mu_place": "พระพิฆเนศ เทพแห่งความสำเร็จ วัดดอกจั่น(สถานที่เลี้ยงเด็กกำพร้า)",
    "name": "บ้านชาวนา เชียงใหม่",
    "rating": 4.2,
    "address": "111/2 M.7 Sanpheesua rd., Sanpheesua Muang",
    "lat": 18.830788,
    "lng": 98.99618799999999
  },
  {
    "mu_place": "พระพิฆเนศ เทพแห่งความสำเร็จ วัดดอกจั่น(สถานที่เลี้ยงเด็กกำพร้า)",
    "name": "Elephant POOPOOPAPER Park Chiang Mai",
    "rating": 4.5,
    "address": "87 Moo. 10 T, ตำบล แม่แรม อำเภอแม่ริม",
    "lat": 18.9254422,
    "lng": 98.93160879999999
  },
  {
    "mu_place": "พระพิฆเนศ เทพแห่งความสำเร็จ วัดดอกจั่น(สถานที่เลี้ยงเด็กกำพร้า)",
    "name": "ศูนย์บริการนักท่องเที่ยว",
    "rating": 0,
    "address": "QW9R+58P ตำบลสุเทพ อำเภอเมืองเชียงใหม่",
    "lat": 18.767956,
    "lng": 98.94081489999999
  },
  {
    "mu_place": "พระพิฆเนศ เทพแห่งความสำเร็จ วัดดอกจั่น(สถานที่เลี้ยงเด็กกำพร้า)",
    "name": "แหล่งท่องเที่ยวเชิงเกษตรบ้านห้วยม่วง",
    "rating": 0,
    "address": "106/1 ซอย หมู่บ้านเอ็ม.เอส. วิลเลจ 4 ตำบล ห้วยม่วง อำเภอกำแพงแสน",
    "lat": 18.727681,
    "lng": 99.0286967
  },
  {
    "mu_place": "วัดนางพระยา",
    "name": "วิสาหกิจชุมชนท่องเที่ยวปากพูน",
    "rating": 4.3,
    "address": "GX6C+X9V ตำบล ปากพูน อำเภอเมืองนครศรีธรรมราช",
    "lat": 8.5124762,
    "lng": 99.9709355
  },
  {
    "mu_place": "วัดนางพระยา",
    "name": "บ่อน้ำศักดิ์สิทธิ์วัดประตูขาว",
    "rating": 4,
    "address": "CXJ7+67G ตำบล คลัง อำเภอเมืองนครศรีธรรมราช",
    "lat": 8.4305574,
    "lng": 99.963194
  },
  {
    "mu_place": "วัดนางพระยา",
    "name": "วิสาหกิจชุมชนท่องเที่ยวนครเมืองเก่า",
    "rating": 0,
    "address": "20 ถนน สระเรียง ตำบล ในเมือง อำเภอเมืองนครศรีธรรมราช",
    "lat": 8.413236099999999,
    "lng": 99.96748330000001
  },
  {
    "mu_place": "วัดนางพระยา",
    "name": "ชายหาดแหลมตะลุมพุก",
    "rating": 4.1,
    "address": "G546+XMX ตำบล แหลมตะลุมพุก อำเภอ ปากพนัง",
    "lat": 8.5074813,
    "lng": 100.1617296
  },
  {
    "mu_place": "วัดนางพระยา",
    "name": "นาโพร่ สวนป่านาบุญ วัดพระพรหม",
    "rating": 4.4,
    "address": "8WG7+2WJ ตำบล นาพรุ อำเภอ พระพรหม",
    "lat": 8.325097699999999,
    "lng": 99.9147675
  },
  {
    "mu_place": "วัดนางพระยา",
    "name": "Ancient Wall",
    "rating": 4.3,
    "address": "CXH7+4X4 ถนน มุมป้อม ตำบล คลัง อำเภอเมืองนครศรีธรรมราช",
    "lat": 8.4277682,
    "lng": 99.9649553
  },
  {
    "mu_place": "วัดนางพระยา",
    "name": "Kantarach",
    "rating": 0,
    "address": "30/9 หมู่บ้านราชพฤกษ์2 ตำบล ท่าซัก เมือง",
    "lat": 8.4438549,
    "lng": 99.9831755
  },
  {
    "mu_place": "วัดนางพระยา",
    "name": "นครศรีธรรมราช",
    "rating": 5,
    "address": "FX42+2W6 ถนน ท่าลาด อำเภอเมืองนครศรีธรรมราช",
    "lat": 8.4550482,
    "lng": 99.95227969999999
  },
  {
    "mu_place": "วัดนางพระยา",
    "name": "Khao Khun Panom Cave",
    "rating": 5,
    "address": "เลขที่ 64, ตำบล บ้านเกาะ อำเภอ พรหมคีรี",
    "lat": 8.542242,
    "lng": 99.842365
  },
  {
    "mu_place": "วัดนางพระยา",
    "name": "พิพิธภัณฑสถานแห่งชาติ นครศรีธรรมราช",
    "rating": 4.4,
    "address": "ถนนราชดำเนิน, ตำบลในเมือง อำเภอเมือง จังหวัดนครศรีธรรมราช, 80000",
    "lat": 8.4004014,
    "lng": 99.96961259999999
  },
  {
    "mu_place": "วัดนางพระยา",
    "name": "พิพิธภัณฑ์วัดพระมหาธาตุ",
    "rating": 4.3,
    "address": "80000, อำเภอเมืองนครศรีธรรมราช",
    "lat": 8.411919,
    "lng": 99.9660272
  },
  {
    "mu_place": "วัดนางพระยา",
    "name": "พุทธภูมิ สวนสมเด็จพระศรีนครินทร์ 84 (ทุ่งท่าลาด)",
    "rating": 4.2,
    "address": "FX23+23V ถนน มะขามชุม อำเภอเมืองนครศรีธรรมราช",
    "lat": 8.4501189,
    "lng": 99.95267989999999
  },
  {
    "mu_place": "วัดนางพระยา",
    "name": "@บ้านนาใน ชุมชนท่องเที่ยวนวัตวิถี",
    "rating": 4.4,
    "address": "9X72+7R6 ซอย 3025 ตำบล ช้างซ้าย อำเภอ พระพรหม",
    "lat": 8.3631622,
    "lng": 99.95201670000002
  },
  {
    "mu_place": "วัดนางพระยา",
    "name": "ท่าเรือฅนชายเลน",
    "rating": 0,
    "address": "GX7C+2CP Rural Road 4037 ตำบล ปากพูน อำเภอเมืองนครศรีธรรมราช",
    "lat": 8.5125975,
    "lng": 99.9710726
  },
  {
    "mu_place": "วัดนางพระยา",
    "name": "อนุสรณ์สถานสะพานยาว",
    "rating": 4.1,
    "address": "CXV4+4JV ตำบล นาเคียน อำเภอเมืองนครศรีธรรมราช",
    "lat": 8.4428745,
    "lng": 99.9565526
  },
  {
    "mu_place": "วัดนางพระยา",
    "name": "ไร่นคผลไม้88",
    "rating": 0,
    "address": "9487+2PP 118 ตำบล คลองน้อย อำเภอ ปากพนัง",
    "lat": 8.365083799999999,
    "lng": 100.1143176
  },
  {
    "mu_place": "วัดนางพระยา",
    "name": "สนามหน้าเมือง",
    "rating": 4.4,
    "address": "ถ. ราชดำเนิน ตำบล คลัง อำเภอเมืองนครศรีธรรมราช",
    "lat": 8.4292229,
    "lng": 99.9624371
  },
  {
    "mu_place": "วัดนางพระยา",
    "name": "สวนสร้างสุข Fishing park & Campsite",
    "rating": 0,
    "address": "สวนสร้างสุข Fishing park & Campsite ตำบล ปากพูน อำเภอเมืองนครศรีธรรมราช",
    "lat": 8.54383,
    "lng": 99.9872439
  },
  {
    "mu_place": "วัดนางพระยา",
    "name": "พิพิธภัณฑ์เมือง นครศรีธรรมราช",
    "rating": 4.4,
    "address": "FX22+CP3 พิพิธภัณฑ์เมือง นครศรีธรรมราช ทุ่งท่าลาด อำเภอเมืองนครศรีธรรมราช",
    "lat": 8.4510183,
    "lng": 99.9517941
  },
  {
    "mu_place": "วัดนางพระยา",
    "name": "สวนกอบสุข",
    "rating": 3,
    "address": "AAA ตำบล นาสาร อำเภอ พระพรหม",
    "lat": 8.3689451,
    "lng": 99.93533490000002
  },
  {
    "mu_place": "วัดพระศรีรัตนมหาธาตุวรมหาวิหาร (วัดใหญ่)",
    "name": "วิสาหกิจชุมชนท่องเที่ยวปากพูน",
    "rating": 4.3,
    "address": "GX6C+X9V ตำบล ปากพูน อำเภอเมืองนครศรีธรรมราช",
    "lat": 8.5124762,
    "lng": 99.9709355
  },
  {
    "mu_place": "วัดพระศรีรัตนมหาธาตุวรมหาวิหาร (วัดใหญ่)",
    "name": "ยอดเขารามโรม",
    "rating": 4.5,
    "address": "6RQ4+J59 ต, ตำบล หินตก อำเภอร่อนพิบูลย์",
    "lat": 8.2390303,
    "lng": 99.80548999999999
  },
  {
    "mu_place": "วัดพระศรีรัตนมหาธาตุวรมหาวิหาร (วัดใหญ่)",
    "name": "หมู่บ้านคีรีวง",
    "rating": 4.6,
    "address": "CQJM+X27 ตำบล กำโลน อำเภอ ลานสกา",
    "lat": 8.4324113,
    "lng": 99.78254869999999
  },
  {
    "mu_place": "วัดพระศรีรัตนมหาธาตุวรมหาวิหาร (วัดใหญ่)",
    "name": "บ่อน้ำศักดิ์สิทธิ์วัดประตูขาว",
    "rating": 4,
    "address": "CXJ7+67G ตำบล คลัง อำเภอเมืองนครศรีธรรมราช",
    "lat": 8.4305574,
    "lng": 99.963194
  },
  {
    "mu_place": "วัดพระศรีรัตนมหาธาตุวรมหาวิหาร (วัดใหญ่)",
    "name": "วิสาหกิจชุมชนท่องเที่ยวนครเมืองเก่า",
    "rating": 0,
    "address": "20 ถนน สระเรียง ตำบล ในเมือง อำเภอเมืองนครศรีธรรมราช",
    "lat": 8.413236099999999,
    "lng": 99.96748330000001
  },
  {
    "mu_place": "วัดพระศรีรัตนมหาธาตุวรมหาวิหาร (วัดใหญ่)",
    "name": "บ้านแพปากพญา นครศรีธรรมราช",
    "rating": 4.6,
    "address": "G25R+XRQ ซอย กอไผ่ ตำบล ท่าซัก อำเภอเมืองนครศรีธรรมราช",
    "lat": 8.5099599,
    "lng": 100.0421052
  },
  {
    "mu_place": "วัดพระศรีรัตนมหาธาตุวรมหาวิหาร (วัดใหญ่)",
    "name": "ถ้ำน้ำวังศรีธรรมโศกราช",
    "rating": 4.2,
    "address": "8RMJ+799, Unnamed Rd, ตำบล ขุนทะเล อำเภอ ลานสกา",
    "lat": 8.3331708,
    "lng": 99.83099109999999
  },
  {
    "mu_place": "วัดพระศรีรัตนมหาธาตุวรมหาวิหาร (วัดใหญ่)",
    "name": "นาโพร่ สวนป่านาบุญ วัดพระพรหม",
    "rating": 4.4,
    "address": "8WG7+2WJ ตำบล นาพรุ อำเภอ พระพรหม",
    "lat": 8.325097699999999,
    "lng": 99.9147675
  },
  {
    "mu_place": "วัดพระศรีรัตนมหาธาตุวรมหาวิหาร (วัดใหญ่)",
    "name": "Ancient Wall",
    "rating": 4.3,
    "address": "CXH7+4X4 ถนน มุมป้อม ตำบล คลัง อำเภอเมืองนครศรีธรรมราช",
    "lat": 8.4277682,
    "lng": 99.9649553
  },
  {
    "mu_place": "วัดพระศรีรัตนมหาธาตุวรมหาวิหาร (วัดใหญ่)",
    "name": "วังปลาแงะ",
    "rating": 4.5,
    "address": "GRH6+PFR ตำบล บ้านเกาะ อำเภอ พรหมคีรี",
    "lat": 8.5293648,
    "lng": 99.8111417
  },
  {
    "mu_place": "วัดพระศรีรัตนมหาธาตุวรมหาวิหาร (วัดใหญ่)",
    "name": "Kantarach",
    "rating": 0,
    "address": "30/9 หมู่บ้านราชพฤกษ์2 ตำบล ท่าซัก เมือง",
    "lat": 8.4438549,
    "lng": 99.9831755
  },
  {
    "mu_place": "วัดพระศรีรัตนมหาธาตุวรมหาวิหาร (วัดใหญ่)",
    "name": "นครศรีธรรมราช",
    "rating": 5,
    "address": "FX42+2W6 ถนน ท่าลาด อำเภอเมืองนครศรีธรรมราช",
    "lat": 8.4550482,
    "lng": 99.95227969999999
  },
  {
    "mu_place": "วัดพระศรีรัตนมหาธาตุวรมหาวิหาร (วัดใหญ่)",
    "name": "Khao Khun Panom Cave",
    "rating": 5,
    "address": "เลขที่ 64, ตำบล บ้านเกาะ อำเภอ พรหมคีรี",
    "lat": 8.542242,
    "lng": 99.842365
  },
  {
    "mu_place": "วัดพระศรีรัตนมหาธาตุวรมหาวิหาร (วัดใหญ่)",
    "name": "น้ำตกขุนพัง",
    "rating": 4.6,
    "address": "ตำบล หินตก อำเภอร่อนพิบูลย์",
    "lat": 8.25846,
    "lng": 99.8155858
  },
  {
    "mu_place": "วัดพระศรีรัตนมหาธาตุวรมหาวิหาร (วัดใหญ่)",
    "name": "พิพิธภัณฑสถานแห่งชาติ นครศรีธรรมราช",
    "rating": 4.4,
    "address": "ถนนราชดำเนิน, ตำบลในเมือง อำเภอเมือง จังหวัดนครศรีธรรมราช, 80000",
    "lat": 8.4004014,
    "lng": 99.96961259999999
  },
  {
    "mu_place": "วัดพระศรีรัตนมหาธาตุวรมหาวิหาร (วัดใหญ่)",
    "name": "อ่าวปากนคร",
    "rating": 4,
    "address": "F3HG+9GQ ตำบล ปากนคร อำเภอเมืองนครศรีธรรมราช",
    "lat": 8.4784644,
    "lng": 100.0763458
  },
  {
    "mu_place": "วัดพระศรีรัตนมหาธาตุวรมหาวิหาร (วัดใหญ่)",
    "name": "พิพิธภัณฑ์วัดพระมหาธาตุ",
    "rating": 4.3,
    "address": "80000, อำเภอเมืองนครศรีธรรมราช",
    "lat": 8.411919,
    "lng": 99.9660272
  },
  {
    "mu_place": "วัดพระศรีรัตนมหาธาตุวรมหาวิหาร (วัดใหญ่)",
    "name": "พุทธภูมิ สวนสมเด็จพระศรีนครินทร์ 84 (ทุ่งท่าลาด)",
    "rating": 4.2,
    "address": "FX23+23V ถนน มะขามชุม อำเภอเมืองนครศรีธรรมราช",
    "lat": 8.4501189,
    "lng": 99.95267989999999
  },
  {
    "mu_place": "วัดพระศรีรัตนมหาธาตุวรมหาวิหาร (วัดใหญ่)",
    "name": "@บ้านนาใน ชุมชนท่องเที่ยวนวัตวิถี",
    "rating": 4.4,
    "address": "9X72+7R6 ซอย 3025 ตำบล ช้างซ้าย อำเภอ พระพรหม",
    "lat": 8.3631622,
    "lng": 99.95201670000002
  },
  {
    "mu_place": "วัดพระศรีรัตนมหาธาตุวรมหาวิหาร (วัดใหญ่)",
    "name": "น้ำตกพรหมโลก",
    "rating": 4.3,
    "address": "ตำบล บ้านเกาะ อำเภอ พรหมคีรี",
    "lat": 8.527861,
    "lng": 99.7826671
  },
  {
    "mu_place": "วัดเจดีย์ ไอ้ไข่",
    "name": "หาดหินงาม",
    "rating": 4.2,
    "address": "2W29+3PP ตำบล สิชล",
    "lat": 9.0002053,
    "lng": 99.91932489999999
  },
  {
    "mu_place": "วัดเจดีย์ ไอ้ไข่",
    "name": "หาดปลายทอน",
    "rating": 4.7,
    "address": "XW77+C6H Unnamed Road ตำบล ทุ่งปรัง อำเภอ สิชล",
    "lat": 8.963568700000001,
    "lng": 99.91309700000001
  },
  {
    "mu_place": "วัดเจดีย์ ไอ้ไข่",
    "name": "อ่าวท้องยาง",
    "rating": 4.4,
    "address": "3WV5+JP5 อำเภอ ขนอม",
    "lat": 9.094013,
    "lng": 99.90936719999999
  },
  {
    "mu_place": "วัดเจดีย์ ไอ้ไข่",
    "name": "เขาแก้วถ้ำทวดพริก",
    "rating": 0,
    "address": "WVQP+4R4 ตำบล ทุ่งปรัง อำเภอ สิชล",
    "lat": 8.9377675,
    "lng": 99.8870905
  },
  {
    "mu_place": "วัดเจดีย์ ไอ้ไข่",
    "name": "ไก่ชนไอ้ไข่",
    "rating": 4.6,
    "address": "WR9X+QMP ตำบล ฉลอง อำเภอ สิชล",
    "lat": 8.9194584,
    "lng": 99.849212
  },
  {
    "mu_place": "วัดเจดีย์ ไอ้ไข่",
    "name": "น้ำตกยอดน้ำ Yodnam Waterfall",
    "rating": 4.3,
    "address": "WP8M+F28 ตำบล เขาน้อย อำเภอ สิชล",
    "lat": 8.9161535,
    "lng": 99.7325748
  },
  {
    "mu_place": "วัดเจดีย์ ไอ้ไข่",
    "name": "นำทรัพย์ ฟาร์มแพะ",
    "rating": 5,
    "address": "2V77+4Q2 ตำบล สี่ขีด อำเภอ สิชล",
    "lat": 9.012726599999999,
    "lng": 99.8643731
  },
  {
    "mu_place": "วัดเจดีย์ ไอ้ไข่",
    "name": "อุทยานแห่งชาติน้ำตกสี่ขีด",
    "rating": 4.2,
    "address": "2Q7F+Q26 ตำบล สี่ขีด อำเภอ สิชล",
    "lat": 9.014409299999999,
    "lng": 99.77251919999999
  },
  {
    "mu_place": "วัดเจดีย์ ไอ้ไข่",
    "name": "ทะเลหมอกกรุงชิง",
    "rating": 4.3,
    "address": "QPGC+7RR ตำบล กรุงชิง อำเภอ นบพิตำ",
    "lat": 8.775743,
    "lng": 99.72200289999999
  },
  {
    "mu_place": "วัดเจดีย์ ไอ้ไข่",
    "name": "หาดพลายดำ",
    "rating": 4.5,
    "address": "3WR5+WP2 อำเภอ ขนอม",
    "lat": 9.092270599999999,
    "lng": 99.9092737
  },
  {
    "mu_place": "วัดเจดีย์ ไอ้ไข่",
    "name": "ศูนย์บริการท่องเที่ยวเขาพลายดำ",
    "rating": 3.7,
    "address": "3WR5+MGV อำเภอ ขนอม",
    "lat": 9.091730799999999,
    "lng": 99.908796
  },
  {
    "mu_place": "วัดเจดีย์ ไอ้ไข่",
    "name": "WYND voyage",
    "rating": 4.5,
    "address": "Wynd Voyage, ตำบล สิชล อำเภอ สิชล",
    "lat": 9.015395300000002,
    "lng": 99.89906049999999
  },
  {
    "mu_place": "วัดเจดีย์ ไอ้ไข่",
    "name": "สวนตาโอ",
    "rating": 5,
    "address": "91 ตำบล เปลี่ยน อำเภอ สิชล",
    "lat": 8.8464076,
    "lng": 99.8886718
  },
  {
    "mu_place": "วัดเจดีย์ ไอ้ไข่",
    "name": "ฝายน้ำล้นคลองท่าลาด",
    "rating": 0,
    "address": "RR9R+WXG ตำบล ตลิ่งชัน อำเภอท่าศาลา",
    "lat": 8.8198033,
    "lng": 99.84245279999999
  },
  {
    "mu_place": "วัดเจดีย์ ไอ้ไข่",
    "name": "National Park Khao Phlai Dam",
    "rating": 4.6,
    "address": "3VQV+VJR ตำบล ทุ่งใส อำเภอ สิชล",
    "lat": 9.089726299999999,
    "lng": 99.8940277
  },
  {
    "mu_place": "วัดเจดีย์ ไอ้ไข่",
    "name": "สวนตาเหน่ง",
    "rating": 4.3,
    "address": "33 3 ตำบล เทพราช อำเภอ สิชล",
    "lat": 8.8842265,
    "lng": 99.8275073
  },
  {
    "mu_place": "วัดเจดีย์ ไอ้ไข่",
    "name": "น้ำตกหนานเตย Nhantei Waterfall",
    "rating": 3.9,
    "address": "8°53'25.7\"N 99°47'02 ตำบล ฉลอง อำเภอ สิชล",
    "lat": 8.8904722,
    "lng": 99.78393609999999
  },
  {
    "mu_place": "วัดเจดีย์ ไอ้ไข่",
    "name": "น้ำตกทิวเขา",
    "rating": 4,
    "address": "3Q4P+XFG ตำบล สี่ขีด อำเภอ สิชล",
    "lat": 9.0577609,
    "lng": 99.7867808
  },
  {
    "mu_place": "วัดเจดีย์ ไอ้ไข่",
    "name": "Khao Plai Dam Welcome View Point",
    "rating": 4.5,
    "address": "3WH5+JWF, Unnamed Road, ตำบล ทุ่งใส อำเภอ สิชล",
    "lat": 9.0790536,
    "lng": 99.90979639999999
  },
  {
    "mu_place": "วัดเจดีย์ ไอ้ไข่",
    "name": "ถ้ำทวดสุข",
    "rating": 5,
    "address": "WVPM+QH9 ตำบล ทุ่งปรัง อำเภอ สิชล",
    "lat": 8.9369183,
    "lng": 99.8839744
  },
  {
    "mu_place": "วัดเขาขุนพนม",
    "name": "วิสาหกิจชุมชนท่องเที่ยวปากพูน",
    "rating": 4.3,
    "address": "GX6C+X9V ตำบล ปากพูน อำเภอเมืองนครศรีธรรมราช",
    "lat": 8.5124762,
    "lng": 99.9709355
  },
  {
    "mu_place": "วัดเขาขุนพนม",
    "name": "ถ้ำแก้วสุรกานต์ อ.ลานสกา จ.นครศรีธรรมราช",
    "rating": 4.2,
    "address": "9Q6P+G36 ตำบล ลานสกา อำเภอ ลานสกา",
    "lat": 8.361287,
    "lng": 99.785139
  },
  {
    "mu_place": "วัดเขาขุนพนม",
    "name": "หมู่บ้านคีรีวง",
    "rating": 4.6,
    "address": "CQJM+X27 ตำบล กำโลน อำเภอ ลานสกา",
    "lat": 8.4324113,
    "lng": 99.78254869999999
  },
  {
    "mu_place": "วัดเขาขุนพนม",
    "name": "น้ำตกอ้ายเขียว",
    "rating": 4.4,
    "address": "HQ5H+MQ8 ตำบล ทอนหงส์ อำเภอ พรหมคีรี",
    "lat": 8.5591709,
    "lng": 99.7794662
  },
  {
    "mu_place": "วัดเขาขุนพนม",
    "name": "บ่อน้ำศักดิ์สิทธิ์วัดประตูขาว",
    "rating": 4,
    "address": "CXJ7+67G ตำบล คลัง อำเภอเมืองนครศรีธรรมราช",
    "lat": 8.4305574,
    "lng": 99.963194
  },
  {
    "mu_place": "วัดเขาขุนพนม",
    "name": "Thasalathailand",
    "rating": 5,
    "address": "58/8 m.15 T.thasal A อำเภอท่าศาลา",
    "lat": 8.6034337,
    "lng": 99.952378
  },
  {
    "mu_place": "วัดเขาขุนพนม",
    "name": "วิสาหกิจชุมชนท่องเที่ยวนครเมืองเก่า",
    "rating": 0,
    "address": "20 ถนน สระเรียง ตำบล ในเมือง อำเภอเมืองนครศรีธรรมราช",
    "lat": 8.413236099999999,
    "lng": 99.96748330000001
  },
  {
    "mu_place": "วัดเขาขุนพนม",
    "name": "บ้านประวัติศาสตร์ คีรีวง",
    "rating": 4.5,
    "address": "184, 1 ตำบล กำโลน อำเภอ ลานสกา",
    "lat": 8.4385429,
    "lng": 99.7693606
  },
  {
    "mu_place": "วัดเขาขุนพนม",
    "name": "อุทยานแห่งชาติเขาหลวง",
    "rating": 4.5,
    "address": "9P9P+F45 ตำบล เขาแก้ว อำเภอ ลานสกา",
    "lat": 8.368634799999999,
    "lng": 99.7353445
  },
  {
    "mu_place": "วัดเขาขุนพนม",
    "name": "น้ำตกวังลุง Wanglung Waterfall",
    "rating": 4.7,
    "address": "HPPX+QRV ตำบล ทอนหงส์ อำเภอ พรหมคีรี",
    "lat": 8.586981999999999,
    "lng": 99.7495579
  },
  {
    "mu_place": "วัดเขาขุนพนม",
    "name": "โดมกระบองเพชร Bota Cactus Dome",
    "rating": 4.5,
    "address": "JVRF+W94 ตำบล ไทยบุรี อำเภอท่าศาลา",
    "lat": 8.642267799999999,
    "lng": 99.8734388
  },
  {
    "mu_place": "วัดเขาขุนพนม",
    "name": "Ancient Wall",
    "rating": 4.3,
    "address": "CXH7+4X4 ถนน มุมป้อม ตำบล คลัง อำเภอเมืองนครศรีธรรมราช",
    "lat": 8.4277682,
    "lng": 99.9649553
  },
  {
    "mu_place": "วัดเขาขุนพนม",
    "name": "วังปลาแงะ",
    "rating": 4.5,
    "address": "GRH6+PFR ตำบล บ้านเกาะ อำเภอ พรหมคีรี",
    "lat": 8.5293648,
    "lng": 99.8111417
  },
  {
    "mu_place": "วัดเขาขุนพนม",
    "name": "จุดลงเล่นน้ำ บ้านคีรีวง อ.ลานสกา จ.นครศรีธรรมราช",
    "rating": 4.6,
    "address": "CQR5+RWP หมู่บ้าน คีรี วง ตำบล กำโลน อำเภอ ลานสกา",
    "lat": 8.4420767,
    "lng": 99.75983269999999
  },
  {
    "mu_place": "วัดเขาขุนพนม",
    "name": "Kantarach",
    "rating": 0,
    "address": "30/9 หมู่บ้านราชพฤกษ์2 ตำบล ท่าซัก เมือง",
    "lat": 8.4438549,
    "lng": 99.9831755
  },
  {
    "mu_place": "วัดเขาขุนพนม",
    "name": "หอชมฟ้า Bota Sky Tower",
    "rating": 4.7,
    "address": "ตำบล หัวตะพาน อำเภอท่าศาลา",
    "lat": 8.6376285,
    "lng": 99.87982
  },
  {
    "mu_place": "วัดเขาขุนพนม",
    "name": "นครศรีธรรมราช",
    "rating": 5,
    "address": "FX42+2W6 ถนน ท่าลาด อำเภอเมืองนครศรีธรรมราช",
    "lat": 8.4550482,
    "lng": 99.95227969999999
  },
  {
    "mu_place": "วัดเขาขุนพนม",
    "name": "พิพิธภัณฑ์หาดทรายแก้ว Hindu Museum",
    "rating": 4,
    "address": "103/1 หมู่ 1 หาดทรายแก้วรีสอร์ท, ตำบลท่าขึ้น อำเภอท่าศาลา จังหวัดนครศรีธรรมราช, 80160",
    "lat": 8.697781899999999,
    "lng": 99.9429778
  },
  {
    "mu_place": "วัดเขาขุนพนม",
    "name": "Khao Khun Panom Cave",
    "rating": 5,
    "address": "เลขที่ 64, ตำบล บ้านเกาะ อำเภอ พรหมคีรี",
    "lat": 8.542242,
    "lng": 99.842365
  },
  {
    "mu_place": "วัดเขาขุนพนม",
    "name": "พิพิธภัณฑสถานแห่งชาติ นครศรีธรรมราช",
    "rating": 4.4,
    "address": "ถนนราชดำเนิน, ตำบลในเมือง อำเภอเมือง จังหวัดนครศรีธรรมราช, 80000",
    "lat": 8.4004014,
    "lng": 99.96961259999999
  },
  {
    "mu_place": "วัดธาตุน้อย",
    "name": "วิสาหกิจชุมชนท่องเที่ยวปากพูน",
    "rating": 4.3,
    "address": "GX6C+X9V ตำบล ปากพูน อำเภอเมืองนครศรีธรรมราช",
    "lat": 8.5124762,
    "lng": 99.9709355
  },
  {
    "mu_place": "วัดธาตุน้อย",
    "name": "ถ้ำแก้วสุรกานต์ อ.ลานสกา จ.นครศรีธรรมราช",
    "rating": 4.2,
    "address": "9Q6P+G36 ตำบล ลานสกา อำเภอ ลานสกา",
    "lat": 8.361287,
    "lng": 99.785139
  },
  {
    "mu_place": "วัดธาตุน้อย",
    "name": "หมู่บ้านคีรีวง",
    "rating": 4.6,
    "address": "CQJM+X27 ตำบล กำโลน อำเภอ ลานสกา",
    "lat": 8.4324113,
    "lng": 99.78254869999999
  },
  {
    "mu_place": "วัดธาตุน้อย",
    "name": "น้ำตกอ้ายเขียว",
    "rating": 4.4,
    "address": "HQ5H+MQ8 ตำบล ทอนหงส์ อำเภอ พรหมคีรี",
    "lat": 8.5591709,
    "lng": 99.7794662
  },
  {
    "mu_place": "วัดธาตุน้อย",
    "name": "บ่อน้ำศักดิ์สิทธิ์วัดประตูขาว",
    "rating": 4,
    "address": "CXJ7+67G ตำบล คลัง อำเภอเมืองนครศรีธรรมราช",
    "lat": 8.4305574,
    "lng": 99.963194
  },
  {
    "mu_place": "วัดธาตุน้อย",
    "name": "Thasalathailand",
    "rating": 5,
    "address": "58/8 m.15 T.thasal A อำเภอท่าศาลา",
    "lat": 8.6034337,
    "lng": 99.952378
  },
  {
    "mu_place": "วัดธาตุน้อย",
    "name": "วิสาหกิจชุมชนท่องเที่ยวนครเมืองเก่า",
    "rating": 0,
    "address": "20 ถนน สระเรียง ตำบล ในเมือง อำเภอเมืองนครศรีธรรมราช",
    "lat": 8.413236099999999,
    "lng": 99.96748330000001
  },
  {
    "mu_place": "วัดธาตุน้อย",
    "name": "บ้านประวัติศาสตร์ คีรีวง",
    "rating": 4.5,
    "address": "184, 1 ตำบล กำโลน อำเภอ ลานสกา",
    "lat": 8.4385429,
    "lng": 99.7693606
  },
  {
    "mu_place": "วัดธาตุน้อย",
    "name": "อุทยานแห่งชาติเขาหลวง",
    "rating": 4.5,
    "address": "9P9P+F45 ตำบล เขาแก้ว อำเภอ ลานสกา",
    "lat": 8.368634799999999,
    "lng": 99.7353445
  },
  {
    "mu_place": "วัดธาตุน้อย",
    "name": "น้ำตกวังลุง Wanglung Waterfall",
    "rating": 4.7,
    "address": "HPPX+QRV ตำบล ทอนหงส์ อำเภอ พรหมคีรี",
    "lat": 8.586981999999999,
    "lng": 99.7495579
  },
  {
    "mu_place": "วัดธาตุน้อย",
    "name": "โดมกระบองเพชร Bota Cactus Dome",
    "rating": 4.5,
    "address": "JVRF+W94 ตำบล ไทยบุรี อำเภอท่าศาลา",
    "lat": 8.642267799999999,
    "lng": 99.8734388
  },
  {
    "mu_place": "วัดธาตุน้อย",
    "name": "Ancient Wall",
    "rating": 4.3,
    "address": "CXH7+4X4 ถนน มุมป้อม ตำบล คลัง อำเภอเมืองนครศรีธรรมราช",
    "lat": 8.4277682,
    "lng": 99.9649553
  },
  {
    "mu_place": "วัดธาตุน้อย",
    "name": "วังปลาแงะ",
    "rating": 4.5,
    "address": "GRH6+PFR ตำบล บ้านเกาะ อำเภอ พรหมคีรี",
    "lat": 8.5293648,
    "lng": 99.8111417
  },
  {
    "mu_place": "วัดธาตุน้อย",
    "name": "จุดลงเล่นน้ำ บ้านคีรีวง อ.ลานสกา จ.นครศรีธรรมราช",
    "rating": 4.6,
    "address": "CQR5+RWP หมู่บ้าน คีรี วง ตำบล กำโลน อำเภอ ลานสกา",
    "lat": 8.4420767,
    "lng": 99.75983269999999
  },
  {
    "mu_place": "วัดธาตุน้อย",
    "name": "Kantarach",
    "rating": 0,
    "address": "30/9 หมู่บ้านราชพฤกษ์2 ตำบล ท่าซัก เมือง",
    "lat": 8.4438549,
    "lng": 99.9831755
  },
  {
    "mu_place": "วัดธาตุน้อย",
    "name": "หอชมฟ้า Bota Sky Tower",
    "rating": 4.7,
    "address": "ตำบล หัวตะพาน อำเภอท่าศาลา",
    "lat": 8.6376285,
    "lng": 99.87982
  },
  {
    "mu_place": "วัดธาตุน้อย",
    "name": "นครศรีธรรมราช",
    "rating": 5,
    "address": "FX42+2W6 ถนน ท่าลาด อำเภอเมืองนครศรีธรรมราช",
    "lat": 8.4550482,
    "lng": 99.95227969999999
  },
  {
    "mu_place": "วัดธาตุน้อย",
    "name": "พิพิธภัณฑ์หาดทรายแก้ว Hindu Museum",
    "rating": 4,
    "address": "103/1 หมู่ 1 หาดทรายแก้วรีสอร์ท, ตำบลท่าขึ้น อำเภอท่าศาลา จังหวัดนครศรีธรรมราช, 80160",
    "lat": 8.697781899999999,
    "lng": 99.9429778
  },
  {
    "mu_place": "วัดธาตุน้อย",
    "name": "Khao Khun Panom Cave",
    "rating": 5,
    "address": "เลขที่ 64, ตำบล บ้านเกาะ อำเภอ พรหมคีรี",
    "lat": 8.542242,
    "lng": 99.842365
  },
  {
    "mu_place": "วัดธาตุน้อย",
    "name": "พิพิธภัณฑสถานแห่งชาติ นครศรีธรรมราช",
    "rating": 4.4,
    "address": "ถนนราชดำเนิน, ตำบลในเมือง อำเภอเมือง จังหวัดนครศรีธรรมราช, 80000",
    "lat": 8.4004014,
    "lng": 99.96961259999999
  },
  {
    "mu_place": "ศาลหลักเมืองขนอม",
    "name": "สวนตาสรรค์",
    "rating": 4.4,
    "address": "56 2 ตำบล ควนทอง อำเภอ ขนอม",
    "lat": 9.264293,
    "lng": 99.7583651
  },
  {
    "mu_place": "ศาลหลักเมืองขนอม",
    "name": "เส้นทางท่องเที่ยวเชิงนิเวศน์บ้านนางกำ",
    "rating": 4.4,
    "address": "8Q86+293 ตำบล ดอนสัก อำเภอ ดอนสัก",
    "lat": 9.315013,
    "lng": 99.7609324
  },
  {
    "mu_place": "ศาลหลักเมืองขนอม",
    "name": "ถ้ำเขาวังทอง",
    "rating": 4.6,
    "address": "Unnamed Rd, ตำบล ควนทอง อำเภอ ขนอม",
    "lat": 9.2046396,
    "lng": 99.7741269
  },
  {
    "mu_place": "ศาลหลักเมืองขนอม",
    "name": "อ่าวท้องยาง",
    "rating": 4.4,
    "address": "3WV5+JP5 อำเภอ ขนอม",
    "lat": 9.094013,
    "lng": 99.90936719999999
  },
  {
    "mu_place": "ศาลหลักเมืองขนอม",
    "name": "เจดีย์ปะการัง อ.ขนอม จ.นครศรีธรรมราช",
    "rating": 4.3,
    "address": "7RJ8+G7C ตำบล ท้องเนียน อำเภอ ขนอม",
    "lat": 9.281305999999999,
    "lng": 99.8156516
  },
  {
    "mu_place": "ศาลหลักเมืองขนอม",
    "name": "วิสาหกิจชุมชนกลุ่มท่องเที่ยวเชิงอนุรักษ์อ่าวเตล็ด",
    "rating": 4.5,
    "address": "84 ตำบล ท้องเนียน อำเภอ ขนอม",
    "lat": 9.309726699999999,
    "lng": 99.7834206
  },
  {
    "mu_place": "ศาลหลักเมืองขนอม",
    "name": "แหลมประทับ",
    "rating": 4.3,
    "address": "8R63+PRV อ่าว ไทย ตำบล ท้องเนียน",
    "lat": 9.311858599999999,
    "lng": 99.8045492
  },
  {
    "mu_place": "ศาลหลักเมืองขนอม",
    "name": "อ่าวท้องโหนด",
    "rating": 4.5,
    "address": "ตำบล ท้องเนียน อำเภอ ขนอม",
    "lat": 9.3027192,
    "lng": 99.83712059999999
  },
  {
    "mu_place": "ศาลหลักเมืองขนอม",
    "name": "จุดชมวิวถนนสายขนอม-สิชล",
    "rating": 4.7,
    "address": "4V8W+8V8 Unnamed Road อำเภอ ขนอม",
    "lat": 9.1157839,
    "lng": 99.89719269999999
  },
  {
    "mu_place": "ศาลหลักเมืองขนอม",
    "name": "น้ำตกหินลาด",
    "rating": 4,
    "address": "4V69+CJ4 อำเภอ ขนอม",
    "lat": 9.111021,
    "lng": 99.869077
  },
  {
    "mu_place": "ศาลหลักเมืองขนอม",
    "name": "หาดแขวงเภา",
    "rating": 4.3,
    "address": "ตำบล ท้องเนียน อำเภอ ขนอม",
    "lat": 9.2840774,
    "lng": 99.84259999999999
  },
  {
    "mu_place": "ศาลหลักเมืองขนอม",
    "name": "หาดท้องชิง ขนอม",
    "rating": 4.3,
    "address": "7RFV+GRP Unnamed Road ตำบล ท้องเนียน อำเภอ ขนอม",
    "lat": 9.2738335,
    "lng": 99.84459129999999
  },
  {
    "mu_place": "ศาลหลักเมืองขนอม",
    "name": "สวนน้ำตาเจน",
    "rating": 4.8,
    "address": "116 3 ตำบล ปากแพรก อำเภอ ดอนสัก",
    "lat": 9.1248044,
    "lng": 99.6762876
  },
  {
    "mu_place": "ศาลหลักเมืองขนอม",
    "name": "หาดท้องหยี",
    "rating": 4.5,
    "address": "4V6X+RJF, Unnamed Rd, อำเภอ ขนอม",
    "lat": 9.112063000000001,
    "lng": 99.8990354
  },
  {
    "mu_place": "ศาลหลักเมืองขนอม",
    "name": "อุโมงค์ต้นไม้ (ยางพารา)",
    "rating": 4.4,
    "address": "6Q6X+H8H 4142 ตำบล ควนทอง อำเภอ ขนอม",
    "lat": 9.211432,
    "lng": 99.79836
  },
  {
    "mu_place": "ศาลหลักเมืองขนอม",
    "name": "หาดพลายดำ",
    "rating": 4.5,
    "address": "3WR5+WP2 อำเภอ ขนอม",
    "lat": 9.092270599999999,
    "lng": 99.9092737
  },
  {
    "mu_place": "ศาลหลักเมืองขนอม",
    "name": "Khanom Beach",
    "rating": 3.9,
    "address": "5VRF+9WQ อำเภอ ขนอม",
    "lat": 9.1909526,
    "lng": 99.8748727
  },
  {
    "mu_place": "ศาลหลักเมืองขนอม",
    "name": "สมาคมท่องเที่ยวขนอม",
    "rating": 0,
    "address": "5VM5+876 อำเภอ ขนอม",
    "lat": 9.1833339,
    "lng": 99.858136
  },
  {
    "mu_place": "ศาลหลักเมืองขนอม",
    "name": "ศูนย์บริการท่องเที่ยวเขาพลายดำ",
    "rating": 3.7,
    "address": "3WR5+MGV อำเภอ ขนอม",
    "lat": 9.091730799999999,
    "lng": 99.908796
  },
  {
    "mu_place": "ศาลหลักเมืองขนอม",
    "name": "WYND voyage",
    "rating": 4.5,
    "address": "Wynd Voyage, ตำบล สิชล อำเภอ สิชล",
    "lat": 9.015395300000002,
    "lng": 99.89906049999999
  }
]