[
  {
    "mu_place": "ท้าวเวสสุวรรณ วัดจุฬามณี",
    "name": "สะพานไม้สายรุ้ง",
    "address": "C4WX+V7V ถนนลบทะเล ตำบล กาหลง อำเภอเมืองสมุทรสาคร",
    "lat": 13.4472482,
    "lng": 100.1481764
  },
  {
    "mu_place": "ท้าวเวสสุวรรณ วัดจุฬามณี",
    "name": "แหล่งท่องเที่ยวตำบลเหมืองใหม่",
    "address": "FW36+Q44 ตำบล เหมืองใหม่ อำเภออัมพวา",
    "lat": 13.4543971,
    "lng": 99.910337
  },
  {
    "mu_place": "ท้าวเวสสุวรรณ วัดจุฬามณี",
    "name": "เตาตาลดี",
    "address": "FX37+FRW ตำบล บางพรม อำเภอ บางคนที",
    "lat": 13.4537475,
    "lng": 99.96457869999999
  },
  {
    "mu_place": "ท้าวเวสสุวรรณ วัดจุฬามณี",
    "name": "ตลาดน้ำอัมพวา",
    "address": "CXG3+2X5 ตำบล อัมพวา อำเภออัมพวา",
    "lat": 13.4250084,
    "lng": 99.95497619999999
  },
  {
    "mu_place": "ท้าวเวสสุวรรณ วัดจุฬามณี",
    "name": "สวนเกษตรชัยไดม่อนการ์เด้น",
    "address": "หมู่ที่​ 9 35 ตำบล สวนหลวง อำเภออัมพวา",
    "lat": 13.4163233,
    "lng": 99.94187590000001
  },
  {
    "mu_place": "ท้าวเวสสุวรรณ วัดจุฬามณี",
    "name": "ดอนหอยหลอด",
    "address": "926F+P46 2009 ตำบล บางจะเกร็ง อำเภอเมืองสมุทรสงคราม",
    "lat": 13.3617839,
    "lng": 100.0227791
  },
  {
    "mu_place": "ท้าวเวสสุวรรณ วัดจุฬามณี",
    "name": "ช้างเผือกฟาร์ม จำกัด",
    "address": "เลขที่ 76/2 ตำบล ขุนพิทักษ์ อำเภอดำเนินสะดวก",
    "lat": 13.5114949,
    "lng": 99.9734331
  },
  {
    "mu_place": "ท้าวเวสสุวรรณ วัดจุฬามณี",
    "name": "ชมรมส่งเสริมการท่องเที่ยวตำบลดำเนินสะดวก",
    "address": "GX82+QVX ตำบล ดำเนินสะดวก อำเภอดำเนินสะดวก",
    "lat": 13.516996,
    "lng": 99.9522303
  },
  {
    "mu_place": "ท้าวเวสสุวรรณ วัดจุฬามณี",
    "name": "ไร่ม่อนตาองค์",
    "address": "201 ม.4, ต.ห้วยไผ่ อ.เมือง ตำบลดอนตะโก อำเภอเมืองราชบุรี",
    "lat": 13.510646,
    "lng": 99.780999
  },
  {
    "mu_place": "ท้าวเวสสุวรรณ วัดจุฬามณี",
    "name": "อุทยานพระบรมราชานุสรณ์ สมเด็จพระพุทธเลิศหล้านภาลัย",
    "address": "ตำบล อัมพวา อำเภออัมพวา",
    "lat": 13.4251715,
    "lng": 99.9524778
  },
  {
    "mu_place": "ท้าวเวสสุวรรณ วัดจุฬามณี",
    "name": "Bang Noi local community",
    "address": "FW8W+3XW ซอย เทศบาลตำบลกระดังงา 12 ตำบล กระดังงา อำเภอ บางคนที",
    "lat": 13.4652428,
    "lng": 99.947459
  },
  {
    "mu_place": "ท้าวเวสสุวรรณ วัดจุฬามณี",
    "name": "ธุรกิจตัวอย่าง",
    "address": "433 ถ ศรีสุริยวงศ์ ตำบล หน้าเมือง เมือง",
    "lat": 13.532745,
    "lng": 99.80804909999999
  },
  {
    "mu_place": "ท้าวเวสสุวรรณ วัดจุฬามณี",
    "name": "Chang Puak Camp Damnoen Saduak",
    "address": "76 1 ตำบล ขุนพิทักษ์ อำเภอดำเนินสะดวก",
    "lat": 13.5110252,
    "lng": 99.97232609999999
  },
  {
    "mu_place": "ท้าวเวสสุวรรณ วัดจุฬามณี",
    "name": "ซุ้มโคนมะขาม บ้านสวนฉายแก้ว",
    "address": "43 หมู่ 10 ตำบล เหมืองใหม่ อำเภออัมพวา",
    "lat": 13.4466442,
    "lng": 99.89437620000001
  },
  {
    "mu_place": "ท้าวเวสสุวรรณ วัดจุฬามณี",
    "name": "ตลาดร่มหุบ สมุทรสงคราม",
    "address": "545/3 ซอยข้างห้างทวีกิจแม่กลอง แม่กลอง อำเภอเมืองสมุทรสงคราม",
    "lat": 13.4073898,
    "lng": 99.9989205
  },
  {
    "mu_place": "ท้าวเวสสุวรรณ วัดจุฬามณี",
    "name": "พิพิธภัณฑ์วัดเขายี่สาร",
    "address": "8W23+H4R ตำบล ยี่สาร อำเภออัมพวา",
    "lat": 13.3014879,
    "lng": 99.9027583
  },
  {
    "mu_place": "ท้าวเวสสุวรรณ วัดจุฬามณี",
    "name": "วัดบางกุ้ง",
    "address": "บ้านค่าย หมู่ที่ 4 ตำบล บางกุ้ง อำเภอ บางคนที",
    "lat": 13.4461111,
    "lng": 99.9411111
  },
  {
    "mu_place": "ท้าวเวสสุวรรณ วัดจุฬามณี",
    "name": "Chiang Mai",
    "address": "เลขที่ 1 ถนนโชติธำรงค์ ตำบล อัมพวา อำเภออัมพวา",
    "lat": 13.425055,
    "lng": 99.9551717
  },
  {
    "mu_place": "ท้าวเวสสุวรรณ วัดจุฬามณี",
    "name": "บ้านสวนมะนาวโห่ลุงศิริ",
    "address": "29 ตำบล บางนกแขวก อำเภอ บางคนที",
    "lat": 13.5039003,
    "lng": 99.9184307
  },
  {
    "mu_place": "ท้าวเวสสุวรรณ วัดจุฬามณี",
    "name": "บ้านแฟง ดอนมะโนรา สมุทรสงคราม By sak",
    "address": "ตำบล ดอนมะโนรา อำเภอ บางคนที",
    "lat": 13.490005,
    "lng": 99.9917249
  }
]