[
  {
    "mu_place": "วิหารพระพุทธชินราชมงคลปราการ",
    "name": "หอดูนก สวนศรีนครเขื่อนขันธ์",
    "address": "MHW9+F9V ตำบล บางกะเจ้า อำเภอพระประแดง",
    "lat": 13.6962495,
    "lng": 100.5684135
  },
  {
    "mu_place": "วิหารพระพุทธชินราชมงคลปราการ",
    "name": "มิวเซียมสยาม",
    "address": "4 ถนน สนามไชย แขวงพระบรมมหาราชวัง เขตพระนคร",
    "lat": 13.744147,
    "lng": 100.494137
  },
  {
    "mu_place": "วิหารพระพุทธชินราชมงคลปราการ",
    "name": "พระที่นั่งพิมานจักรี",
    "address": "315 ถ. ราชวิถี แขวงทุ่งพญาไท เขตราชเทวี",
    "lat": 13.7685069,
    "lng": 100.5328757
  },
  {
    "mu_place": "วิหารพระพุทธชินราชมงคลปราการ",
    "name": "พิพิธภัณฑ์ช้างเอราวัณ",
    "address": "99 ถ. กาญจนาภิเษก ตำบล บางเมืองใหม่ อำเภอเมืองสมุทรปราการ",
    "lat": 13.6285771,
    "lng": 100.5889193
  },
  {
    "mu_place": "วิหารพระพุทธชินราชมงคลปราการ",
    "name": "เมืองโบราณ",
    "address": "296 1 ถ. สุขุมวิท ตำบล บางปูใหม่ อำเภอเมืองสมุทรปราการ",
    "lat": 13.5477108,
    "lng": 100.6300391
  },
  {
    "mu_place": "วิหารพระพุทธชินราชมงคลปราการ",
    "name": "คลองบางหลวง (คลองบางกอกใหญ่)",
    "address": "ซอย เพชรเกษม 20 แขวงปากคลองภาษีเจริญ เขตภาษีเจริญ",
    "lat": 13.7316031,
    "lng": 100.4632156
  },
  {
    "mu_place": "วิหารพระพุทธชินราชมงคลปราการ",
    "name": "ตลาดน้ำคลองบางหลวง",
    "address": "13°43'48. 100°27'50. 99/5 ซอย เพชรเกษม 20 แขวงปากคลองภาษีเจริญ เขตภาษีเจริญ",
    "lat": 13.7316243,
    "lng": 100.46312
  },
  {
    "mu_place": "วิหารพระพุทธชินราชมงคลปราการ",
    "name": "สถานตากอากาศบางปู",
    "address": "164 ถ. สุขุมวิท ตำบล บางปูใหม่ อำเภอเมืองสมุทรปราการ",
    "lat": 13.5172594,
    "lng": 100.6549268
  },
  {
    "mu_place": "วิหารพระพุทธชินราชมงคลปราการ",
    "name": "ตลาดน้ำตลิ่งชัน",
    "address": "333 ถนน ชักพระ แขวงคลองชักพระ เขตตลิ่งชัน",
    "lat": 13.7762674,
    "lng": 100.4565979
  },
  {
    "mu_place": "วิหารพระพุทธชินราชมงคลปราการ",
    "name": "วิหารวัดพร้าว ตาก (จำลอง)",
    "address": "เมืองโบราณ ตำบล แพรกษา อำเภอเมืองสมุทรปราการ",
    "lat": 13.5494887,
    "lng": 100.6310212
  },
  {
    "mu_place": "วิหารพระพุทธชินราชมงคลปราการ",
    "name": "Guide Thailandia & Tours",
    "address": "888TT Building, ซ. สุขุมวิท 81 แขวงบางจาก เขตพระโขนง",
    "lat": 13.7061533,
    "lng": 100.6050823
  },
  {
    "mu_place": "วิหารพระพุทธชินราชมงคลปราการ",
    "name": "เสาชิงช้า",
    "address": "239 ถนน ดินสอ แขวงบางขุนพรหม เขตพระนคร",
    "lat": 13.7517707,
    "lng": 100.5012761
  },
  {
    "mu_place": "วิหารพระพุทธชินราชมงคลปราการ",
    "name": "เขาพระสุเมรุจำลอง เมืองโบราณ สมุทรปราการ (102)",
    "address": "GJXH+X8Q ตำบล แพรกษา อำเภอเมืองสมุทรปราการ",
    "lat": 13.5499587,
    "lng": 100.6283551
  },
  {
    "mu_place": "วิหารพระพุทธชินราชมงคลปราการ",
    "name": "สูงวัยพาเที่ยว",
    "address": "JGFQ+F6J ถ. สุขสวัสดิ์ เขตจอมทอง",
    "lat": 13.6237038,
    "lng": 100.5380215
  },
  {
    "mu_place": "วิหารพระพุทธชินราชมงคลปราการ",
    "name": "ซีไลฟ์ แบงคอก",
    "address": "ชั้น บี1-บี2 สยามพารากอน 991 ถ. พระรามที่ ๑ แขวงปทุมวัน เขตปทุมวัน",
    "lat": 13.7459351,
    "lng": 100.5352057
  },
  {
    "mu_place": "วิหารพระพุทธชินราชมงคลปราการ",
    "name": "ป้อมพระจุลจอมเกล้า",
    "address": "GHQM+4FH ตำบล แหลมฟ้าผ่า อำเภอพระสมุทรเจดีย์",
    "lat": 13.5379172,
    "lng": 100.5836028
  },
  {
    "mu_place": "วิหารพระพุทธชินราชมงคลปราการ",
    "name": "สถานที่ถ่ายรูป พระธรรมกายเทพมงคล",
    "address": "766 ถนน เพชรเกษมสายเก่า แขวงวัดท่าพระ เขตบางกอกใหญ่",
    "lat": 13.7232028,
    "lng": 100.480732
  },
  {
    "mu_place": "วิหารพระพุทธชินราชมงคลปราการ",
    "name": "ลาน 60 ปี ธรรมศาสตร์",
    "address": "2 ถ. หน้าพระธาตุ แขวงพระบรมมหาราชวัง เขตพระนคร",
    "lat": 13.7575138,
    "lng": 100.4895887
  },
  {
    "mu_place": "วิหารพระพุทธชินราชมงคลปราการ",
    "name": "สวนงู สถานเสาวภา สภากาชาดไทย",
    "address": "1871 ถนนพระรามที่ ๔ แขวงปทุมวัน เขตปทุมวัน",
    "lat": 13.7328912,
    "lng": 100.5327978
  },
  {
    "mu_place": "วิหารพระพุทธชินราชมงคลปราการ",
    "name": "บ้านศิลปินคลองบางหลวง : Artist House Bangkok",
    "address": "309 ซอย เพชรเกษม 28 แขวงคูหาสวรรค์ เขตภาษีเจริญ",
    "lat": 13.7312977,
    "lng": 100.4632778
  }
]