[
  {
    "mu_place": "วัดสายไหม",
    "name": "Spy War",
    "address": "World, Safari แขวงสามวาตะวันตก เขตคลองสามวา",
    "lat": 13.8640257,
    "lng": 100.7014903
  },
  {
    "mu_place": "วัดสายไหม",
    "name": "พระที่นั่งพิมานจักรี",
    "address": "315 ถ. ราชวิถี แขวงทุ่งพญาไท เขตราชเทวี",
    "lat": 13.7685069,
    "lng": 100.5328757
  },
  {
    "mu_place": "วัดสายไหม",
    "name": "สวนเกร็ดพุทธ",
    "address": "WF4Q+254 ตำบล เกาะเกร็ด อำเภอปากเกร็ด",
    "lat": 13.9050229,
    "lng": 100.4879706
  },
  {
    "mu_place": "วัดสายไหม",
    "name": "ซาฟารีเวิลด์",
    "address": "99 ถ. ปัญญาอินทรา แขวงสามวาตะวันตก เขตคลองสามวา",
    "lat": 13.8654914,
    "lng": 100.7030427
  },
  {
    "mu_place": "วัดสายไหม",
    "name": "เสาชิงช้า",
    "address": "239 ถนน ดินสอ แขวงบางขุนพรหม เขตพระนคร",
    "lat": 13.7517707,
    "lng": 100.5012761
  },
  {
    "mu_place": "วัดสายไหม",
    "name": "ริมน้ำโขง หอ14",
    "address": "50, Kasetsart University, Ngam Wong Wan Road, Lat Yao, Khet Chatuchak, Bangkok, 10900 แขวงลาดยาว เขตจตุจักร",
    "lat": 13.8487664,
    "lng": 100.5688721
  },
  {
    "mu_place": "วัดสายไหม",
    "name": "พิพิธภัณฑ์ของเล่น ตูนนี่ ประเทศไทย",
    "address": "ซอย ศรีสมาน 8 ตำบลบ้านใหม่ อำเภอปากเกร็ด",
    "lat": 13.9347737,
    "lng": 100.5617274
  },
  {
    "mu_place": "วัดสายไหม",
    "name": "อุทยานผีเสื้อและแมลง กรุงเทพฯ",
    "address": "สวนวิชรเบญจทิศ(สวนรถไฟ ถนน กำแพงเพชร 3 แขวงลาดยาว เขตจตุจักร",
    "lat": 13.8095512,
    "lng": 100.5549011
  },
  {
    "mu_place": "วัดสายไหม",
    "name": "พิพิธภัณฑ์บัว มหาวิทยาลัยเทคโนโลยีราชมงคลธัญบุรี",
    "address": "มหาวิทยาลัยเทคโนโลยีราชมงคล ธัญบุรี 39 ถนน รังสิต - นครนายก ตำบล คลองหก อำเภอคลองหลวง",
    "lat": 14.032087,
    "lng": 100.7302152
  },
  {
    "mu_place": "วัดสายไหม",
    "name": "ลาน 60 ปี ธรรมศาสตร์",
    "address": "2 ถ. หน้าพระธาตุ แขวงพระบรมมหาราชวัง เขตพระนคร",
    "lat": 13.7575138,
    "lng": 100.4895887
  },
  {
    "mu_place": "วัดสายไหม",
    "name": "ท่องเที่ยวลำพัง",
    "address": "QF7H+2R4 คลอง แขวงอรุณอมรินทร์ เขตบางกอกน้อย",
    "lat": 13.7625155,
    "lng": 100.4795931
  },
  {
    "mu_place": "วัดสายไหม",
    "name": "สยามอะเมซิ่งพาร์ค",
    "address": "203 ถ. สวนสยาม แขวงคันนายาว เขตคันนายาว",
    "lat": 13.8066994,
    "lng": 100.6923303
  },
  {
    "mu_place": "วัดสายไหม",
    "name": "พระตำหนักแดง",
    "address": "4 ถ. หน้าพระธาตุ แขวงพระบรมมหาราชวัง เขตพระนคร",
    "lat": 13.7577024,
    "lng": 100.491825
  },
  {
    "mu_place": "วัดสายไหม",
    "name": "พุทธสถานเชิงท่า-หน้าโบสถ์",
    "address": "VFVR+HQW ท่าทราย อำเภอเมืองนนทบุรี",
    "lat": 13.893999,
    "lng": 100.4918495
  },
  {
    "mu_place": "วัดสายไหม",
    "name": "สวนสันติชัยปราการ",
    "address": "QF7W+J29 ถนน พระอาทิตย์ แขวงชนะสงคราม เขตพระนคร",
    "lat": 13.7640367,
    "lng": 100.4951096
  },
  {
    "mu_place": "วัดสายไหม",
    "name": "วัดสุทัศนเทพวรารามราชวรมหาวิหาร",
    "address": "146 ถ. บำรุงเมือง แขวงวัดราชบพิตร เขตพระนคร",
    "lat": 13.751068,
    "lng": 100.5010391
  },
  {
    "mu_place": "วัดสายไหม",
    "name": "ป้อมพระสุเมรุ",
    "address": "QF7W+H7W ถนน พระอาทิตย์ แขวงชนะสงคราม เขตพระนคร",
    "lat": 13.7639776,
    "lng": 100.4956975
  },
  {
    "mu_place": "วัดสายไหม",
    "name": "สนามหลวง",
    "address": "QF4V+88R ถนน ราชดำเนินกลาง แขวงพระบรมมหาราชวัง เขตพระนคร",
    "lat": 13.7558693,
    "lng": 100.4932804
  },
  {
    "mu_place": "วัดสายไหม",
    "name": "สวนเฉลิมหล้า",
    "address": "ซอย เพชรบุรี 18 - ซอย ซอย เพชรบุรี 18 แขวงถนนเพชรบุรี เขตราชเทวี",
    "lat": 13.7500569,
    "lng": 100.5316902
  },
  {
    "mu_place": "วัดสายไหม",
    "name": "บ้านนราศิลป์",
    "address": "173 ถนน หลานหลวง แขวงวัดโสมนัส เขตป้อมปราบศัตรูพ่าย",
    "lat": 13.7565977,
    "lng": 100.5113017
  }
]