[
  {
    "mu_place": "หลวงพ่อปลดหนี้ วัดห้วยน้ำทรัพย์ หรือ วัดพระธาตุวาโย",
    "name": "UWall House Model",
    "address": "526, ตำบล คู้ยายหมี อำเภอสนามชัยเขต",
    "lat": 13.6124807,
    "lng": 101.5356041
  },
  {
    "mu_place": "หลวงพ่อปลดหนี้ วัดห้วยน้ำทรัพย์ หรือ วัดพระธาตุวาโย",
    "name": "ทุ่งนา BKK บ้านโกรกแก้ว",
    "address": "37 1 ตำบล วังเย็น อำเภอแปลงยาว",
    "lat": 13.4992018,
    "lng": 101.3216666
  },
  {
    "mu_place": "หลวงพ่อปลดหนี้ วัดห้วยน้ำทรัพย์ หรือ วัดพระธาตุวาโย",
    "name": "หอดูดาวเฉลิมพระเกียรติ 7 รอบ​ พระชนมพรรษา ฉะเชิงเทรา",
    "address": "หมู่ที่ 3 เลขที่ 999 ตำบล วังเย็น อำเภอแปลงยาว",
    "lat": 13.593513,
    "lng": 101.256158
  },
  {
    "mu_place": "หลวงพ่อปลดหนี้ วัดห้วยน้ำทรัพย์ หรือ วัดพระธาตุวาโย",
    "name": "อุทยานหุ่นปั้นอาจารย์ซ่วน",
    "address": "P8HX+QHM, Unnamed Rd, ตำบล ท่าถ่าน อำเภอพนมสารคาม",
    "lat": 13.7294721,
    "lng": 101.348935
  },
  {
    "mu_place": "หลวงพ่อปลดหนี้ วัดห้วยน้ำทรัพย์ หรือ วัดพระธาตุวาโย",
    "name": "โคกหนองนา โมเดล สวนป่าริมธาร พนัสนิคม",
    "address": "ซอย บ้านดอนกอก ตำบล นาเริก อำเภอพนัสนิคม",
    "lat": 13.4254146,
    "lng": 101.2486112
  },
  {
    "mu_place": "หลวงพ่อปลดหนี้ วัดห้วยน้ำทรัพย์ หรือ วัดพระธาตุวาโย",
    "name": "ส่วนป่าคุณลุงวิทูรย์",
    "address": "27 หมู่7 ตำบล ลาดกระทิง อำเภอสนามชัยเขต",
    "lat": 13.6137002,
    "lng": 101.4466563
  },
  {
    "mu_place": "หลวงพ่อปลดหนี้ วัดห้วยน้ำทรัพย์ หรือ วัดพระธาตุวาโย",
    "name": "น้ำตกทุ่งยายชี ตลาด100ร้าน",
    "address": "GHGC+469 ตำบล ท่าตะเกียบ อำเภอท่าตะเกียบ",
    "lat": 13.5252857,
    "lng": 101.5706041
  },
  {
    "mu_place": "หลวงพ่อปลดหนี้ วัดห้วยน้ำทรัพย์ หรือ วัดพระธาตุวาโย",
    "name": "นางชลชญา ชาญรวินทร์ (ศูนย์เรียนรู้วนเกษตร)",
    "address": "92 2 ตำบล เกาะขนุน อำเภอพนมสารคาม",
    "lat": 13.6843208,
    "lng": 101.4118525
  },
  {
    "mu_place": "หลวงพ่อปลดหนี้ วัดห้วยน้ำทรัพย์ หรือ วัดพระธาตุวาโย",
    "name": "บ้านริมน้ำฟาร์มควายไทย",
    "address": "Q826+8VH 3444 ตำบล บางคา อำเภอ ราชสาส์น",
    "lat": 13.7508132,
    "lng": 101.3122322
  },
  {
    "mu_place": "หลวงพ่อปลดหนี้ วัดห้วยน้ำทรัพย์ หรือ วัดพระธาตุวาโย",
    "name": "กระต๊อบมีนามีงู",
    "address": "20/1Moo1, Tambon Huasamrong, Amphoe PaengYao, ตำบล หัวสำโรง อำเภอแปลงยาว",
    "lat": 13.6512411,
    "lng": 101.2926629
  },
  {
    "mu_place": "หลวงพ่อปลดหนี้ วัดห้วยน้ำทรัพย์ หรือ วัดพระธาตุวาโย",
    "name": "วัดหลวงพี่แซม",
    "address": "51 หมู่10 ทางหลวงหมายเลข 331 ตำบล หนองปรือ อำเภอพนัสนิคม",
    "lat": 13.5011686,
    "lng": 101.2701928
  },
  {
    "mu_place": "หลวงพ่อปลดหนี้ วัดห้วยน้ำทรัพย์ หรือ วัดพระธาตุวาโย",
    "name": "สวนน้ำฤทัย",
    "address": "GH3W+2W ตำบล คลองตะเกรา อำเภอท่าตะเกียบ",
    "lat": 13.5026223,
    "lng": 101.5973008
  },
  {
    "mu_place": "หลวงพ่อปลดหนี้ วัดห้วยน้ำทรัพย์ หรือ วัดพระธาตุวาโย",
    "name": "สวนบ้านเล็ก",
    "address": "97X7+V9 ตำบล นาเริก อำเภอพนัสนิคม",
    "lat": 13.399688,
    "lng": 101.263395
  },
  {
    "mu_place": "หลวงพ่อปลดหนี้ วัดห้วยน้ำทรัพย์ หรือ วัดพระธาตุวาโย",
    "name": "สวนเภตรา",
    "address": "JC6Q+XF ตำบล ลาดกระทิง อำเภอสนามชัยเขต",
    "lat": 13.6123994,
    "lng": 101.4386937
  }
]