[
    {
        "name": "ถ้ำนาคา",
        "address": "ตำบล โพธิ์หมากแข้ง อำเภอ บึงโขงหลง บึงกาฬ 38220",
        "type": "ความรัก",
        "rating":4.8,
        "lat": 17.986937908763846,
        "long": 104.12787198409275
    },
    {
        "name": "ท้าวเวสสุวรรณ วัดพระศรีรัตนมหาธาตุวิหาร(วัดใหญ่)",
        "address": "92 3 ถนน พุทธบูชา ตำบล ในเมือง อำเภอเมืองพิษณุโลก พิษณุโลก 65000",
        "type": "โชคลาภ",
        "rating":4.8,
        "lat": 16.82428443993462,
        "long": 100.26225722334816
    },
    {
        "name": "วัดมณีวงศ์",
        "address": "75 หมู่ที่ 2 บ้านหนองกระพ้อ ตำบล ดงละคร อำเภอเมืองนครนายก นครนายก 26000",
        "type": "โชคลาภ",
        "lat": 14.15443877880431,
        "long": 101.18620669494625
    },
    {
        "name": "วัดอินทรวิหาร พระอารามหลวง (บางขุนพรหม)",
        "address": "144 ถนน วิสุทธิกษัตริย์ แขวงบางขุนพรหม เขตพระนคร กรุงเทพมหานคร 10200",
        "type": "โชคลาภ",
        "rating":4.6,
        "lat": 13.766815795934352,
        "long": 100.50294523929877
    },
    {
        "name": "ศาลเจ้าพ่อกรมหลวงชุมพร อุดมศักดิ์",
        "address":" ถนน พิษณุโลก แขวงสี่แยกมหานาค สวนจิตรลดา กรุงเทพมหานคร 10300",
        "type": "โชคลาภ",
        "lat":13.763161314926453,
        "long":100.51348375024361
    },
    {
        "name": "วิหารพระพุทธชินราชมงคลปราการ",
        "address":"ตำบลปากน้ำ อำเภอเมืองสมุทรปราการ สมุทรปราการ 10270",
        "type": "โชคลาภ",
        "lat":13.600913118237646,
        "long":100.59695099430053
    },
    {
        "name": "ท้าวเวสสุวรรณ วัดจุฬามณี",
        "address":"93 หมู่ที่ 9 ถ. สมุทรสงคราม - บางแพ ตำบล บางช้าง อำเภออัมพวา สมุทรสงคราม 75110",
        "type": "โชคลาภ",
        "lat":13.426019148859742,
        "long":99.96567785382103
    },
    {
        "name": "หลวงพ่อปลดหนี้ วัดห้วยน้ำทรัพย์ หรือ วัดพระธาตุวาโย",
        "address":"ตำบล ลาดกระทิง อำเภอสนามชัยเขต ฉะเชิงเทรา 24160",
        "type": "การเงิน",
        "lat":13.569340416630698,
        "long":101.42789847104159
    },
    {
        "name": "วัดสายไหม",
        "address":"ตำบลคูคต อำเภอลำลูกกา ปทุมธานี 12130",
        "type": "การเงิน",
        "lat":13.931905067605985,
        "long":100.65808695397283
    },
    {
        "name": "ศาลปู่อือลือนาคราช",
        "address":"ตำบล บึงโขงหลง อำเภอ บึงโขงหลง บึงกาฬ 38220",
        "type": "การเงิน",
        "lat":17.96069772497875,
        "long":104.04158313936124
    },
    {
        "name": "ลานพญาศรีสัตตนาคราช",
        "address":"ตำบล ในเมือง อำเภอเมืองนครพนม นครพนม 48000",
        "type": "โชคลาภ",
        "lat":17.39950212807117,
        "long":104.79055323935187
    },
    {
        "name": "วัดธารทหาร (ห้วยด้วน) หลวงพ่อพัฒน์ ปุญญกาโม",
        "address":"ตำบล ธารทหาร อำเภอ หนองบัว นครสวรรค์ 60110",
        "type": "การเงิน",
        "lat":15.801653809405854,
        "long":100.57336080859466
    },
    {
        "name": "หลวงพ่อฤาษีลิงดำ( พระราชพรหมยาน)",
        "address":"97/1 3265 ตำบล น้ำซึม อำเภอเมืองอุทัยธานี อุทัยธานี 61000",
        "type": "การเงิน",
        "lat":15.334476833975318,
        "long":100.07599539735307
    },
    {
        "name": "วัดสายไหม",
        "address":"ตำบลคูคต อำเภอลำลูกกา ปทุมธานี 12130",
        "type": "การเงิน",
        "lat":13.931905067605985,
        "long":100.65808695397283
    },
    {
        "name": "พุทธสถาน จีเต็กลิ้ม",
        "address":"ตำบล ศรีจุฬา อำเภอเมืองนครนายก นครนายก 26000",
        "type": "โชคลาภ ",
        "lat":14.027276716524732,
        "long":101.17622720964894
    },
    {
        "name": "ศาลาหลวงปู่ดู่",
        "address":"วัดสะแก ตำบล ธนู อำเภออุทัย จังหวัดพระนครศรีอยุธยา 13210",
        "type": "โชคลาภ",
        "lat":14.359871184284668,
        "long":100.62837098266806
    },
    {
        "name": "วัดดาวดึงษาราม",
        "address":"872 ซอย วัดดาวดึง ถนน สมเด็จพระปิ่นเกล้า แขวงบางยี่ขัน เขตบางพลัด กรุงเทพมหานคร 10700",
        "type": "การงาน",
        "lat":13.76571057939337,
        "long":100.49139842498916
    },
    {
        "name": "วิหารหลวงพ่อสำเร็จศักดิ์สิทธิ์",
        "address":"101 หมู่ที่ 12 ตลาดหนองตาโล่ ตำบล คชสิทธิ์ อำเภอหนองแค สระบุรี 18250",
        "type": "การงาน",
        "lat":14.396980188974386,
        "long":100.79306210780278
    },
    {
        "name": "หลวงพ่อรวย วัดตะโก",
        "address":"31 หมู่2 ตำบล ดอนหญ้านาง อำเภอ ภาชี จังหวัดพระนครศรีอยุธยา 13140",
        "type": "การเงิน",
        "lat":14.482809742488369,
        "long":100.71935697816252
    },
    {
        "name": "ศาลเจ้าหน่าจาซาไท้จื้อ อ่างศิลา",
        "address":"การเคหะฯ 1 ซอย 13 ตำบล อ่างศิลา อำเภอเมืองชลบุรี ชลบุรี 20000",
        "type": "การงาน",
        "lat":13.328902743825186,
        "long":100.92340489799906
    },
    {
        "name": "อนุสาวรีย์ พระนางเลือดขาว แม่เจ้าอยู่หัว",
        "address":"4151 ตำบล แม่เจ้าอยู่หัว อำเภอ เชียรใหญ่ นครศรีธรรมราช 80190",
        "type": "การงาน",
        "lat":8.110658273033112,
        "long":100.0991948672689
    },
    {
        "name": "วัดทุ่งเศรษฐี ราม2",
        "address":"144 หมู่ 8 ซอย บางนา-ตราด 42 แขวงดอกไม้ แขวงสวนหลวง กรุงเทพมหานคร 10263",
        "type": "การเงิน",
        "lat":13.753524365889078,
        "long":100.68410866521364
    },
    {
        "name": "วัดเขาบันไดอิฐ",
        "address":"44 ตำบล ไร่ส้ม อำเภอเมืองเพชรบุรี เพชรบุรี 76000",
        "type": "โชคลาภ",
        "lat":13.102091427659937,
        "long":99.92726194235583
    },
    {
        "name": "วัดป่าสว่างธรรม",
        "address":"ตำบล ดอนกลอย อำเภอ พิบูลย์รักษ์ อุดรธานี 41130",
        "type": "โชคลาภ",
        "lat":17.477158754000552,
        "long":103.02680258473772
    },
    {
        "name": "วัดศรีดอนมูล",
        "address":"58 ตำบล ชมภู อำเภอ สารภี เชียงใหม่ 50140",
        "type": "การเงิน",
        "lat":18.703489727635937,
        "long":99.06067464242581
    },
    {
        "name": "วัดพระธาตุดอยสะเก็ด",
        "address":"5 118 ตำบล เชิงดอย อำเภอดอยสะเก็ด เชียงใหม่ 50220",
        "type": "โชคลาภ",
        "lat":18.872729763077878,
        "long":99.14002525407805
    },
    {
        "name": "วัดธาตุมหาชัย หลวงปู่คำพันธ์",
        "address":" ตำบล มหาชัย อำเภอ ปลาปาก นครพนม 48160",
        "type": "โชคลาภ",
        "lat":17.278787796177394,
        "long":104.45913064240494
    },
    {
        "name": "วัดเขาตาเงาะอุดมพร(หลวงปู่จื่อ)",
        "address":"ตำบล หนองบัวระเหว อำเภอ หนองบัวระเหว ชัยภูมิ 36250",
        "type": "โชคลาภ",
        "lat":15.756477705033683,
        "long":101.7943005386944
    },
    {
        "name": "ศาลปู่อือลือนาคราช",
        "address":"ตำบล บึงโขงหลง อำเภอ บึงโขงหลง บึงกาฬ 38220",
        "type": "โชคลาภ",
        "lat":17.960881432979736,
        "long":104.04160459639425
    },
    {
        "name": "วัดปากคลองมะขามเฒ่า - หลวงปู่ศุข",
        "address":"ทางหลวงชนบทสาย ตำบล มะขามเฒ่า อำเภอ วัดสิงห์ ชัยนาท 17120",
        "type": "โชคลาภ",
        "lat":15.261937787143996,
        "long":100.05678846752339
    },
    {
        "name": "หลวงปู่ทิม พระเกจิแห่งดินแดนบูรพา วัดละหารไร่",
        "address":"บ.ละหารไร่ 1/1 ม.8 ต ตำบล หนองละลอก อำเภอบ้านค่าย ระยอง 21120",
        "type": "โชคลาภ",
        "lat":12.854007387324012,
        "long":101.30039149177566
    },
    {
        "name": "วัดสุทัศนเทพวรารามราชวรมหาวิหาร",
        "address":"146 ถ. บำรุงเมือง แขวงวัดราชบพิตร เขตพระนคร กรุงเทพมหานคร 10200",
        "type": "โชคลาภ",
        "lat":13.753902582447212,
        "long":100.50275569914453
    },
    {
        "name": "วัดพุน้อย",
        "address":"ตำบล ชอนม่วง อำเภอ บ้านหมี่ ลพบุรี 60260",
        "type": "โชคลาภ การเงิน",
        "lat":15.28366914698858,
        "long":100.58332780248318
    },
    {
        "name": "วัดโฆสิตาราม (หลวงพ่อกวย)",
        "address":"ตำบล บางขุด อำเภอ สรรคบุรี ชัยนาท 17140",
        "type": "การงาน โชคลาภ",
        "lat":14.961815762250755,
        "long":100.20631472334473     
    },
    {
        "name": "วัดไร่แตงทอง",
        "address":"99 1 ตำบล ทุ่งลูกนก อำเภอกำแพงแสน นครปฐม 73140",
        "type": "โชคลาภ",
        "lat":13.986052651929622,
        "long":99.84957030783767      
    },
    {
        "name": "วัดหนองเรือ",
        "address":"ตำบล ท่าตะเกียบ อำเภอท่าตะเกียบ ฉะเชิงเทรา 24160",
        "type": "โชคลาภ",
        "lat":13.489800433217424,
        "long":101.68811460493193
    },
    {
        "name": "วัดโสธรวรารามวรวิหาร",
        "address":"134 ถนน เทพคุณากร ตำบล หน้าเมือง อำเภอเมืองฉะเชิงเทรา ฉะเชิงเทรา 24000",
        "type": "โชคลาภ สุขภาพ การงาน",
        "lat":13.673738634909359,
        "long":101.06707715900791
    },
    {
        "name": "หลวงพ่อพระใส",
        "address":"หนองคาย ตำบลในเมือง เมือง หนองคาย 43000",
        "type": "โชคลาภ การงาน",
        "lat":17.885030997106462,
        "long":102.75746444241362
    },
    {
        "name": "วัดสวนขัน (พ่อท่านคล้ายวาจาสิทธิ์)",
        "address":"ตำบล สวนขัน อำเภอ ช้างกลาง นครศรีธรรมราช 80250",
        "type": "โชคลาภ",
        "lat":8.423919940294477,
        "long":99.60231732698229

    },
    {
        "name": "วัดอรุณราชวรารามราชวรมหาวิหาร",
        "address":"158 ถนน วังเดิม แขวงวัดอรุณ เขตบางกอกใหญ่ กรุงเทพมหานคร 10600",
        "type": "โชคลาภ",
        "lat":13.744021511241119,
        "long":100.4885834711973
    },
    {
        "name": "พระพิฆเนศ เทพแห่งความสำเร็จ วัดดอกจั่น(สถานที่เลี้ยงเด็กกำพร้า)",
        "address":"2 หมู่ที่ 4 ตำบล ท่าศาลา อำเภอเมืองเชียงใหม่ เชียงใหม่ 50000",
        "type": "การเงิน การเรียน ความรัก",
        "lat":18.760551317797685,
        "long":99.03250829825147
       
    },
    {
        "name": "วัดนางพระยา",
        "address":"ตำบล ปากนคร อำเภอเมืองนครศรีธรรมราช นครศรีธรรมราช 80000",
        "type": "โชคลาภ",
        "lat":8.441780060389803,
        "long":100.0263020999926
    },
    {
        "name": "วัดพระศรีรัตนมหาธาตุวรมหาวิหาร (วัดใหญ่)",
        "address":"435 ถ. ราชดำเนิน ตำบล ในเมือง อำเภอเมืองนครศรีธรรมราช นครศรีธรรมราช 80000",
        "type": "โชคลาภ",
        "lat":8.411349299082431,
        "long":99.96608135212671       
    },
    {
        "name": "วัดเจดีย์ ไอ้ไข่",
        "address":"36/1 ตำบลฉลอง อำเภอสิชล จังหวัดนครศรีธรรมราช",
        "type": "โชคลาภ",
        "lat":8.91191075538988,
        "long":99.84778469204102   
    },
    {
        "name": "วัดเขาขุนพนม",
        "address":"ตำบลบ้านเกาะ อำเภอพรหมคีรี จังหวัดนครศรีธรรมราช",
        "type": "โชคลาภ",
        "lat":8.543158737107143,
        "long":99.84333360738117  
    },
    {
        "name": "วัดธาตุน้อย",
        "address":"207 แม่เจ้าอยู่หัว อำเภอเชียรใหญ่ จังหวัดนครศรีธรรมราช",
        "type": "โชคลาภ",
        "lat":8.543031419590278,
        "long":99.84290445397949   
    },
    {
        "name": "ศาลหลักเมืองขนอม",
        "address":"หมู่ที่ 10 ตำบลขนอม อำเภอขนอม จังหวัดนครศรีธรรมราช",
        "type": "โชคลาภ",
        "lat":9.182715325943422,
        "long":99.85178675310085
    }

]
